{"type":"FeatureCollection","features":[{"type":"Feature","properties":{"Naam":"De Meent","Adres":"Terborchlaan 301","Postcode":"1816 MH","Plaats":"Alkmaar"},"geometry":{"type":"Point","coordinates":[4.71303,52.63315]}},{"type":"Feature","properties":{"Naam":"Jaap Eden IJsbaan","Adres":"Radioweg 64","Postcode":"1098 NJ","Plaats":"Amsterdam"},"geometry":{"type":"Point","coordinates":[4.94348,52.34757]}},{"type":"Feature","properties":{"Naam":"Kunstijsbaan Breda","Adres":"Terheijdenseweg 506","Postcode":"4826 AB","Plaats":"Breda"},"geometry":{"type":"Point","coordinates":[4.77484,51.61592]}},{"type":"Feature","properties":{"Naam":"Sportiom","Adres":"Victorialaan 10","Postcode":"5213 JE","Plaats":"Den Bosch"},"geometry":{"type":"Point","coordinates":[5.32682,51.70043]}},{"type":"Feature","properties":{"Naam":"De Uithof","Adres":"Jaap Edenweg 10","Postcode":"2544 NL","Plaats":"Den Haag"},"geometry":{"type":"Point","coordinates":[4.24038,52.0378]}},{"type":"Feature","properties":{"Naam":"Sportboulevard Dordrecht","Adres":"Fanny Blankers-Koenweg 10","Postcode":"3318 AX","Plaats":"Dordrecht"},"geometry":{"type":"Point","coordinates":[4.67871,51.7935]}},{"type":"Feature","properties":{"Naam":"IJssportcentrum Eindhoven","Adres":"Antoon Coolenlaan 3","Postcode":"5644 RX","Plaats":"Eindhoven"},"geometry":{"type":"Point","coordinates":[5.47179,51.41567]}},{"type":"Feature","properties":{"Naam":"IJsbaan Twente","Adres":"Colosseum 90","Postcode":"7521 PT","Plaats":"Enschede"},"geometry":{"type":"Point","coordinates":[6.82988,52.24047]}},{"type":"Feature","properties":{"Naam":"Laco Glanerbrook","Adres":"Kummeneadestraat 45","Postcode":"6165 BT","Plaats":"Geleen"},"geometry":{"type":"Point","coordinates":[5.83385,50.9656]}},{"type":"Feature","properties":{"Naam":"Kardinge","Adres":"Kardingerplein 1","Postcode":"9735 AA","Plaats":"Groningen"},"geometry":{"type":"Point","coordinates":[6.59633,53.23758]}},{"type":"Feature","properties":{"Naam":"IJsbaan Haarlem","Adres":"IJsbaanlaan 2","Postcode":"2024 AV","Plaats":"Haarlem"},"geometry":{"type":"Point","coordinates":[4.62564,52.39887]}},{"type":"Feature","properties":{"Naam":"Thialf Heerenveen","Adres":"Pim Mulierlaan 1","Postcode":"8443 DA","Plaats":"Heerenveen"},"geometry":{"type":"Point","coordinates":[5.94213,52.93863]}},{"type":"Feature","properties":{"Naam":"IJsbaan de Westfries","Adres":"Westfriese Parkweg 5","Postcode":"1625 MA","Plaats":"Hoorn"},"geometry":{"type":"Point","coordinates":[5.04008,52.65568]}},{"type":"Feature","properties":{"Naam":"Elfstedenhal","Adres":"Slauwerhoffweg 78","Postcode":"8912 BH","Plaats":"Leeuwaarden"},"geometry":{"type":"Point","coordinates":[5.76897,53.20208]}},{"type":"Feature","properties":{"Naam":"Schaatshal Leiden","Adres":"Vondellaan 41","Postcode":"2332 AA","Plaats":"Leiden"},"geometry":{"type":"Point","coordinates":[4.4735,52.16173]}},{"type":"Feature","properties":{"Naam":"Triavium","Adres":"Van Rosenburgweg 2","Postcode":"6537 TM","Plaats":"Nijmegen"},"geometry":{"type":"Point","coordinates":[5.78919,51.8225]}},{"type":"Feature","properties":{"Naam":"IJssportcentrum Tilburg","Adres":"Stappegoorweg 3","Postcode":"5022 DA","Plaats":"Tilburg"},"geometry":{"type":"Point","coordinates":[5.07422,51.5421]}},{"type":"Feature","properties":{"Naam":"Sports & Businesscampus","Adres":"Mississippidreef 151","Postcode":"3565CE ","Plaats":"Utrecht"},"geometry":{"type":"Point","coordinates":[5.08397,52.12305]}},{"type":"Feature","properties":{"Naam":"Silverdome","Adres":"van der Hagenstraat 20","Postcode":"2722 NT","Plaats":"Zoetermeer"},"geometry":{"type":"Point","coordinates":[4.51958,52.05228]}},{"type":"Feature","properties":{"Naam":"De Scheg Deventer","Adres":"Piet Van Donkplein 1","Postcode":"7422 LW","Plaats":"Deventer"},"geometry":{"type":"Point","coordinates":[6.20962,52.24964]}}]}