{"type":"FeatureCollection","features":[{"type":"Feature","properties":{"Naam":"Openbare School voor Zeer Moeilijk Lerende Kinderen te Emmen","Adres":"Zuidlaarderbrink 4","PC":"7812 GE","Plts":"EMMEN","Srt":"(V)SO"},"geometry":{"type":"Point","coordinates":[6.88217,52.76016]}},{"type":"Feature","properties":{"Naam":"De Aventurijn","Adres":"Witterhoofdweg 1-G","PC":"9405 HX","Plts":"ASSEN","Srt":"(V)SO"},"geometry":{"type":"Point","coordinates":[6.52937,52.98827]}},{"type":"Feature","properties":{"Naam":"De Aventurijn","Adres":"van Goghlaan 3","PC":"7901 GK","Plts":"HOOGEVEEN","Srt":"(V)SO"},"geometry":{"type":"Point","coordinates":[6.47003,52.72204]}},{"type":"Feature","properties":{"Naam":"De Aventurijn","Adres":"Sparrenlaan 4","PC":"7822 EM","Plts":"EMMEN","Srt":"(V)SO"},"geometry":null},{"type":"Feature","properties":{"Naam":"G.J. van der Ploegschool","Adres":"De Wielewaal 1","PC":"7905 GX","Plts":"HOOGEVEEN","Srt":"(V)SO"},"geometry":{"type":"Point","coordinates":[6.49889,52.71745]}},{"type":"Feature","properties":{"Naam":"de Windroos","Adres":"Voltastraat 27","PC":"7903 AA","Plts":"HOOGEVEEN","Srt":"(V)SO"},"geometry":{"type":"Point","coordinates":[6.47951,52.7353]}},{"type":"Feature","properties":{"Naam":"Openbare Mackayschool voor ZML","Adres":"Colijnstraat 4","PC":"7942 BH","Plts":"MEPPEL","Srt":"(V)SO"},"geometry":{"type":"Point","coordinates":[6.20149,52.70606]}},{"type":"Feature","properties":{"Naam":"Prins Johan Friso","Adres":"Boermarkeweg 68","PC":"7824 AA","Plts":"EMMEN","Srt":"(V)SO"},"geometry":{"type":"Point","coordinates":[6.91502,52.78642]}},{"type":"Feature","properties":{"Naam":"W A van`` Lieflandschool","Adres":"Witterhoofdweg 1-G","PC":"9405 HX","Plts":"ASSEN","Srt":"(V)SO"},"geometry":{"type":"Point","coordinates":[6.52937,52.98827]}},{"type":"Feature","properties":{"Naam":"Kentalis Guyotschool VSO CMB Vries","Adres":"Veenweg 20","PC":"9481 TJ","Plts":"VRIES","Srt":"(V)SO"},"geometry":{"type":"Point","coordinates":[6.57731,53.08605]}},{"type":"Feature","properties":{"Naam":"Kentalis Tine Marcusschool Assen","Adres":"Schoolstraat 35","PC":"9408 MB","Plts":"ASSEN","Srt":"(V)SO"},"geometry":{"type":"Point","coordinates":[6.51362,53.00111]}},{"type":"Feature","properties":{"Naam":"School voor SO/VSO","Adres":"Vlechttuinen 3","PC":"8322 BA","Plts":"URK","Srt":"(V)SO"},"geometry":{"type":"Point","coordinates":[5.62931,52.66431]}},{"type":"Feature","properties":{"Naam":"Eduvierschool De Anger","Adres":"Schoener 11 9","PC":"8243 TC","Plts":"LELYSTAD","Srt":"(V)SO"},"geometry":{"type":"Point","coordinates":[5.45366,52.50396]}},{"type":"Feature","properties":{"Naam":"Nautilus college - Radioweg","Adres":"Radioweg 35","PC":"1324 KW","Plts":"ALMERE","Srt":"(V)SO"},"geometry":{"type":"Point","coordinates":[5.19808,52.35594]}},{"type":"Feature","properties":{"Naam":"Eduvierschool De Stedenschool","Adres":"Bosvalkweg 1","PC":"8239 AC","Plts":"LELYSTAD","Srt":"(V)SO"},"geometry":{"type":"Point","coordinates":[5.48057,52.48914]}},{"type":"Feature","properties":{"Naam":"Eduvierschool De Optimist","Adres":"Hoefbladstraat 1-A","PC":"8302 VM","Plts":"EMMELOORD","Srt":"(V)SO"},"geometry":{"type":"Point","coordinates":[5.74527,52.71235]}},{"type":"Feature","properties":{"Naam":"Nautilus college - Paul Kleestraat","Adres":"Paul Kleestraat 35","PC":"1328 HC","Plts":"ALMERE","Srt":"(V)SO"},"geometry":{"type":"Point","coordinates":[5.26026,52.37263]}},{"type":"Feature","properties":{"Naam":"Nautilus college - Lierstraat","Adres":"Lierstraat 17","PC":"1312 JZ","Plts":"ALMERE","Srt":"(V)SO"},"geometry":{"type":"Point","coordinates":[5.19509,52.3705]}},{"type":"Feature","properties":{"Naam":"Nautilus SO","Adres":"J.J. Slauerhoffstraat 51","PC":"1321 HE","Plts":"ALMERE","Srt":"(V)SO"},"geometry":{"type":"Point","coordinates":[5.18246,52.35674]}},{"type":"Feature","properties":{"Naam":"De Optimist SO","Adres":"Jhr O v Alewijnstr 4","PC":"8302 AP","Plts":"EMMELOORD","Srt":"(V)SO"},"geometry":null},{"type":"Feature","properties":{"Naam":"Stichting Almere Speciaal","Adres":"Marathonlaan 7","PC":"1318 ED","Plts":"ALMERE","Srt":"(V)SO"},"geometry":{"type":"Point","coordinates":[5.25214,52.38899]}},{"type":"Feature","properties":{"Naam":"Aventurijn","Adres":"Marathonlaan 13","PC":"1318 ED","Plts":"ALMERE","Srt":"(V)SO"},"geometry":{"type":"Point","coordinates":[5.25039,52.38947]}},{"type":"Feature","properties":{"Naam":"De Bongerd","Adres":"Boomgaardweg 10","PC":"1326 AD","Plts":"ALMERE","Srt":"(V)SO"},"geometry":{"type":"Point","coordinates":[5.23848,52.37238]}},{"type":"Feature","properties":{"Naam":"De Zevenster","Adres":"de Doelen 1011","PC":"8233 GP","Plts":"LELYSTAD","Srt":"(V)SO"},"geometry":null},{"type":"Feature","properties":{"Naam":"Dr A Verschoor School","Adres":"Kortsteel 5","PC":"3892 BP","Plts":"ZEEWOLDE","Srt":"(V)SO"},"geometry":{"type":"Point","coordinates":[5.54297,52.32423]}},{"type":"Feature","properties":{"Naam":"Zonnebloemschool","Adres":"Europalaan 148","PC":"8303 GM","Plts":"EMMELOORD","Srt":"(V)SO"},"geometry":{"type":"Point","coordinates":[5.74324,52.71115]}},{"type":"Feature","properties":{"Naam":"SO Zonnebloemschoo, Urk","Adres":"Europalaan 148","PC":"8303 GM","Plts":"EMMELOORD","Srt":"(V)SO"},"geometry":{"type":"Point","coordinates":[5.74324,52.71115]}},{"type":"Feature","properties":{"Naam":"De Saffier","Adres":"Klokhuislaan 4","PC":"9201 JE","Plts":"DRACHTEN","Srt":"(V)SO"},"geometry":{"type":"Point","coordinates":[6.10053,53.11624]}},{"type":"Feature","properties":{"Naam":"De Lytse Wâlden","Adres":"De Lanen 98","PC":"9204 WC","Plts":"DRACHTEN","Srt":"(V)SO"},"geometry":{"type":"Point","coordinates":[6.0786,53.09071]}},{"type":"Feature","properties":{"Naam":"De Monoliet","Adres":"Cornelis Trooststraat 29","PC":"8932 BR","Plts":"LEEUWARDEN","Srt":"(V)SO"},"geometry":{"type":"Point","coordinates":[5.78727,53.1904]}},{"type":"Feature","properties":{"Naam":"De Monoliet","Adres":"Holstmeerweg 1","PC":"8936 AS","Plts":"LEEUWARDEN","Srt":"(V)SO"},"geometry":{"type":"Point","coordinates":[5.82469,53.19161]}},{"type":"Feature","properties":{"Naam":"VSO Sneek","Adres":"Hemdijk 20","PC":"8601 JV","Plts":"SNEEK","Srt":"(V)SO"},"geometry":{"type":"Point","coordinates":[5.643,53.0323]}},{"type":"Feature","properties":{"Naam":"Sinne (v)so zml/mg","Adres":"Simmerdyk 5","PC":"8601 ZP","Plts":"SNEEK","Srt":"(V)SO"},"geometry":{"type":"Point","coordinates":[5.64162,53.03344]}},{"type":"Feature","properties":{"Naam":"School Lyndensteyn","Adres":"Hoofdstraat 1","PC":"9244 CL","Plts":"BEETSTERZWAAG","Srt":"(V)SO"},"geometry":{"type":"Point","coordinates":[6.07238,53.06021]}},{"type":"Feature","properties":{"Naam":"De Wingerd","Adres":"De Klimmer 21","PC":"9104 JT","Plts":"DAMWALD","Srt":"(V)SO"},"geometry":{"type":"Point","coordinates":[5.99992,53.29532]}},{"type":"Feature","properties":{"Naam":"Christelijke Piet Bakkerschool","Adres":"Plevierenpad 3","PC":"8601 XC","Plts":"SNEEK","Srt":"(V)SO"},"geometry":{"type":"Point","coordinates":[5.64586,53.03145]}},{"type":"Feature","properties":{"Naam":"Duisterhoutschool","Adres":"Domela Nieuwenhuisweg 5","PC":"8448 GK","Plts":"HEERENVEEN","Srt":"(V)SO"},"geometry":{"type":"Point","coordinates":[5.9409,52.96125]}},{"type":"Feature","properties":{"Naam":"Duisterhoutschool","Adres":"Boekhorsterweg 15","PC":"8431 CW","Plts":"OOSTERWOLDE FR","Srt":"(V)SO"},"geometry":null},{"type":"Feature","properties":{"Naam":"Openbaar ZML-School Leeuwarden-Franeker It Twaluk","Adres":"Haydnstraat 2","PC":"8915 BH","Plts":"LEEUWARDEN","Srt":"(V)SO"},"geometry":{"type":"Point","coordinates":[5.77836,53.21054]}},{"type":"Feature","properties":{"Naam":"Openbaar ZML-School Leeuwarden-Franeker It Twaluk","Adres":"Harlingerweg 22","PC":"8801 PA","Plts":"FRANEKER","Srt":"(V)SO"},"geometry":null},{"type":"Feature","properties":{"Naam":"Portalis","Adres":"Boerestreek 24","PC":"9211 TV","Plts":"KORTEHEMMEN","Srt":"(V)SO"},"geometry":{"type":"Point","coordinates":[6.07227,53.07558]}},{"type":"Feature","properties":{"Naam":"Portalis","Adres":"Boerestreek 24","PC":"9211 TV","Plts":"KORTEHEMMEN","Srt":"(V)SO"},"geometry":{"type":"Point","coordinates":[6.07227,53.07558]}},{"type":"Feature","properties":{"Naam":"School voor Voorgezet Speciaal Onderwijs","Adres":"Anklaarseweg 71","PC":"7316 MB","Plts":"APELDOORN","Srt":"(V)SO"},"geometry":{"type":"Point","coordinates":[5.96535,52.23561]}},{"type":"Feature","properties":{"Naam":"Daniel de Brouwerschool","Adres":"Lathmerweg 4","PC":"7384 AN","Plts":"WILP GLD","Srt":"(V)SO"},"geometry":null},{"type":"Feature","properties":{"Naam":"Hamalandschool","Adres":"Varsseveldseweg 47","PC":"7131 BH","Plts":"LICHTENVOORDE","Srt":"(V)SO"},"geometry":{"type":"Point","coordinates":[6.55742,51.98442]}},{"type":"Feature","properties":{"Naam":"Meforta College","Adres":"Vluchtheuvellaan 4","PC":"6671 DN","Plts":"ZETTEN","Srt":"(V)SO"},"geometry":{"type":"Point","coordinates":[5.71685,51.93287]}},{"type":"Feature","properties":{"Naam":"De Brouwerij","Adres":"Bakenbergseweg 76","PC":"6814 MK","Plts":"ARNHEM","Srt":"(V)SO"},"geometry":{"type":"Point","coordinates":[5.88914,51.99189]}},{"type":"Feature","properties":{"Naam":"De Brouwerij","Adres":"Horalaan 5","PC":"6717 LX","Plts":"EDE GLD","Srt":"(V)SO"},"geometry":null},{"type":"Feature","properties":{"Naam":"Sgm. so/vso De Brouwerij","Adres":"Stationsweg 49","PC":"6861 EE","Plts":"OOSTERBEEK","Srt":"(V)SO"},"geometry":{"type":"Point","coordinates":[5.84209,51.99274]}},{"type":"Feature","properties":{"Naam":"De Brouwerij/Olympus","Adres":"Olympus 11","PC":"6832 EL","Plts":"ARNHEM","Srt":"(V)SO"},"geometry":{"type":"Point","coordinates":[5.9026,51.96345]}},{"type":"Feature","properties":{"Naam":"Het Kroonpad","Adres":"Citroenvlinder 51","PC":"7323 RC","Plts":"APELDOORN","Srt":"(V)SO"},"geometry":{"type":"Point","coordinates":[5.99864,52.23606]}},{"type":"Feature","properties":{"Naam":"De Vaart / Vierbeek College","Adres":"Wijnand van Arnhemweg 1","PC":"6862 XM","Plts":"OOSTERBEEK","Srt":"(V)SO"},"geometry":{"type":"Point","coordinates":[5.85426,51.98164]}},{"type":"Feature","properties":{"Naam":"De Ziep","Adres":"Marsweg 49","PC":"6941 BH","Plts":"DIDAM","Srt":"(V)SO"},"geometry":{"type":"Point","coordinates":[6.12422,51.94398]}},{"type":"Feature","properties":{"Naam":"Het Bariet","Adres":"dr Ariensstraat 3-A","PC":"7131 XM","Plts":"LICHTENVOORDE","Srt":"(V)SO"},"geometry":{"type":"Point","coordinates":[6.57163,51.98202]}},{"type":"Feature","properties":{"Naam":"Gentiaan College","Adres":"Gentiaanstraat 804","PC":"7322 CZ","Plts":"APELDOORN","Srt":"(V)SO"},"geometry":{"type":"Point","coordinates":[5.97921,52.22975]}},{"type":"Feature","properties":{"Naam":"Het Hofpark","Adres":"Mr. van Hasseltlaan 57","PC":"7316 DK","Plts":"APELDOORN","Srt":"(V)SO"},"geometry":{"type":"Point","coordinates":[5.95981,52.22589]}},{"type":"Feature","properties":{"Naam":"Gentiaan College - Travo","Adres":"Ln van de Mensenrechten 500","PC":"7331 VZ","Plts":"APELDOORN","Srt":"(V)SO"},"geometry":{"type":"Point","coordinates":[5.97054,52.20812]}},{"type":"Feature","properties":{"Naam":"De Toekomst","Adres":"Asakkerweg 5","PC":"6718 ZE","Plts":"EDE GLD","Srt":"(V)SO"},"geometry":null},{"type":"Feature","properties":{"Naam":"Anne Flokstraschool","Adres":"Emmalaan 2","PC":"7204 AS","Plts":"ZUTPHEN","Srt":"(V)SO"},"geometry":{"type":"Point","coordinates":[6.20605,52.14234]}},{"type":"Feature","properties":{"Naam":"Het Hofpark","Adres":"Mr. van Hasseltlaan 57","PC":"7316 DK","Plts":"APELDOORN","Srt":"(V)SO"},"geometry":{"type":"Point","coordinates":[5.95981,52.22589]}},{"type":"Feature","properties":{"Naam":"Briant College","Adres":"Bethanienstraat 250","PC":"6826 TJ","Plts":"ARNHEM","Srt":"(V)SO"},"geometry":{"type":"Point","coordinates":[5.96024,51.97823]}},{"type":"Feature","properties":{"Naam":"Vester College","Adres":"Hendrik Stafweg 2","PC":"6712 EA","Plts":"EDE GLD","Srt":"(V)SO"},"geometry":null},{"type":"Feature","properties":{"Naam":"Jan Hein Donnerschool","Adres":"Schoonderbekerweg 45","PC":"3794 NA","Plts":"DE GLIND","Srt":"(V)SO"},"geometry":{"type":"Point","coordinates":[5.50476,52.12109]}},{"type":"Feature","properties":{"Naam":"Sint Maartenschool","Adres":"Hengstdal 3","PC":"6574 NA","Plts":"UBBERGEN","Srt":"(V)SO"},"geometry":{"type":"Point","coordinates":[5.89949,51.83381]}},{"type":"Feature","properties":{"Naam":"Talita Koemi School","Adres":"Burgemeester Daleslaan 1","PC":"6532 CL","Plts":"NIJMEGEN","Srt":"(V)SO"},"geometry":{"type":"Point","coordinates":[5.83983,51.81663]}},{"type":"Feature","properties":{"Naam":"Talita Koemi","Adres":"Kwakkenbergweg 33","PC":"6523 MJ","Plts":"NIJMEGEN","Srt":"(V)SO"},"geometry":{"type":"Point","coordinates":[5.89105,51.82956]}},{"type":"Feature","properties":{"Naam":"Foooocus Nijmegen","Adres":"Hertogstraat 58","PC":"6511 SC","Plts":"NIJMEGEN","Srt":"(V)SO"},"geometry":{"type":"Point","coordinates":[5.86847,51.84553]}},{"type":"Feature","properties":{"Naam":"De Kom School voor Speciaal Onderwijs Voortgezet Speciaal Onderwijs en ZMLK","Adres":"Pa Hoeklaan 2","PC":"6651 TG","Plts":"DRUTEN","Srt":"(V)SO"},"geometry":{"type":"Point","coordinates":[5.60401,51.89325]}},{"type":"Feature","properties":{"Naam":"De Kom-Linawijs","Adres":"Veerweg 96","PC":"4101 AL","Plts":"CULEMBORG","Srt":"(V)SO"},"geometry":{"type":"Point","coordinates":[5.2168,51.9609]}},{"type":"Feature","properties":{"Naam":"De Kom","Adres":"Mr. van Coothstraat 34","PC":"6651 ZJ","Plts":"DRUTEN","Srt":"(V)SO"},"geometry":{"type":"Point","coordinates":[5.61409,51.88683]}},{"type":"Feature","properties":{"Naam":"De Kom Wamel","Adres":"Lakenstraat 35-A","PC":"6659 BE","Plts":"WAMEL","Srt":"(V)SO"},"geometry":{"type":"Point","coordinates":[5.46602,51.87904]}},{"type":"Feature","properties":{"Naam":"Bredezorgschool De Cambier","Adres":"Marga Klompestraat 2","PC":"4003 ZR","Plts":"TIEL","Srt":"(V)SO"},"geometry":{"type":"Point","coordinates":[5.40973,51.89245]}},{"type":"Feature","properties":{"Naam":"De Wingerd","Adres":"Oosterlaan 147","PC":"8072 BW","Plts":"NUNSPEET","Srt":"(V)SO"},"geometry":{"type":"Point","coordinates":[5.80438,52.38208]}},{"type":"Feature","properties":{"Naam":"Protestants Christelijke Zeer Moeilijk Lerende Kinderen School De Lelie","Adres":"Anne Franklaan 7","PC":"3842 GV","Plts":"HARDERWIJK","Srt":"(V)SO"},"geometry":{"type":"Point","coordinates":[5.64324,52.343]}},{"type":"Feature","properties":{"Naam":"Protestants Christelijke Zeer Moeilijk Lerende Kinderen School De Lelie","Adres":"Enckerkamp 16","PC":"3853 HL","Plts":"ERMELO","Srt":"(V)SO"},"geometry":{"type":"Point","coordinates":[5.59895,52.31707]}},{"type":"Feature","properties":{"Naam":"Protestants Christelijke Zeer Moeilijk Lerende Kinderen School De Lelie","Adres":"Scherpencamp 42","PC":"3861 LT","Plts":"NIJKERK GLD","Srt":"(V)SO"},"geometry":null},{"type":"Feature","properties":{"Naam":"Sonnewijser unit vervolgonderwijs Tiel","Adres":"Jac Cremerstraat 1","PC":"4001 XM","Plts":"TIEL","Srt":"(V)SO"},"geometry":null},{"type":"Feature","properties":{"Naam":"Bartimeus OWI voor Visueel Gehandicapte Leerlingen","Adres":"Graanweg 1-B","PC":"7242 AT","Plts":"LOCHEM","Srt":"(V)SO"},"geometry":{"type":"Point","coordinates":[6.40927,52.16188]}},{"type":"Feature","properties":{"Naam":"St Tarcisiusschool","Adres":"Pater Eijmardweg 19","PC":"6525 RL","Plts":"NIJMEGEN","Srt":"(V)SO"},"geometry":{"type":"Point","coordinates":[5.86853,51.81232]}},{"type":"Feature","properties":{"Naam":"Dr A Verschoor School","Adres":"Groenelaantje 40","PC":"8072 DD","Plts":"NUNSPEET","Srt":"(V)SO"},"geometry":{"type":"Point","coordinates":[5.80046,52.37051]}},{"type":"Feature","properties":{"Naam":"Dr A Verschoor School","Adres":"De Sypel 2","PC":"3842 AE","Plts":"HARDERWIJK","Srt":"(V)SO"},"geometry":{"type":"Point","coordinates":[5.62427,52.34176]}},{"type":"Feature","properties":{"Naam":"Dr A Verschoor School","Adres":"Prinses Marijkestraat 10","PC":"8162 BB","Plts":"EPE","Srt":"(V)SO"},"geometry":{"type":"Point","coordinates":[5.9809,52.34697]}},{"type":"Feature","properties":{"Naam":"De Zonnehoek Chr Sch v Spec Ond ZMLK","Adres":"Citroenvlinder 77","PC":"7323 RC","Plts":"APELDOORN","Srt":"(V)SO"},"geometry":{"type":"Point","coordinates":[5.99767,52.23652]}},{"type":"Feature","properties":{"Naam":"de Lans","Adres":"Zutphensestraat 175","PC":"6971 JR","Plts":"BRUMMEN","Srt":"(V)SO"},"geometry":{"type":"Point","coordinates":[6.15995,52.1074]}},{"type":"Feature","properties":{"Naam":"De Leeuwerik","Adres":"Bleekenweg 1-B","PC":"7161 AB","Plts":"NEEDE","Srt":"(V)SO"},"geometry":{"type":"Point","coordinates":[6.61289,52.12956]}},{"type":"Feature","properties":{"Naam":"Rehoboth (v)so, Barneveld","Adres":"Schoutenstraat 113","PC":"3771 CH","Plts":"BARNEVELD","Srt":"(V)SO"},"geometry":{"type":"Point","coordinates":[5.57225,52.14582]}},{"type":"Feature","properties":{"Naam":"Rehoboth SO, Ochten","Adres":"Het Katsland 6","PC":"4051 KA","Plts":"OCHTEN","Srt":"(V)SO"},"geometry":{"type":"Point","coordinates":[5.56422,51.91035]}},{"type":"Feature","properties":{"Naam":"De Wingerd","Adres":"De Verbetering 5","PC":"9744 DZ","Plts":"GRONINGEN","Srt":"(V)SO"},"geometry":{"type":"Point","coordinates":[6.50907,53.20774]}},{"type":"Feature","properties":{"Naam":"De Meidoornschool","Adres":"Vlaanderenlaan 7","PC":"9501 TJ","Plts":"STADSKANAAL","Srt":"(V)SO"},"geometry":{"type":"Point","coordinates":[6.96399,52.99021]}},{"type":"Feature","properties":{"Naam":"Meentsch Openb Sch v SO aan ZML kinderen","Adres":"Grintweg 70","PC":"9675 HL","Plts":"WINSCHOTEN","Srt":"(V)SO"},"geometry":{"type":"Point","coordinates":[7.02525,53.15025]}},{"type":"Feature","properties":{"Naam":"Margaretha Hardenbergschool voor Zeer Moeilijk Lerende Kinderen","Adres":"Schoolstraat 11","PC":"9641 JW","Plts":"VEENDAM","Srt":"(V)SO"},"geometry":{"type":"Point","coordinates":[6.87316,53.09854]}},{"type":"Feature","properties":{"Naam":"W A V Liefland School","Adres":"Paterswoldseweg 131","PC":"9727 BE","Plts":"GRONINGEN","Srt":"(V)SO"},"geometry":{"type":"Point","coordinates":[6.55761,53.20453]}},{"type":"Feature","properties":{"Naam":"Mytylsch Prins Johan Friso","Adres":"Dilgtplein 1-A","PC":"9751 NJ","Plts":"HAREN GN","Srt":"(V)SO"},"geometry":{"type":"Point","coordinates":[6.59833,53.18583]}},{"type":"Feature","properties":{"Naam":"Mytylsch Prins Johan Friso","Adres":"Dilgtplein 1","PC":"9751 NJ","Plts":"HAREN GN","Srt":"(V)SO"},"geometry":{"type":"Point","coordinates":[6.5974,53.18535]}},{"type":"Feature","properties":{"Naam":"Koninklijke Visio Onderwijs Haren","Adres":"Rijksstraatweg 284","PC":"9752 CL","Plts":"HAREN GN","Srt":"(V)SO"},"geometry":{"type":"Point","coordinates":[6.61262,53.16441]}},{"type":"Feature","properties":{"Naam":"De Steiger Geref ZMLK","Adres":"Koperstraat 4","PC":"9743 RW","Plts":"GRONINGEN","Srt":"(V)SO"},"geometry":{"type":"Point","coordinates":[6.52965,53.22187]}},{"type":"Feature","properties":{"Naam":"Kentalis Guyotschool SO CMB Haren","Adres":"Rijksstraatweg 63-B","PC":"9752 AC","Plts":"HAREN GN","Srt":"(V)SO"},"geometry":{"type":"Point","coordinates":[6.59282,53.17835]}},{"type":"Feature","properties":{"Naam":"Portalis","Adres":"Hoogeweg 9","PC":"9746 TN","Plts":"GRONINGEN","Srt":"(V)SO"},"geometry":{"type":"Point","coordinates":[6.52728,53.23665]}},{"type":"Feature","properties":{"Naam":"Portalis","Adres":"Hoogeweg 9","PC":"9746 TN","Plts":"GRONINGEN","Srt":"(V)SO"},"geometry":{"type":"Point","coordinates":[6.52728,53.23665]}},{"type":"Feature","properties":{"Naam":"Taalbrug Junior Venlo","Adres":"Vijverhofstraat 4","PC":"5913 TV","Plts":"VENLO","Srt":"(V)SO"},"geometry":{"type":"Point","coordinates":[6.17587,51.3657]}},{"type":"Feature","properties":{"Naam":"Mgr. Hanssen Hoensbroek","Adres":"Zandbergsweg 115","PC":"6432 CC","Plts":"HOENSBROEK","Srt":"(V)SO"},"geometry":{"type":"Point","coordinates":[5.91149,50.92293]}},{"type":"Feature","properties":{"Naam":"Mgr. Hanssen Roermond","Adres":"Jagerstraat 2","PC":"6042 KA","Plts":"ROERMOND","Srt":"(V)SO"},"geometry":{"type":"Point","coordinates":[6.01559,51.19394]}},{"type":"Feature","properties":{"Naam":"Herman Broerenschool","Adres":"Keulsebaan 508","PC":"6045 GL","Plts":"ROERMOND","Srt":"(V)SO"},"geometry":{"type":"Point","coordinates":[6.01628,51.17429]}},{"type":"Feature","properties":{"Naam":"School voorV ZMOK De Widdonck","Adres":"Meijelseweg 2-B","PC":"6089 ND","Plts":"HEIBLOEM","Srt":"(V)SO"},"geometry":{"type":"Point","coordinates":[5.89149,51.29621]}},{"type":"Feature","properties":{"Naam":"School voor ZMOK De Widdonck","Adres":"Beatrixlaan 3-B","PC":"6006 AH","Plts":"WEERT","Srt":"(V)SO"},"geometry":{"type":"Point","coordinates":[5.70993,51.24613]}},{"type":"Feature","properties":{"Naam":"Instituut voor Orthopedagogisch Onderwijs","Adres":"Frans van de Laarplein 3","PC":"6217 NH","Plts":"MAASTRICHT","Srt":"(V)SO"},"geometry":{"type":"Point","coordinates":[5.67318,50.85602]}},{"type":"Feature","properties":{"Naam":"De Talententuin","Adres":"Marienwaard 57","PC":"6222 AM","Plts":"MAASTRICHT","Srt":"(V)SO"},"geometry":{"type":"Point","coordinates":[5.72209,50.87056]}},{"type":"Feature","properties":{"Naam":"Don Boscoschool ZMOK/SO/ VSO","Adres":"Frans van de Laarplein 3","PC":"6217 NH","Plts":"MAASTRICHT","Srt":"(V)SO"},"geometry":{"type":"Point","coordinates":[5.67318,50.85602]}},{"type":"Feature","properties":{"Naam":"Don Bosco","Adres":"Porseleinstraat 14","PC":"6216 BP","Plts":"MAASTRICHT","Srt":"(V)SO"},"geometry":{"type":"Point","coordinates":[5.66151,50.84997]}},{"type":"Feature","properties":{"Naam":"Jan Baptist","Adres":"Porseleinstraat 14","PC":"6216 BP","Plts":"MAASTRICHT","Srt":"(V)SO"},"geometry":{"type":"Point","coordinates":[5.66151,50.84997]}},{"type":"Feature","properties":{"Naam":"Jan Baptist","Adres":"Frans van de Laarplein 3","PC":"6217 NH","Plts":"MAASTRICHT","Srt":"(V)SO"},"geometry":{"type":"Point","coordinates":[5.67318,50.85602]}},{"type":"Feature","properties":{"Naam":"Speciaal Onderwijs Voortgezet Speciaal Onderwijs Catharina","Adres":"Smidserweg 4","PC":"6419 CP","Plts":"HEERLEN","Srt":"(V)SO"},"geometry":{"type":"Point","coordinates":[5.97041,50.87733]}},{"type":"Feature","properties":{"Naam":"SO VSO De Pyler","Adres":"Meezenbroekerweg 5","PC":"6412 VK","Plts":"HEERLEN","Srt":"(V)SO"},"geometry":{"type":"Point","coordinates":[5.97791,50.89439]}},{"type":"Feature","properties":{"Naam":"ZMLK School St Jan Baptist","Adres":"Schoolstraat 81","PC":"6466 HV","Plts":"KERKRADE","Srt":"(V)SO"},"geometry":{"type":"Point","coordinates":[6.02125,50.85732]}},{"type":"Feature","properties":{"Naam":"Mikado SO en VSO ZMLK School","Adres":"Stiemensweg 44","PC":"6591 MD","Plts":"GENNEP","Srt":"(V)SO"},"geometry":{"type":"Point","coordinates":[5.98386,51.68685]}},{"type":"Feature","properties":{"Naam":"De Buitenhof school voor speciaal en voortgezet speciaal onderwijs","Adres":"Kloosterkensweg 6","PC":"6419 PJ","Plts":"HEERLEN","Srt":"(V)SO"},"geometry":{"type":"Point","coordinates":[5.97061,50.87048]}},{"type":"Feature","properties":{"Naam":"Buitenhof","Adres":"Vijverdalseweg 1","PC":"6226 NB","Plts":"MAASTRICHT","Srt":"(V)SO"},"geometry":{"type":"Point","coordinates":[5.73265,50.85142]}},{"type":"Feature","properties":{"Naam":"VSO-St. Jozef","Adres":"Pater Kustersweg 3","PC":"6267 NL","Plts":"CADIER EN KEER","Srt":"(V)SO"},"geometry":{"type":"Point","coordinates":[5.74756,50.83893]}},{"type":"Feature","properties":{"Naam":"Maaskei vso","Adres":"Herenstraat 296","PC":"6004 XL","Plts":"WEERT","Srt":"(V)SO"},"geometry":{"type":"Point","coordinates":[5.71776,51.25658]}},{"type":"Feature","properties":{"Naam":"Maaskei so","Adres":"Beatrixlaan 3-A","PC":"6006 AH","Plts":"WEERT","Srt":"(V)SO"},"geometry":{"type":"Point","coordinates":[5.70993,51.24613]}},{"type":"Feature","properties":{"Naam":"Heikei","Adres":"Speckerweg 5","PC":"6081 NN","Plts":"HAELEN","Srt":"(V)SO"},"geometry":{"type":"Point","coordinates":[5.94409,51.23757]}},{"type":"Feature","properties":{"Naam":"Ulingshof","Adres":"Ulingshofweg 26","PC":"5915 PM","Plts":"VENLO","Srt":"(V)SO"},"geometry":{"type":"Point","coordinates":[6.18673,51.33843]}},{"type":"Feature","properties":{"Naam":"Impuls","Adres":"Lingsterhofweg 1","PC":"5931 MA","Plts":"TEGELEN","Srt":"(V)SO"},"geometry":{"type":"Point","coordinates":[6.14406,51.34436]}},{"type":"Feature","properties":{"Naam":"Spectrum","Adres":"Groenewoltsepad 2","PC":"5801 AP","Plts":"VENRAY","Srt":"(V)SO"},"geometry":{"type":"Point","coordinates":[5.97327,51.52013]}},{"type":"Feature","properties":{"Naam":"Adelante Onderwijs","Adres":"Keelstraat 1","PC":"6301 XT","Plts":"VALKENBURG LB","Srt":"(V)SO"},"geometry":null},{"type":"Feature","properties":{"Naam":"Tytylschool de Maasgouw Maastricht","Adres":"Bemelergrubbe 5","PC":"6226 NK","Plts":"MAASTRICHT","Srt":"(V)SO"},"geometry":{"type":"Point","coordinates":[5.72979,50.84889]}},{"type":"Feature","properties":{"Naam":"ZMOK School Xaverius","Adres":"Valkstraat 2-A","PC":"6135 GC","Plts":"SITTARD","Srt":"(V)SO"},"geometry":{"type":"Point","coordinates":[5.85412,51.00303]}},{"type":"Feature","properties":{"Naam":"ZMOK School Xaverius","Adres":"Eloystraat 1-A","PC":"6166 XM","Plts":"GELEEN","Srt":"(V)SO"},"geometry":{"type":"Point","coordinates":[5.83455,50.97191]}},{"type":"Feature","properties":{"Naam":"De Parkschool","Adres":"Onderste Sittarderweg 4","PC":"6141 AZ","Plts":"LIMBRICHT","Srt":"(V)SO"},"geometry":{"type":"Point","coordinates":[5.84471,51.01176]}},{"type":"Feature","properties":{"Naam":"De Wijnberg, onderwijsexpertise SO / VSO","Adres":"Postweg 88","PC":"5915 HB","Plts":"VENLO","Srt":"(V)SO"},"geometry":{"type":"Point","coordinates":[6.199,51.36694]}},{"type":"Feature","properties":{"Naam":"De Wijnberg, onderwijsexpertise LZK SO","Adres":"Kasteel Hillenraedtstr 36-D","PC":"6043 HK","Plts":"ROERMOND","Srt":"(V)SO"},"geometry":null},{"type":"Feature","properties":{"Naam":"Onderwijscentrum Leijpark","Adres":"Professor Stoltehof 1","PC":"5022 KE","Plts":"TILBURG","Srt":"(V)SO"},"geometry":{"type":"Point","coordinates":[5.1033,51.54191]}},{"type":"Feature","properties":{"Naam":"Taalbrug Junior","Adres":"Toledolaan 3","PC":"5629 CC","Plts":"EINDHOVEN","Srt":"(V)SO"},"geometry":{"type":"Point","coordinates":[5.45662,51.49049]}},{"type":"Feature","properties":{"Naam":"De Rungraaf School voor Speciaal Onderwijs aan Zeer Moeilijk Opvoedbare Kinderen","Adres":"Avignonlaan 11","PC":"5627 GA","Plts":"EINDHOVEN","Srt":"(V)SO"},"geometry":{"type":"Point","coordinates":[5.44422,51.47556]}},{"type":"Feature","properties":{"Naam":"De Hilt Orthopedagogisch onderwijsinstituut voor SO en VSO","Adres":"Azalealaan 38","PC":"5701 CM","Plts":"HELMOND","Srt":"(V)SO"},"geometry":{"type":"Point","coordinates":[5.67327,51.47673]}},{"type":"Feature","properties":{"Naam":"Het Berkenhofcollege VSO","Adres":"Tuinzigtlaan 12","PC":"4812 XN","Plts":"BREDA","Srt":"(V)SO"},"geometry":{"type":"Point","coordinates":[4.75292,51.58171]}},{"type":"Feature","properties":{"Naam":"De Fakkel School voor Speciaal Onderwijs","Adres":"Van Goghlaan 8","PC":"4703 JB","Plts":"ROOSENDAAL","Srt":"(V)SO"},"geometry":{"type":"Point","coordinates":[4.44648,51.5366]}},{"type":"Feature","properties":{"Naam":"Het Aventurijncollege","Adres":"De Verlenging 10","PC":"4616 AX","Plts":"BERGEN OP ZOOM","Srt":"(V)SO"},"geometry":{"type":"Point","coordinates":[4.29376,51.48148]}},{"type":"Feature","properties":{"Naam":"De Kei (V) SO","Adres":"Poolseweg 190","PC":"4818 CG","Plts":"BREDA","Srt":"(V)SO"},"geometry":{"type":"Point","coordinates":[4.79898,51.57895]}},{"type":"Feature","properties":{"Naam":"De Singel (V) SO","Adres":"Adriaan van Bergenstraat 428","PC":"4811 SZ","Plts":"BREDA","Srt":"(V)SO"},"geometry":{"type":"Point","coordinates":[4.76971,51.58953]}},{"type":"Feature","properties":{"Naam":"Het Brederocollege","Adres":"Brederostraat 35","PC":"4819 HG","Plts":"BREDA","Srt":"(V)SO"},"geometry":{"type":"Point","coordinates":[4.76613,51.57739]}},{"type":"Feature","properties":{"Naam":"Het Olivijncollege","Adres":"O Lieve V ter Duinenln 193","PC":"4641 RM","Plts":"OSSENDRECHT","Srt":"(V)SO"},"geometry":null},{"type":"Feature","properties":{"Naam":"Het Warandecollege","Adres":"Bredaseweg 140","PC":"4904 SC","Plts":"OOSTERHOUT NB","Srt":"(V)SO"},"geometry":null},{"type":"Feature","properties":{"Naam":"De Muldersteeg","Adres":"Muldersteeg 8","PC":"4901 ZG","Plts":"OOSTERHOUT NB","Srt":"(V)SO"},"geometry":null},{"type":"Feature","properties":{"Naam":"Het Kasteel","Adres":"Rijnauwenstraat 201-205","PC":"4834 LD","Plts":"BREDA","Srt":"(V)SO"},"geometry":null},{"type":"Feature","properties":{"Naam":"Breda College","Adres":"Landheining 6","PC":"4817 DM","Plts":"BREDA","Srt":"(V)SO"},"geometry":{"type":"Point","coordinates":[4.80937,51.5898]}},{"type":"Feature","properties":{"Naam":"Maartenschool-De Wingerd","Adres":"Havikshorst 23","PC":"5431 LZ","Plts":"CUIJK","Srt":"(V)SO"},"geometry":{"type":"Point","coordinates":[5.88997,51.71436]}},{"type":"Feature","properties":{"Naam":"Foooocus Cuyk","Adres":"Molenstraat 19","PC":"5431 BW","Plts":"CUIJK","Srt":"(V)SO"},"geometry":{"type":"Point","coordinates":[5.87822,51.72896]}},{"type":"Feature","properties":{"Naam":"Koninklijke Visio Onderwijs Grave","Adres":"Jan van Cuykdijk 1","PC":"5361 HM","Plts":"GRAVE","Srt":"(V)SO"},"geometry":{"type":"Point","coordinates":[5.74472,51.75537]}},{"type":"Feature","properties":{"Naam":"Koninklijke Visio Onderwijs Breda","Adres":"Galderseweg 65","PC":"4836 AC","Plts":"BREDA","Srt":"(V)SO"},"geometry":{"type":"Point","coordinates":[4.78147,51.54847]}},{"type":"Feature","properties":{"Naam":"Sonnewijser unit Vervolgonderwijs Oss","Adres":"Staringstraat 4","PC":"5343 GH","Plts":"OSS","Srt":"(V)SO"},"geometry":{"type":"Point","coordinates":[5.51477,51.74971]}},{"type":"Feature","properties":{"Naam":"Sterrenkijker Uden","Adres":"Aldetiendstraat 17","PC":"5402 ZC","Plts":"UDEN","Srt":"(V)SO"},"geometry":{"type":"Point","coordinates":[5.61621,51.66188]}},{"type":"Feature","properties":{"Naam":"Sonnewijser Unit route Arbeid","Adres":"Gerrit van der Veenstr 24","PC":"5348 RD","Plts":"OSS","Srt":"(V)SO"},"geometry":null},{"type":"Feature","properties":{"Naam":"Sterrenkijker Oss","Adres":"Marius de Langenstraat 4","PC":"5348 AK","Plts":"OSS","Srt":"(V)SO"},"geometry":{"type":"Point","coordinates":[5.53182,51.77134]}},{"type":"Feature","properties":{"Naam":"Sonnewijser unit Vervolgonderwijs (bh)","Adres":"Mondriaanlaan 1","PC":"5342 CN","Plts":"OSS","Srt":"(V)SO"},"geometry":{"type":"Point","coordinates":[5.5297,51.75421]}},{"type":"Feature","properties":{"Naam":"De Groote Aard SO-VSO","Adres":"Mortel 1","PC":"5521 TP","Plts":"EERSEL","Srt":"(V)SO"},"geometry":{"type":"Point","coordinates":[5.32244,51.36279]}},{"type":"Feature","properties":{"Naam":"P.I.-school Hondsberg","Adres":"Hondsberg 5","PC":"5062 JT","Plts":"OISTERWIJK","Srt":"(V)SO"},"geometry":{"type":"Point","coordinates":[5.19107,51.56504]}},{"type":"Feature","properties":{"Naam":"Het Vada College","Adres":"Schijndelseweg 3","PC":"5283 AB","Plts":"BOXTEL","Srt":"(V)SO"},"geometry":{"type":"Point","coordinates":[5.33267,51.59372]}},{"type":"Feature","properties":{"Naam":"Het Dok","Adres":"Dr Poletlaan 40","PC":"5626 ND","Plts":"EINDHOVEN","Srt":"(V)SO"},"geometry":{"type":"Point","coordinates":[5.44568,51.46786]}},{"type":"Feature","properties":{"Naam":"Dieze College","Adres":"Pieter Langendijksingel 1","PC":"5216 JZ","Plts":"'S-HERTOGENBOSCH","Srt":"(V)SO"},"geometry":{"type":"Point","coordinates":[5.32915,51.68444]}},{"type":"Feature","properties":{"Naam":"RK School voor SOVSO ZMOK De Rietlanden","Adres":"Kooikersweg 301","PC":"5223 KE","Plts":"'S-HERTOGENBOSCH","Srt":"(V)SO"},"geometry":{"type":"Point","coordinates":[5.2738,51.69443]}},{"type":"Feature","properties":{"Naam":"Kentalis Mariella SO/VSO CMB SMG","Adres":"Theerestraat 42","PC":"5271 GD","Plts":"SINT-MICHIELSGESTEL","Srt":"(V)SO"},"geometry":{"type":"Point","coordinates":[5.34625,51.64168]}},{"type":"Feature","properties":{"Naam":"Kentalis Rafael VSO CMB DB SMG","Adres":"Theerestraat 42","PC":"5271 GD","Plts":"SINT-MICHIELSGESTEL","Srt":"(V)SO"},"geometry":{"type":"Point","coordinates":[5.34625,51.64168]}},{"type":"Feature","properties":{"Naam":"Kentalis Talent So team  B","Adres":"Helvoirtseweg 189","PC":"5263 EE","Plts":"VUGHT","Srt":"(V)SO"},"geometry":{"type":"Point","coordinates":[5.28112,51.652]}},{"type":"Feature","properties":{"Naam":"Kentalis Compas College VSO Oss","Adres":"Euterpehof 20","PC":"5342 CW","Plts":"OSS","Srt":"(V)SO"},"geometry":{"type":"Point","coordinates":[5.51713,51.76041]}},{"type":"Feature","properties":{"Naam":"Kentalis De Marwindt","Adres":"Molenstraat 19","PC":"5431 BW","Plts":"CUIJK","Srt":"(V)SO"},"geometry":{"type":"Point","coordinates":[5.87822,51.72896]}},{"type":"Feature","properties":{"Naam":"Expertisecentrum Antoon van Dijkschool","Adres":"Berkveld 19","PC":"5709 AE","Plts":"HELMOND","Srt":"(V)SO"},"geometry":{"type":"Point","coordinates":[5.70815,51.47007]}},{"type":"Feature","properties":{"Naam":"Mytylschool","Adres":"Toledolaan 4","PC":"5629 CC","Plts":"EINDHOVEN","Srt":"(V)SO"},"geometry":{"type":"Point","coordinates":[5.45411,51.48888]}},{"type":"Feature","properties":{"Naam":"Mgr Bekkerschool","Adres":"Venetiestraat 43","PC":"5632 RM","Plts":"EINDHOVEN","Srt":"(V)SO"},"geometry":{"type":"Point","coordinates":[5.49755,51.48371]}},{"type":"Feature","properties":{"Naam":"ZML De Bodde","Adres":"Karel Boddenweg 1","PC":"5044 EL","Plts":"TILBURG","Srt":"(V)SO"},"geometry":{"type":"Point","coordinates":[5.02689,51.57744]}},{"type":"Feature","properties":{"Naam":"School voor Speciaal en Voortgezet Speciaal Onderwijs De Keyzer","Adres":"Doctor Keyzerlaan 23","PC":"5051 PB","Plts":"GOIRLE","Srt":"(V)SO"},"geometry":{"type":"Point","coordinates":[5.06734,51.53207]}},{"type":"Feature","properties":{"Naam":"De Berkenschutse","Adres":"Sterkselseweg 65","PC":"5591 VE","Plts":"HEEZE","Srt":"(V)SO"},"geometry":{"type":"Point","coordinates":[5.59451,51.3636]}},{"type":"Feature","properties":{"Naam":"Mytylschool Gabriel","Adres":"Kooikersweg 303","PC":"5223 KE","Plts":"'S-HERTOGENBOSCH","Srt":"(V)SO"},"geometry":{"type":"Point","coordinates":[5.27242,51.6951]}},{"type":"Feature","properties":{"Naam":"De Kameleon","Adres":"Gerard ter Borchstraat 51","PC":"4703 NL","Plts":"ROOSENDAAL","Srt":"(V)SO"},"geometry":{"type":"Point","coordinates":[4.43977,51.5388]}},{"type":"Feature","properties":{"Naam":"De Kameleon","Adres":"Zuiderdreef 320","PC":"4616 AJ","Plts":"BERGEN OP ZOOM","Srt":"(V)SO"},"geometry":{"type":"Point","coordinates":[4.28894,51.48121]}},{"type":"Feature","properties":{"Naam":"RK Mytylsch v BLO aan Lich Gebr Kinderen","Adres":"Gezellelaan 13","PC":"4707 CC","Plts":"ROOSENDAAL","Srt":"(V)SO"},"geometry":{"type":"Point","coordinates":[4.46421,51.52183]}},{"type":"Feature","properties":{"Naam":"Prins Willem Alexanderschool","Adres":"Knegselseweg 8","PC":"5504 NC","Plts":"VELDHOVEN","Srt":"(V)SO"},"geometry":{"type":"Point","coordinates":[5.3862,51.4043]}},{"type":"Feature","properties":{"Naam":"Emiliusschool","Adres":"Nieuwstraat 72","PC":"5691 AE","Plts":"SON EN BREUGEL","Srt":"(V)SO"},"geometry":{"type":"Point","coordinates":[5.49167,51.50725]}},{"type":"Feature","properties":{"Naam":"Hub Noord-Brabant vestiging Rosmalen","Adres":"Waterleidingstraat 4","PC":"5244 PE","Plts":"ROSMALEN","Srt":"(V)SO"},"geometry":{"type":"Point","coordinates":[5.40528,51.7214]}},{"type":"Feature","properties":{"Naam":"Hub Noord-Brabant vestiging Stedelijk VSO te Rosmalen","Adres":"T.M. Kortenhorstlaan 2","PC":"5244 GD","Plts":"ROSMALEN","Srt":"(V)SO"},"geometry":{"type":"Point","coordinates":[5.37393,51.71445]}},{"type":"Feature","properties":{"Naam":"Hub Noord-Brabant","Adres":"De Tijvert 7","PC":"5282 RL","Plts":"BOXTEL","Srt":"(V)SO"},"geometry":{"type":"Point","coordinates":[5.318,51.59515]}},{"type":"Feature","properties":{"Naam":"Hub Noord-Brabant vestiging Oss","Adres":"Ruwaardstraat 15","PC":"5342 AH","Plts":"OSS","Srt":"(V)SO"},"geometry":{"type":"Point","coordinates":[5.52077,51.75989]}},{"type":"Feature","properties":{"Naam":"Hub Noord-Brabant vestiging Veghel","Adres":"Sweelinckstraat 4","PC":"5462 CR","Plts":"VEGHEL","Srt":"(V)SO"},"geometry":{"type":"Point","coordinates":[5.54177,51.61369]}},{"type":"Feature","properties":{"Naam":"Zuiderbos School voor SO en VSO","Adres":"Carillonlaan 3","PC":"5261 LT","Plts":"VUGHT","Srt":"(V)SO"},"geometry":{"type":"Point","coordinates":[5.30287,51.64653]}},{"type":"Feature","properties":{"Naam":"Zuiderbos School voor SO en VSO","Adres":"Platanenlaan 26-B","PC":"5507 MD","Plts":"VELDHOVEN","Srt":"(V)SO"},"geometry":{"type":"Point","coordinates":[5.37531,51.42203]}},{"type":"Feature","properties":{"Naam":"Zuiderbos School voor SO en VSO","Adres":"Brevierpad 34","PC":"5709 AD","Plts":"HELMOND","Srt":"(V)SO"},"geometry":{"type":"Point","coordinates":[5.70729,51.4705]}},{"type":"Feature","properties":{"Naam":"School voor Zeer Moeilijk Lerende Kinderen De Meerpaal/Linie College","Adres":"Drs. F. Bijlweg 3","PC":"1784 MC","Plts":"DEN HELDER","Srt":"(V)SO"},"geometry":{"type":"Point","coordinates":[4.75068,52.93987]}},{"type":"Feature","properties":{"Naam":"School voor Zeer Moeilijk Lerende Kinderen De Meerpaal","Adres":"Langevliet 81","PC":"1788 BJ","Plts":"DEN HELDER","Srt":"(V)SO"},"geometry":null},{"type":"Feature","properties":{"Naam":"De Ruimte","Adres":"Oudtburghweg 3","PC":"1862 PX","Plts":"BERGEN NH","Srt":"(V)SO"},"geometry":{"type":"Point","coordinates":[4.71046,52.68016]}},{"type":"Feature","properties":{"Naam":"Heliomare Onderwijs","Adres":"De Velst 1","PC":"1963 KL","Plts":"HEEMSKERK","Srt":"(V)SO"},"geometry":{"type":"Point","coordinates":[4.6847,52.51367]}},{"type":"Feature","properties":{"Naam":"De Alk","Adres":"Van Harenlaan 23","PC":"1813 KE","Plts":"ALKMAAR","Srt":"(V)SO"},"geometry":{"type":"Point","coordinates":[4.74651,52.61748]}},{"type":"Feature","properties":{"Naam":"Antoniusschool voor (Voortgezet) Speciaal Onderwijs","Adres":"Van Foreeststraat 6","PC":"1701 BA","Plts":"HEERHUGOWAARD","Srt":"(V)SO"},"geometry":{"type":"Point","coordinates":[4.84585,52.67351]}},{"type":"Feature","properties":{"Naam":"Antoniusschool voor (voortgezet) speciaal onderwijs","Adres":"Annie Romein-Verschoorln 15","PC":"1784 NZ","Plts":"DEN HELDER","Srt":"(V)SO"},"geometry":null},{"type":"Feature","properties":{"Naam":"Antoniusschool voor (Voortgezet) Speciaal Onderwijs","Adres":"De Dalen 1","PC":"1945 NC","Plts":"BEVERWIJK","Srt":"(V)SO"},"geometry":{"type":"Point","coordinates":[4.66007,52.49786]}},{"type":"Feature","properties":{"Naam":"Antoniusschool voor (Voortgezet) Speciaal Onderwijs","Adres":"Kievitlaan 25","PC":"1742 AB","Plts":"SCHAGEN","Srt":"(V)SO"},"geometry":{"type":"Point","coordinates":[4.78634,52.78487]}},{"type":"Feature","properties":{"Naam":"Antoniusschool voor (Voortgezet) Speciaal Onderwijs","Adres":"Willemsbeekweg 80","PC":"1971 GZ","Plts":"IJMUIDEN","Srt":"(V)SO"},"geometry":{"type":"Point","coordinates":[4.62421,52.4582]}},{"type":"Feature","properties":{"Naam":"Antoniusschool voor (Voortgezet) Speciaal Onderwijs","Adres":"Drs. F. Bijlweg 234","PC":"1784 MC","Plts":"DEN HELDER","Srt":"(V)SO"},"geometry":{"type":"Point","coordinates":[4.75606,52.93763]}},{"type":"Feature","properties":{"Naam":"Gunningschool","Adres":"Rijksstraatweg 245","PC":"2024 DG","Plts":"HAARLEM","Srt":"(V)SO"},"geometry":{"type":"Point","coordinates":[4.64952,52.40771]}},{"type":"Feature","properties":{"Naam":"Het Molenduin School voor Speciaal Onderwijs en Voortgezet Onderwijs","Adres":"Dinkgrevelaan 32","PC":"2071 BP","Plts":"SANTPOORT-NOORD","Srt":"(V)SO"},"geometry":{"type":"Point","coordinates":[4.63423,52.43005]}},{"type":"Feature","properties":{"Naam":"Het Molenduin School voor Speciaal Onderwijs en Voortgezet Onderwijs","Adres":"Schar 11","PC":"1741 RR","Plts":"SCHAGEN","Srt":"(V)SO"},"geometry":{"type":"Point","coordinates":[4.80445,52.80062]}},{"type":"Feature","properties":{"Naam":"Het Molenduin School voor Speciaal Onderwijs en Voortgezet Onderwijs","Adres":"Arguspad 1","PC":"1985 HX","Plts":"DRIEHUIS NH","Srt":"(V)SO"},"geometry":{"type":"Point","coordinates":[4.63261,52.44003]}},{"type":"Feature","properties":{"Naam":"Molenduin","Adres":"Arguspad 1","PC":"1985 HX","Plts":"DRIEHUIS NH","Srt":"(V)SO"},"geometry":{"type":"Point","coordinates":[4.63261,52.44003]}},{"type":"Feature","properties":{"Naam":"Stichting Mozarthof","Adres":"Mozartlaan 29","PC":"1217 CM","Plts":"HILVERSUM","Srt":"(V)SO"},"geometry":{"type":"Point","coordinates":[5.15434,52.23766]}},{"type":"Feature","properties":{"Naam":"De Kleine Prins Hilversum","Adres":"Soestdijkerstraatweg 129-C","PC":"1213 VX","Plts":"HILVERSUM","Srt":"(V)SO"},"geometry":{"type":"Point","coordinates":[5.20294,52.21307]}},{"type":"Feature","properties":{"Naam":"O.S.V.O. Martin Luther Kingschool","Adres":"Dr. J.M. den Uyllaan 10-12","PC":"1442 VS","Plts":"PURMEREND","Srt":"(V)SO"},"geometry":null},{"type":"Feature","properties":{"Naam":"J.H.Donnerschool","Adres":"Lopes Diaslaan 2","PC":"1222 BW","Plts":"HILVERSUM","Srt":"(V)SO"},"geometry":{"type":"Point","coordinates":[5.1822,52.24132]}},{"type":"Feature","properties":{"Naam":"Orion College Zuidoost","Adres":"Bijlmerdreef 1289-2","PC":"1103 TV","Plts":"AMSTERDAM","Srt":"(V)SO"},"geometry":null},{"type":"Feature","properties":{"Naam":"Drostenburg","Adres":"Drostenburg 1","PC":"1102 AM","Plts":"AMSTERDAM","Srt":"(V)SO"},"geometry":{"type":"Point","coordinates":[4.94725,52.32143]}},{"type":"Feature","properties":{"Naam":"Orion College Drostenburg","Adres":"Drostenburg 5-B","PC":"1102 AM","Plts":"AMSTERDAM","Srt":"(V)SO"},"geometry":{"type":"Point","coordinates":[4.94775,52.32218]}},{"type":"Feature","properties":{"Naam":"Prof Dr Gunningschool","Adres":"Planetenlaan 13","PC":"2024 EN","Plts":"HAARLEM","Srt":"(V)SO"},"geometry":{"type":"Point","coordinates":[4.64378,52.40746]}},{"type":"Feature","properties":{"Naam":"VSO Daaf Geluk","Adres":"Plesmanplein 8","PC":"2024 HT","Plts":"HAARLEM","Srt":"(V)SO"},"geometry":{"type":"Point","coordinates":[4.6377,52.4089]}},{"type":"Feature","properties":{"Naam":"Dynamica Onderwijs","Adres":"Molenwerf 1-C","PC":"1541 WR","Plts":"KOOG AAN DE ZAAN","Srt":"(V)SO"},"geometry":{"type":"Point","coordinates":[4.79828,52.45879]}},{"type":"Feature","properties":{"Naam":"Dynamica Onderwijs","Adres":"Tjotterlaan 2","PC":"1503 LB","Plts":"ZAANDAM","Srt":"(V)SO"},"geometry":{"type":"Point","coordinates":[4.83475,52.4455]}},{"type":"Feature","properties":{"Naam":"Dynamica Onderwijs","Adres":"Nieuwendamstraat 2-A","PC":"1507 JE","Plts":"ZAANDAM","Srt":"(V)SO"},"geometry":{"type":"Point","coordinates":[4.8064,52.44744]}},{"type":"Feature","properties":{"Naam":"Dr A V Voorthuysenschool","Adres":"Professor Eijkmanlaan 1","PC":"2035 XA","Plts":"HAARLEM","Srt":"(V)SO"},"geometry":{"type":"Point","coordinates":[4.66469,52.36723]}},{"type":"Feature","properties":{"Naam":"Dr A V Voorthuysenschool","Adres":"Graan voor Visch 14302","PC":"2132 VJ","Plts":"HOOFDDORP","Srt":"(V)SO"},"geometry":{"type":"Point","coordinates":[4.69081,52.29539]}},{"type":"Feature","properties":{"Naam":"De Parel voor speciaal onderwijs, revalidatie en zorg","Adres":"Frederik Hendriklaan 73","PC":"2012 SG","Plts":"HAARLEM","Srt":"(V)SO"},"geometry":{"type":"Point","coordinates":[4.63434,52.36295]}},{"type":"Feature","properties":{"Naam":"Openbare School voor zmok De Spinaker","Adres":"Jan Ligthartstraat 7","PC":"1817 MR","Plts":"ALKMAAR","Srt":"(V)SO"},"geometry":{"type":"Point","coordinates":[4.7267,52.64599]}},{"type":"Feature","properties":{"Naam":"De Spinaker","Adres":"Sportlaan 38","PC":"1782 ND","Plts":"DEN HELDER","Srt":"(V)SO"},"geometry":{"type":"Point","coordinates":[4.75265,52.953]}},{"type":"Feature","properties":{"Naam":"De Spinaker","Adres":"Marketentster 5","PC":"1625 WB","Plts":"HOORN NH","Srt":"(V)SO"},"geometry":null},{"type":"Feature","properties":{"Naam":"VSO Dijk en Waard","Adres":"Smaragd 32","PC":"1703 GB","Plts":"HEERHUGOWAARD","Srt":"(V)SO"},"geometry":{"type":"Point","coordinates":[4.82442,52.66289]}},{"type":"Feature","properties":{"Naam":"Bureau Arbeidsparticipatie (BAP)","Adres":"Stationsweg 44","PC":"1702 AG","Plts":"HEERHUGOWAARD","Srt":"(V)SO"},"geometry":{"type":"Point","coordinates":[4.8317,52.66632]}},{"type":"Feature","properties":{"Naam":"Koninklijke Visio Onderwijs Amsterdam","Adres":"Burgemeester Eliasstraat 76","PC":"1063 EX","Plts":"AMSTERDAM","Srt":"(V)SO"},"geometry":{"type":"Point","coordinates":[4.82734,52.38388]}},{"type":"Feature","properties":{"Naam":"De Eenhoorn zmlk","Adres":"Eikstraat 36","PC":"1623 LT","Plts":"HOORN NH","Srt":"(V)SO"},"geometry":null},{"type":"Feature","properties":{"Naam":"De Boerderij, zoeg en behandelcentrum","Adres":"Zuideruitweg 43","PC":"1608 EV","Plts":"WIJDENES","Srt":"(V)SO"},"geometry":{"type":"Point","coordinates":[5.1563,52.62746]}},{"type":"Feature","properties":{"Naam":"Zeer MOeilijk Lerende Kinderen School Klimop","Adres":"Hoflaan 10","PC":"1217 EA","Plts":"HILVERSUM","Srt":"(V)SO"},"geometry":{"type":"Point","coordinates":[5.15204,52.23706]}},{"type":"Feature","properties":{"Naam":"Zeer MOeilijk Lerende Kinderen School Klimop","Adres":"Lange Heul 149-C","PC":"1403 NH","Plts":"BUSSUM","Srt":"(V)SO"},"geometry":{"type":"Point","coordinates":[5.16855,52.26347]}},{"type":"Feature","properties":{"Naam":"Zeer MOeilijk Lerende Kinderen School Klimop","Adres":"IJsselmeerstraat 3-A","PC":"1271 AA","Plts":"HUIZEN","Srt":"(V)SO"},"geometry":{"type":"Point","coordinates":[5.23769,52.30701]}},{"type":"Feature","properties":{"Naam":"Kentalis Signis VSO CMB Amsterdam","Adres":"Jan Sluijtersstraat 9","PC":"1062 CJ","Plts":"AMSTERDAM","Srt":"(V)SO"},"geometry":{"type":"Point","coordinates":[4.83776,52.35984]}},{"type":"Feature","properties":{"Naam":"V S O  De Heldring","Adres":"Burgemeester Eliasstraat 20","PC":"1063 EW","Plts":"AMSTERDAM","Srt":"(V)SO"},"geometry":{"type":"Point","coordinates":[4.82709,52.37936]}},{"type":"Feature","properties":{"Naam":"SO Heldring","Adres":"Bosrankstraat 1","PC":"1032 LH","Plts":"AMSTERDAM","Srt":"(V)SO"},"geometry":{"type":"Point","coordinates":[4.90654,52.39777]}},{"type":"Feature","properties":{"Naam":"SO Alphons Laudy","Adres":"Meer en Vaart 9","PC":"1068 KV","Plts":"AMSTERDAM","Srt":"(V)SO"},"geometry":{"type":"Point","coordinates":[4.80633,52.365]}},{"type":"Feature","properties":{"Naam":"VSO Alphons Laudy","Adres":"Van Nijenrodeweg 648","PC":"1082 HZ","Plts":"AMSTERDAM","Srt":"(V)SO"},"geometry":{"type":"Point","coordinates":[4.8728,52.32718]}},{"type":"Feature","properties":{"Naam":"SO Alphons Laudy","Adres":"Peelstraat 171","PC":"1079 RN","Plts":"AMSTERDAM","Srt":"(V)SO"},"geometry":{"type":"Point","coordinates":[4.89975,52.33882]}},{"type":"Feature","properties":{"Naam":"De Schelp","Adres":"Nieuwe Landstraat 12","PC":"2021 DE","Plts":"HAARLEM","Srt":"(V)SO"},"geometry":{"type":"Point","coordinates":[4.64434,52.39095]}},{"type":"Feature","properties":{"Naam":"De Waterlelie Expertise Centrum voor Onderwijs en Epilepsie","Adres":"Spieringweg 801","PC":"2142 ED","Plts":"CRUQUIUS","Srt":"(V)SO"},"geometry":{"type":"Point","coordinates":[4.65075,52.33452]}},{"type":"Feature","properties":{"Naam":"Attendiz","Adres":"Sportlaan Driene 8-10","PC":"7552 HA","Plts":"HENGELO OV","Srt":"(V)SO"},"geometry":null},{"type":"Feature","properties":{"Naam":"Attendiz De Kapstok - MOTA","Adres":"Plesmanweg 31","PC":"7602 PD","Plts":"ALMELO","Srt":"(V)SO"},"geometry":{"type":"Point","coordinates":[6.63796,52.37431]}},{"type":"Feature","properties":{"Naam":"Attendiz SO Het Mozaïek","Adres":"Beverdamlaan 11","PC":"7602 XR","Plts":"ALMELO","Srt":"(V)SO"},"geometry":{"type":"Point","coordinates":[6.66426,52.37039]}},{"type":"Feature","properties":{"Naam":"Attendiz- VSO Het Mozaïek Almelo","Adres":"Cesar Franckstraat 3","PC":"7604 JE","Plts":"ALMELO","Srt":"(V)SO"},"geometry":{"type":"Point","coordinates":[6.63974,52.36347]}},{"type":"Feature","properties":{"Naam":"Attendiz- De Bouwsteen","Adres":"Anna Reynvaanweg 50","PC":"7555 SG","Plts":"HENGELO OV","Srt":"(V)SO"},"geometry":null},{"type":"Feature","properties":{"Naam":"Erve Olde Meule/De Kapstok Leerwerktraject","Adres":"Olde Meulenweg 2","PC":"7554 RL","Plts":"HENGELO OV","Srt":"(V)SO"},"geometry":null},{"type":"Feature","properties":{"Naam":"'t Tuindorp/De Kapstok","Adres":"Tuindorpstraat 132","PC":"7555 CS","Plts":"HENGELO OV","Srt":"(V)SO"},"geometry":null},{"type":"Feature","properties":{"Naam":"De Kapstok Hassinkweg","Adres":"Hassinkweg 3","PC":"7556 BV","Plts":"HENGELO OV","Srt":"(V)SO"},"geometry":null},{"type":"Feature","properties":{"Naam":"De Stapsteen","Adres":"Jacques Perkstraat 5-7","PC":"7552 JR","Plts":"HENGELO OV","Srt":"(V)SO"},"geometry":null},{"type":"Feature","properties":{"Naam":"De Kapstok AGL","Adres":"Krabbenbosweg 91","PC":"7555 ED","Plts":"HENGELO OV","Srt":"(V)SO"},"geometry":null},{"type":"Feature","properties":{"Naam":"Panta Rhei College","Adres":"Min De Savornin Lohmanln 58","PC":"7522 AR","Plts":"ENSCHEDE","Srt":"(V)SO"},"geometry":null},{"type":"Feature","properties":{"Naam":"Het Mozaïek Onderbouw","Adres":"Speenkruidpad 2","PC":"7601 CT","Plts":"ALMELO","Srt":"(V)SO"},"geometry":{"type":"Point","coordinates":[6.66668,52.34373]}},{"type":"Feature","properties":{"Naam":"Onderwijscentrum Het Roessingh","Adres":"Roessinghsbleekweg 35","PC":"7522 AH","Plts":"ENSCHEDE","Srt":"(V)SO"},"geometry":{"type":"Point","coordinates":[6.87742,52.23082]}},{"type":"Feature","properties":{"Naam":"De Meander","Adres":"Oldenzaalsestraat 134","PC":"7581 PW","Plts":"LOSSER","Srt":"(V)SO"},"geometry":{"type":"Point","coordinates":[6.97526,52.28147]}},{"type":"Feature","properties":{"Naam":"SO De Huifkar","Adres":"Roessinghsbleekweg 35","PC":"7522 AH","Plts":"ENSCHEDE","Srt":"(V)SO"},"geometry":{"type":"Point","coordinates":[6.87742,52.23082]}},{"type":"Feature","properties":{"Naam":"Het Meerik VSO","Adres":"Lijsterstraat 117","PC":"7523 ES","Plts":"ENSCHEDE","Srt":"(V)SO"},"geometry":{"type":"Point","coordinates":[6.89914,52.23792]}},{"type":"Feature","properties":{"Naam":"School voor SO/VSO","Adres":"Willem Barentszstraat 72","PC":"8023 WS","Plts":"ZWOLLE","Srt":"(V)SO"},"geometry":{"type":"Point","coordinates":[6.11616,52.50857]}},{"type":"Feature","properties":{"Naam":"De Linde SO en VSO","Adres":"Groenewold 188","PC":"7414 CK","Plts":"DEVENTER","Srt":"(V)SO"},"geometry":{"type":"Point","coordinates":[6.14807,52.27473]}},{"type":"Feature","properties":{"Naam":"SO de Zonnehof / VSO Hofplein","Adres":"Hartkampweg 6","PC":"8101 ZW","Plts":"RAALTE","Srt":"(V)SO"},"geometry":{"type":"Point","coordinates":[6.26819,52.38026]}},{"type":"Feature","properties":{"Naam":"De Twijn/Dr Itardschool","Adres":"Dokter Hengeveldweg 2","PC":"8025 AK","Plts":"ZWOLLE","Srt":"(V)SO"},"geometry":{"type":"Point","coordinates":[6.12758,52.51069]}},{"type":"Feature","properties":{"Naam":"De Twijn/De Driemaster","Adres":"Boterdiep 5","PC":"8032 XW","Plts":"ZWOLLE","Srt":"(V)SO"},"geometry":{"type":"Point","coordinates":[6.10237,52.53524]}},{"type":"Feature","properties":{"Naam":"De Twijn/De Driemaster","Adres":"Violierenstraat 42","PC":"8013 TV","Plts":"ZWOLLE","Srt":"(V)SO"},"geometry":{"type":"Point","coordinates":[6.11333,52.49943]}},{"type":"Feature","properties":{"Naam":"Kentalis Enkschool SO","Adres":"Jan Buschstraat 6","PC":"8022 DZ","Plts":"ZWOLLE","Srt":"(V)SO"},"geometry":{"type":"Point","coordinates":[6.10399,52.52116]}},{"type":"Feature","properties":{"Naam":"Kentalis Enkschool  SO Kampen","Adres":"Marinus Postlaan 1-B","PC":"8264 PB","Plts":"KAMPEN","Srt":"(V)SO"},"geometry":{"type":"Point","coordinates":[5.8982,52.55601]}},{"type":"Feature","properties":{"Naam":"Kentalis College Zwolle","Adres":"Russenweg 3","PC":"8041 AL","Plts":"ZWOLLE","Srt":"(V)SO"},"geometry":{"type":"Point","coordinates":[6.06843,52.51177]}},{"type":"Feature","properties":{"Naam":"Boslust Christelijke School voor Zeer Moeilijk Lerende Kinderen","Adres":"Jhr. Repelaerlaan 2","PC":"7731 AN","Plts":"OMMEN","Srt":"(V)SO"},"geometry":{"type":"Point","coordinates":[6.41696,52.50787]}},{"type":"Feature","properties":{"Naam":"'t Iemenschoer","Adres":"Ruijsdaelstraat 49","PC":"7556 WS","Plts":"HENGELO OV","Srt":"(V)SO"},"geometry":null},{"type":"Feature","properties":{"Naam":"Elimschool voor Speciaal Onderwijs","Adres":"Luttenbergerweg 11","PC":"7447 PB","Plts":"HELLENDOORN","Srt":"(V)SO"},"geometry":{"type":"Point","coordinates":[6.43899,52.38795]}},{"type":"Feature","properties":{"Naam":"Elimschool voor Speciaal Onderwijs","Adres":"Vriezenveenseweg 229","PC":"7602 PT","Plts":"ALMELO","Srt":"(V)SO"},"geometry":{"type":"Point","coordinates":[6.66587,52.38171]}},{"type":"Feature","properties":{"Naam":"Dr Herderscheeschool","Adres":"Schapendijk 3","PC":"7608 LV","Plts":"ALMELO","Srt":"(V)SO"},"geometry":{"type":"Point","coordinates":[6.67999,52.37203]}},{"type":"Feature","properties":{"Naam":"SO Prisma gespecialiseerd onderwijs Kampen&vso de Spanker","Adres":"Marinus Postlaan 1-A","PC":"8264 PB","Plts":"KAMPEN","Srt":"(V)SO"},"geometry":{"type":"Point","coordinates":[5.89762,52.55588]}},{"type":"Feature","properties":{"Naam":"de Ambelt","Adres":"Herfterlaan 39","PC":"8026 RC","Plts":"ZWOLLE","Srt":"(V)SO"},"geometry":{"type":"Point","coordinates":[6.15408,52.511]}},{"type":"Feature","properties":{"Naam":"de Ambelt","Adres":"Dokter Hengeveldweg 6","PC":"8025 AK","Plts":"ZWOLLE","Srt":"(V)SO"},"geometry":{"type":"Point","coordinates":[6.12745,52.51025]}},{"type":"Feature","properties":{"Naam":"de Ambelt","Adres":"Bagijnesingel 6","PC":"8021 AE","Plts":"ZWOLLE","Srt":"(V)SO"},"geometry":{"type":"Point","coordinates":[6.1042,52.51401]}},{"type":"Feature","properties":{"Naam":"de Ambelt","Adres":"Dokter Hengeveldweg 9","PC":"8025 AK","Plts":"ZWOLLE","Srt":"(V)SO"},"geometry":{"type":"Point","coordinates":[6.12916,52.50975]}},{"type":"Feature","properties":{"Naam":"de Ambelt","Adres":"Piet Heinstraat 3","PC":"7772 ZJ","Plts":"HARDENBERG","Srt":"(V)SO"},"geometry":{"type":"Point","coordinates":[6.62194,52.57117]}},{"type":"Feature","properties":{"Naam":"De Ambelt","Adres":"Herfterlaan 39-F","PC":"8026 RC","Plts":"ZWOLLE","Srt":"(V)SO"},"geometry":{"type":"Point","coordinates":[6.15333,52.51205]}},{"type":"Feature","properties":{"Naam":"Beekdal VSO","Adres":"Heiligenbergerweg 185","PC":"3816 AJ","Plts":"AMERSFOORT","Srt":"(V)SO"},"geometry":{"type":"Point","coordinates":[5.40473,52.14325]}},{"type":"Feature","properties":{"Naam":"De Blink","Adres":"David Tenierslaan 8","PC":"3904 ZA","Plts":"VEENENDAAL","Srt":"(V)SO"},"geometry":{"type":"Point","coordinates":[5.54153,52.02439]}},{"type":"Feature","properties":{"Naam":"Axia College","Adres":"Vondellaan 28","PC":"3818 WP","Plts":"AMERSFOORT","Srt":"(V)SO"},"geometry":{"type":"Point","coordinates":[5.3752,52.14687]}},{"type":"Feature","properties":{"Naam":"Axia College bovenbouw mavo, havo, vwo","Adres":"Liendertseweg 101","PC":"3815 BA","Plts":"AMERSFOORT","Srt":"(V)SO"},"geometry":{"type":"Point","coordinates":[5.40006,52.16588]}},{"type":"Feature","properties":{"Naam":"Axia College","Adres":"Utrechtseweg 266","PC":"3818 EW","Plts":"AMERSFOORT","Srt":"(V)SO"},"geometry":{"type":"Point","coordinates":[5.34134,52.1342]}},{"type":"Feature","properties":{"Naam":"Auris Rotsoord","Adres":"Rotsoord 36","PC":"3523 CL","Plts":"UTRECHT","Srt":"(V)SO"},"geometry":{"type":"Point","coordinates":[5.12138,52.07346]}},{"type":"Feature","properties":{"Naam":"De Kleine Prins Utrecht","Adres":"Blauwe-Vogelweg 11","PC":"3585 LK","Plts":"UTRECHT","Srt":"(V)SO"},"geometry":{"type":"Point","coordinates":[5.154,52.08002]}},{"type":"Feature","properties":{"Naam":"SO Fier / Kromme Rijn College","Adres":"Winklerlaan 79","PC":"3571 KL","Plts":"UTRECHT","Srt":"(V)SO"},"geometry":{"type":"Point","coordinates":[5.14058,52.10804]}},{"type":"Feature","properties":{"Naam":"SO Lux","Adres":"Stauntonstraat 9","PC":"3554 EZ","Plts":"UTRECHT","Srt":"(V)SO"},"geometry":{"type":"Point","coordinates":[5.09297,52.11228]}},{"type":"Feature","properties":{"Naam":"WereldKidz Meerklank","Adres":"Laan van Eikenstein 2","PC":"3705 AR","Plts":"ZEIST","Srt":"(V)SO"},"geometry":{"type":"Point","coordinates":[5.22537,52.09464]}},{"type":"Feature","properties":{"Naam":"De Klimboom","Adres":"Heiligenbergerweg 185","PC":"3816 AJ","Plts":"AMERSFOORT","Srt":"(V)SO"},"geometry":{"type":"Point","coordinates":[5.40473,52.14325]}},{"type":"Feature","properties":{"Naam":"Plevier","Adres":"Lageweg 4","PC":"3815 VG","Plts":"AMERSFOORT","Srt":"(V)SO"},"geometry":{"type":"Point","coordinates":[5.40761,52.16121]}},{"type":"Feature","properties":{"Naam":"Dr. A. v. Voorthuysenschool","Adres":"Lageweg 8","PC":"3815 VG","Plts":"AMERSFOORT","Srt":"(V)SO"},"geometry":{"type":"Point","coordinates":[5.40856,52.16194]}},{"type":"Feature","properties":{"Naam":"De Kolibrie","Adres":"Schrikslaan 20","PC":"3762 TC","Plts":"SOEST","Srt":"(V)SO"},"geometry":{"type":"Point","coordinates":[5.28483,52.1821]}},{"type":"Feature","properties":{"Naam":"Berg en Bosch Onderwijs","Adres":"Professor Bronkhorstlaan 22","PC":"3723 MB","Plts":"BILTHOVEN","Srt":"(V)SO"},"geometry":{"type":"Point","coordinates":[5.20992,52.15292]}},{"type":"Feature","properties":{"Naam":"Berg en Boschschool","Adres":"Handboog 4","PC":"3994 AD","Plts":"HOUTEN","Srt":"(V)SO"},"geometry":{"type":"Point","coordinates":[5.18007,52.03041]}},{"type":"Feature","properties":{"Naam":"Stichting Verderwijs","Adres":"Noordweg 12","PC":"3704 GN","Plts":"ZEIST","Srt":"(V)SO"},"geometry":{"type":"Point","coordinates":[5.21773,52.08983]}},{"type":"Feature","properties":{"Naam":"Bartimeus OWI voor Visueel Gehandicapte Leerlingen","Adres":"Van Renesselaan 30-A","PC":"3703 AJ","Plts":"ZEIST","Srt":"(V)SO"},"geometry":{"type":"Point","coordinates":[5.2308,52.085]}},{"type":"Feature","properties":{"Naam":"Bartimeus OWI voor Visueel Gehandicapte Leerlingen","Adres":"Oude Arnhemse Bovenweg 3","PC":"3941 XM","Plts":"DOORN","Srt":"(V)SO"},"geometry":{"type":"Point","coordinates":[5.31497,52.04847]}},{"type":"Feature","properties":{"Naam":"Prof Fritz Redlschool voor Langdurig Zieke Kinderen","Adres":"Heidelberglaan 100","PC":"3584 CX","Plts":"UTRECHT","Srt":"(V)SO"},"geometry":{"type":"Point","coordinates":[5.1796,52.08602]}},{"type":"Feature","properties":{"Naam":"KentalisCollege Utrecht VSO","Adres":"Slotlaan 37","PC":"3523 HB","Plts":"UTRECHT","Srt":"(V)SO"},"geometry":{"type":"Point","coordinates":[5.12842,52.06959]}},{"type":"Feature","properties":{"Naam":"Klimopschool","Adres":"Grevelingenstraat 10","PC":"4335 XG","Plts":"MIDDELBURG","Srt":"(V)SO"},"geometry":{"type":"Point","coordinates":[3.59815,51.48536]}},{"type":"Feature","properties":{"Naam":"De Sprienke","Adres":"Vivaldipad 1","PC":"4462 JA","Plts":"GOES","Srt":"(V)SO"},"geometry":{"type":"Point","coordinates":[3.89918,51.49019]}},{"type":"Feature","properties":{"Naam":"SO/VSO Respont (Asteria College)","Adres":"Korczakstraat 1","PC":"4335 ER","Plts":"MIDDELBURG","Srt":"(V)SO"},"geometry":{"type":"Point","coordinates":[3.59733,51.49184]}},{"type":"Feature","properties":{"Naam":"SO/VSO Respont (de Argo)","Adres":"Evertsenlaan 84","PC":"4535 AD","Plts":"TERNEUZEN","Srt":"(V)SO"},"geometry":{"type":"Point","coordinates":[3.85215,51.32343]}},{"type":"Feature","properties":{"Naam":"SO/VSO Respont (OdyZee)","Adres":"Oostmolenweg 81","PC":"4481 PM","Plts":"KLOETINGE","Srt":"(V)SO"},"geometry":{"type":"Point","coordinates":[3.91212,51.48873]}},{"type":"Feature","properties":{"Naam":"SO/VSO Respont (Acreon)","Adres":"Industriestraat 3","PC":"4462 EZ","Plts":"GOES","Srt":"(V)SO"},"geometry":{"type":"Point","coordinates":[3.88736,51.49647]}},{"type":"Feature","properties":{"Naam":"SO/VSO Respont (OdyZee, locatie Middelburg)","Adres":"Generaal Eisenhowerlaan 25","PC":"4333 BP","Plts":"MIDDELBURG","Srt":"(V)SO"},"geometry":{"type":"Point","coordinates":[3.61111,51.50939]}},{"type":"Feature","properties":{"Naam":"SO/VSO Respont (Keurhove)","Adres":"Keurhove 3","PC":"4336 GN","Plts":"MIDDELBURG","Srt":"(V)SO"},"geometry":{"type":"Point","coordinates":[3.61808,51.48374]}},{"type":"Feature","properties":{"Naam":"SO/VSO Respont (De Argo, locatie Lodewijk College Oude Vaart)","Adres":"Oude Vaart 1","PC":"4537 CD","Plts":"TERNEUZEN","Srt":"(V)SO"},"geometry":{"type":"Point","coordinates":[3.83886,51.32323]}},{"type":"Feature","properties":{"Naam":"SO/VSO Respont (Odyzee, locatie Bergweg)","Adres":"Bergweg 4","PC":"4461 NB","Plts":"GOES","Srt":"(V)SO"},"geometry":{"type":"Point","coordinates":[3.90024,51.50346]}},{"type":"Feature","properties":{"Naam":"SO/VSO respont (De Argo, locatie Reijnaertcollege)","Adres":"Zoutestraat 61-A","PC":"4561 XA","Plts":"HULST","Srt":"(V)SO"},"geometry":{"type":"Point","coordinates":[4.05805,51.28737]}},{"type":"Feature","properties":{"Naam":"De Argo, locatie Lodewijk College Zeldenrustlaan","Adres":"Zeldenrustlaan 2","PC":"4535 GZ","Plts":"TERNEUZEN","Srt":"(V)SO"},"geometry":{"type":"Point","coordinates":[3.85835,51.31136]}},{"type":"Feature","properties":{"Naam":"De Regenboog","Adres":"Madame Curiestraat 25","PC":"4532 LJ","Plts":"TERNEUZEN","Srt":"(V)SO"},"geometry":{"type":"Point","coordinates":[3.85018,51.32882]}},{"type":"Feature","properties":{"Naam":"Deltaschool","Adres":"Evertsenstraat 100","PC":"4461 XS","Plts":"GOES","Srt":"(V)SO"},"geometry":{"type":"Point","coordinates":[3.8811,51.50147]}},{"type":"Feature","properties":{"Naam":"Auris De Kring","Adres":"Tiendendreef 5","PC":"4461 DS","Plts":"GOES","Srt":"(V)SO"},"geometry":{"type":"Point","coordinates":[3.88367,51.5062]}},{"type":"Feature","properties":{"Naam":"Auris College Goes","Adres":"Bergweg 6","PC":"4461 NB","Plts":"GOES","Srt":"(V)SO"},"geometry":{"type":"Point","coordinates":[3.90166,51.50212]}},{"type":"Feature","properties":{"Naam":"School voor (Voortgezet) Speciaal Onderwijs Eben-Haezer","Adres":"Coxstraat 9","PC":"4421 DC","Plts":"KAPELLE","Srt":"(V)SO"},"geometry":{"type":"Point","coordinates":[3.95866,51.48828]}},{"type":"Feature","properties":{"Naam":"Eben Haezer","Adres":"Van der Biltlaan 34","PC":"4421 BC","Plts":"KAPELLE","Srt":"(V)SO"},"geometry":{"type":"Point","coordinates":[3.95686,51.48341]}},{"type":"Feature","properties":{"Naam":"VSO Op Zuid","Adres":"Pythagorasweg 80","PC":"3076 AJ","Plts":"ROTTERDAM","Srt":"(V)SO"},"geometry":{"type":"Point","coordinates":[4.52399,51.8782]}},{"type":"Feature","properties":{"Naam":"Op Noord","Adres":"Erasmussingel 120","PC":"3051 XC","Plts":"ROTTERDAM","Srt":"(V)SO"},"geometry":{"type":"Point","coordinates":[4.46716,51.94628]}},{"type":"Feature","properties":{"Naam":"Kraaienest","Adres":"Brasserskade 4","PC":"2631 NC","Plts":"NOOTDORP","Srt":"(V)SO"},"geometry":{"type":"Point","coordinates":[4.3865,52.03956]}},{"type":"Feature","properties":{"Naam":"Bernardusschool","Adres":"Ruychrocklaan 340","PC":"2597 EE","Plts":"'S-GRAVENHAGE","Srt":"(V)SO"},"geometry":{"type":"Point","coordinates":[4.32759,52.10372]}},{"type":"Feature","properties":{"Naam":"Bernardusschool","Adres":"Theo Mann-Bouwmeesterln 63","PC":"2597 GV","Plts":"'S-GRAVENHAGE","Srt":"(V)SO"},"geometry":null},{"type":"Feature","properties":{"Naam":"Cor Emousschool","Adres":"Van Ruysbroekstraat 5","PC":"2531 TG","Plts":"'S-GRAVENHAGE","Srt":"(V)SO"},"geometry":{"type":"Point","coordinates":[4.30369,52.05512]}},{"type":"Feature","properties":{"Naam":"VierTaal College Den Haag","Adres":"Steenwijklaan 30","PC":"2541 RL","Plts":"'S-GRAVENHAGE","Srt":"(V)SO"},"geometry":{"type":"Point","coordinates":[4.28418,52.04464]}},{"type":"Feature","properties":{"Naam":"Leo Kannerschool SO","Adres":"Endegeesterstraatweg 26","PC":"2342 AK","Plts":"OEGSTGEEST","Srt":"(V)SO"},"geometry":{"type":"Point","coordinates":[4.45769,52.17351]}},{"type":"Feature","properties":{"Naam":"De Musketier SO","Adres":"Bokkenweide 1-3","PC":"2727 GN","Plts":"ZOETERMEER","Srt":"(V)SO"},"geometry":null},{"type":"Feature","properties":{"Naam":"P.C. Hooftcollege VSO","Adres":"Touwbaan 42","PC":"2352 CZ","Plts":"LEIDERDORP","Srt":"(V)SO"},"geometry":{"type":"Point","coordinates":[4.51972,52.16672]}},{"type":"Feature","properties":{"Naam":"Leo Kannercollege VSO","Adres":"Cesar Franckstraat 9","PC":"2324 JM","Plts":"LEIDEN","Srt":"(V)SO"},"geometry":{"type":"Point","coordinates":[4.46812,52.14455]}},{"type":"Feature","properties":{"Naam":"Leo Kannerschool VSO","Adres":"Hazenboslaan 101","PC":"2343 SZ","Plts":"OEGSTGEEST","Srt":"(V)SO"},"geometry":{"type":"Point","coordinates":[4.47827,52.18906]}},{"type":"Feature","properties":{"Naam":"ESB Curium - LUMC","Adres":"Endegeesterstraatweg 27","PC":"2342 AK","Plts":"OEGSTGEEST","Srt":"(V)SO"},"geometry":{"type":"Point","coordinates":[4.45737,52.17293]}},{"type":"Feature","properties":{"Naam":"Herman Broerenschool voor Speciaal Onderwijs en Voortgezet Speciaal Onderwijs","Adres":"Clara van Sparwoudestr 1","PC":"2612 SP","Plts":"DELFT","Srt":"(V)SO"},"geometry":null},{"type":"Feature","properties":{"Naam":"Herman Broerenschool voor Speciaal Onderwijs en Voortgezet Speciaal Onderwijs","Adres":"Verhagenplein 9","PC":"2671 HS","Plts":"NAALDWIJK","Srt":"(V)SO"},"geometry":{"type":"Point","coordinates":[4.20811,51.99165]}},{"type":"Feature","properties":{"Naam":"Herman Broerenschool voor Speciaal Onderwijs en Voortgezet Speciaal Onderwijs","Adres":"Clara van Sparwoudestr 6","PC":"2612 SP","Plts":"DELFT","Srt":"(V)SO"},"geometry":null},{"type":"Feature","properties":{"Naam":"Herman Broerenschool voor Speciaal Onderwijs en Voortgezet Speciaal Onderwijs","Adres":"Tuinlaan 20","PC":"2681 JC","Plts":"MONSTER","Srt":"(V)SO"},"geometry":{"type":"Point","coordinates":[4.19472,52.03466]}},{"type":"Feature","properties":{"Naam":"Prisma Christelijke school (v)so-zmlk","Adres":"Boterbloemweg 21-B","PC":"2403 TR","Plts":"ALPHEN AAN DEN RIJN","Srt":"(V)SO"},"geometry":{"type":"Point","coordinates":[4.68738,52.14516]}},{"type":"Feature","properties":{"Naam":"Prisma Christelijke school (v)so-zmlk","Adres":"Meerkoetstraat 3","PC":"2406 GA","Plts":"ALPHEN AAN DEN RIJN","Srt":"(V)SO"},"geometry":{"type":"Point","coordinates":[4.66769,52.13505]}},{"type":"Feature","properties":{"Naam":"Leidse Buitenschool","Adres":"Duinoordweg 2","PC":"2224 CD","Plts":"KATWIJK ZH","Srt":"(V)SO"},"geometry":null},{"type":"Feature","properties":{"Naam":"De Ark","Adres":"Graaf van Egmondstraat 46","PC":"3261 AL","Plts":"OUD-BEIJERLAND","Srt":"(V)SO"},"geometry":{"type":"Point","coordinates":[4.41779,51.82036]}},{"type":"Feature","properties":{"Naam":"De Ark","Adres":"Prinses Marijkestraat 1-B","PC":"3241 VJ","Plts":"MIDDELHARNIS","Srt":"(V)SO"},"geometry":{"type":"Point","coordinates":[4.16812,51.75747]}},{"type":"Feature","properties":{"Naam":"Auris College Leiden","Adres":"Obrechtstraat 2-4","PC":"2324 VN","Plts":"LEIDEN","Srt":"(V)SO"},"geometry":null},{"type":"Feature","properties":{"Naam":"Auris de Weerklank Leiden","Adres":"Robijnstraat 100","PC":"2332 KV","Plts":"LEIDEN","Srt":"(V)SO"},"geometry":{"type":"Point","coordinates":[4.46311,52.1555]}},{"type":"Feature","properties":{"Naam":"Auris De Taaltuin","Adres":"Verdihof 27","PC":"2402 VA","Plts":"ALPHEN AAN DEN RIJN","Srt":"(V)SO"},"geometry":{"type":"Point","coordinates":[4.66777,52.14612]}},{"type":"Feature","properties":{"Naam":"De Cirkel Christelijk Onderwijs ZML","Adres":"Stalkaarsen 17-B","PC":"4205 PG","Plts":"GORINCHEM","Srt":"(V)SO"},"geometry":{"type":"Point","coordinates":[4.96171,51.84121]}},{"type":"Feature","properties":{"Naam":"Mytylschool  Kiem","Adres":"De Sitterstraat 9","PC":"3318 AA","Plts":"DORDRECHT","Srt":"(V)SO"},"geometry":{"type":"Point","coordinates":[4.67981,51.79024]}},{"type":"Feature","properties":{"Naam":"De Stroom","Adres":"Reeweg Zuid 22","PC":"3317 NH","Plts":"DORDRECHT","Srt":"(V)SO"},"geometry":{"type":"Point","coordinates":[4.65405,51.78454]}},{"type":"Feature","properties":{"Naam":"School Bleyburgh","Adres":"Menuet 72","PC":"3363 KH","Plts":"SLIEDRECHT","Srt":"(V)SO"},"geometry":{"type":"Point","coordinates":[4.74025,51.82708]}},{"type":"Feature","properties":{"Naam":"School Bleyburgh v.h. SSBO De Kleine Wereld","Adres":"Dokter Bauerstraat 154-156","PC":"4205 KE","Plts":"GORINCHEM","Srt":"(V)SO"},"geometry":null},{"type":"Feature","properties":{"Naam":"Bleuburgh","Adres":"Prof Kamerlingh Onnesln 187","PC":"3362 VE","Plts":"SLIEDRECHT","Srt":"(V)SO"},"geometry":null},{"type":"Feature","properties":{"Naam":"De Ark","Adres":"Jan Luykenstraat 1","PC":"2806 PD","Plts":"GOUDA","Srt":"(V)SO"},"geometry":{"type":"Point","coordinates":[4.71438,52.01518]}},{"type":"Feature","properties":{"Naam":"Ericaschool","Adres":"Delftseveerweg 28","PC":"3134 JJ","Plts":"VLAARDINGEN","Srt":"(V)SO"},"geometry":{"type":"Point","coordinates":[4.34351,51.91506]}},{"type":"Feature","properties":{"Naam":"Speciaal Onderwijs Brielle","Adres":"De Rik 22-A","PC":"3232 LA","Plts":"BRIELLE","Srt":"(V)SO"},"geometry":{"type":"Point","coordinates":[4.15725,51.8947]}},{"type":"Feature","properties":{"Naam":"Insp S De Vriesschool","Adres":"Heliotrooplaan 35","PC":"2555 MA","Plts":"'S-GRAVENHAGE","Srt":"(V)SO"},"geometry":{"type":"Point","coordinates":[4.22688,52.06665]}},{"type":"Feature","properties":{"Naam":"Insp S De Vriesschool","Adres":"E de Boer-van Rijkln 80","PC":"2597 TJ","Plts":"'S-GRAVENHAGE","Srt":"(V)SO"},"geometry":null},{"type":"Feature","properties":{"Naam":"De Piramide","Adres":"Melis Stokelaan 1189","PC":"2541 GA","Plts":"'S-GRAVENHAGE","Srt":"(V)SO"},"geometry":{"type":"Point","coordinates":[4.26852,52.04147]}},{"type":"Feature","properties":{"Naam":"De Piramide","Adres":"Steenwijklaan 30","PC":"2541 RL","Plts":"'S-GRAVENHAGE","Srt":"(V)SO"},"geometry":{"type":"Point","coordinates":[4.28418,52.04464]}},{"type":"Feature","properties":{"Naam":"School voor Meervoudige Gebrekkige Kinderen","Adres":"Kromme Zandweg 65","PC":"3084 NE","Plts":"ROTTERDAM","Srt":"(V)SO"},"geometry":{"type":"Point","coordinates":[4.47415,51.88342]}},{"type":"Feature","properties":{"Naam":"Dr A V Voorthuysenschool","Adres":"Rollostraat 85-B","PC":"3084 PM","Plts":"ROTTERDAM","Srt":"(V)SO"},"geometry":{"type":"Point","coordinates":[4.46,51.87899]}},{"type":"Feature","properties":{"Naam":"Dr A V Voorthuysenschool","Adres":"Herenwaard 35","PC":"3078 AK","Plts":"ROTTERDAM","Srt":"(V)SO"},"geometry":{"type":"Point","coordinates":[4.54643,51.88836]}},{"type":"Feature","properties":{"Naam":"A Willeboerschool","Adres":"Meindert Hobbemalaan 2","PC":"3062 SK","Plts":"ROTTERDAM","Srt":"(V)SO"},"geometry":{"type":"Point","coordinates":[4.52943,51.92062]}},{"type":"Feature","properties":{"Naam":"A Willeboerschool","Adres":"Hillegondastraat 19","PC":"3051 PA","Plts":"ROTTERDAM","Srt":"(V)SO"},"geometry":{"type":"Point","coordinates":[4.48511,51.94559]}},{"type":"Feature","properties":{"Naam":"Recon openluchtschool","Adres":"Dordtsestraatweg 472","PC":"3075 BN","Plts":"ROTTERDAM","Srt":"(V)SO"},"geometry":{"type":"Point","coordinates":[4.50128,51.8852]}},{"type":"Feature","properties":{"Naam":"Mytylschool De Brug","Adres":"Ringdijk 84","PC":"3054 KV","Plts":"ROTTERDAM","Srt":"(V)SO"},"geometry":{"type":"Point","coordinates":[4.47756,51.95157]}},{"type":"Feature","properties":{"Naam":"Pedologisch Instituut de Piloot","Adres":"Nieuwe Ommoordseweg 30","PC":"3068 BT","Plts":"ROTTERDAM","Srt":"(V)SO"},"geometry":{"type":"Point","coordinates":[4.54594,51.95668]}},{"type":"Feature","properties":{"Naam":"VSO Het Passer College","Adres":"De Waghemakerestraat 11","PC":"3067 HT","Plts":"ROTTERDAM","Srt":"(V)SO"},"geometry":{"type":"Point","coordinates":[4.54317,51.94161]}},{"type":"Feature","properties":{"Naam":"Instituut De Piloot","Adres":"van Heuven Goedhartsngl 10","PC":"2806 ZL","Plts":"GOUDA","Srt":"(V)SO"},"geometry":null},{"type":"Feature","properties":{"Naam":"Korte Vlietsch voor ZMLK","Adres":"Schubertlaan 131","PC":"2324 CR","Plts":"LEIDEN","Srt":"(V)SO"},"geometry":{"type":"Point","coordinates":[4.46774,52.14121]}},{"type":"Feature","properties":{"Naam":"Maurice Maeterlinckschool","Adres":"Buitenhofdreef 10","PC":"2625 XR","Plts":"DELFT","Srt":"(V)SO"},"geometry":{"type":"Point","coordinates":[4.34351,51.99734]}},{"type":"Feature","properties":{"Naam":"Tyltylcentrum De Witte Vogel","Adres":"Melis Stokelaan 1189","PC":"2541 GA","Plts":"'S-GRAVENHAGE","Srt":"(V)SO"},"geometry":{"type":"Point","coordinates":[4.26852,52.04147]}},{"type":"Feature","properties":{"Naam":"De Duinpieper","Adres":"Stakman Bossestraat 79","PC":"2203 GH","Plts":"NOORDWIJK ZH","Srt":"(V)SO"},"geometry":null},{"type":"Feature","properties":{"Naam":"De Keerkring","Adres":"Chaplinstrook 2-6","PC":"2726 SK","Plts":"ZOETERMEER","Srt":"(V)SO"},"geometry":null},{"type":"Feature","properties":{"Naam":"Mytylschool De Thermiek","Adres":"Blauwe Vogelweg 1","PC":"2333 VK","Plts":"LEIDEN","Srt":"(V)SO"},"geometry":{"type":"Point","coordinates":[4.47142,52.17054]}},{"type":"Feature","properties":{"Naam":"Mytylschool De Thermiek","Adres":"Sumatrastraat 201","PC":"2315 BD","Plts":"LEIDEN","Srt":"(V)SO"},"geometry":{"type":"Point","coordinates":[4.51158,52.16799]}},{"type":"Feature","properties":{"Naam":"Koninklijke Visio Onderwijs Rotterdam","Adres":"Heindijk 4","PC":"3079 PM","Plts":"ROTTERDAM","Srt":"(V)SO"},"geometry":{"type":"Point","coordinates":[4.54555,51.88356]}},{"type":"Feature","properties":{"Naam":"School voor Speciaal Basisonderwijs De Rank","Adres":"Dorpsstraat-Oost 3-A","PC":"2991 CR","Plts":"BARENDRECHT","Srt":"(V)SO"},"geometry":{"type":"Point","coordinates":[4.5452,51.85051]}},{"type":"Feature","properties":{"Naam":"School voor Speciaal Basisonderwijs De Rank","Adres":"Rondo 321","PC":"3363 LB","Plts":"SLIEDRECHT","Srt":"(V)SO"},"geometry":{"type":"Point","coordinates":[4.74218,51.83011]}},{"type":"Feature","properties":{"Naam":"School voor Speciaal Basisonderwijs De Rank","Adres":"Provincialeweg 70","PC":"3329 KP","Plts":"DORDRECHT","Srt":"(V)SO"},"geometry":{"type":"Point","coordinates":[4.72012,51.79429]}},{"type":"Feature","properties":{"Naam":"Samuelschool","Adres":"Han Hollanderweg 194","PC":"2807 AL","Plts":"GOUDA","Srt":"(V)SO"},"geometry":{"type":"Point","coordinates":[4.73689,52.01145]}},{"type":"Feature","properties":{"Naam":"De Regenboog SO","Adres":"Guido Gezelleweg 24","PC":"3076 EB","Plts":"ROTTERDAM","Srt":"(V)SO"},"geometry":{"type":"Point","coordinates":[4.52015,51.87502]}},{"type":"Feature","properties":{"Naam":"Bergse Veld school","Adres":"Mozartlaan 150","PC":"3055 KM","Plts":"ROTTERDAM","Srt":"(V)SO"},"geometry":{"type":"Point","coordinates":[4.51384,51.95804]}},{"type":"Feature","properties":{"Naam":"Bergse Veld school","Adres":"Mozartlaan 150","PC":"3055 KM","Plts":"ROTTERDAM","Srt":"(V)SO"},"geometry":{"type":"Point","coordinates":[4.51384,51.95804]}},{"type":"Feature","properties":{"Naam":"Schreuder College","Adres":"De Villeneuvestraat 24","PC":"3053 ZV","Plts":"ROTTERDAM","Srt":"(V)SO"},"geometry":{"type":"Point","coordinates":[4.47213,51.96463]}},{"type":"Feature","properties":{"Naam":"Educatief Centrum","Adres":"Schiemond 8","PC":"3029 NP","Plts":"ROTTERDAM","Srt":"(V)SO"},"geometry":{"type":"Point","coordinates":[4.44763,51.90334]}},{"type":"Feature","properties":{"Naam":"Schreuder College","Adres":"Slinge 154-156","PC":"3085 EW","Plts":"ROTTERDAM","Srt":"(V)SO"},"geometry":null},{"type":"Feature","properties":{"Naam":"Schreuder College","Adres":"Robert Fruinstraat 37","PC":"3021 XB","Plts":"ROTTERDAM","Srt":"(V)SO"},"geometry":{"type":"Point","coordinates":[4.45719,51.91507]}},{"type":"Feature","properties":{"Naam":"Schreuder College","Adres":"De Quackstraat 77","PC":"3082 VS","Plts":"ROTTERDAM","Srt":"(V)SO"},"geometry":{"type":"Point","coordinates":[4.46448,51.88787]}},{"type":"Feature","properties":{"Naam":"Rijnstroom College","Adres":"Ds. Meijerlaan 14","PC":"2406 JD","Plts":"ALPHEN AAN DEN RIJN","Srt":"(V)SO"},"geometry":{"type":"Point","coordinates":[4.66957,52.12437]}},{"type":"Feature","properties":{"Naam":"Kesper College","Adres":"Nansenstraat 40","PC":"2806 HM","Plts":"GOUDA","Srt":"(V)SO"},"geometry":{"type":"Point","coordinates":[4.72501,52.01221]}},{"type":"Feature","properties":{"Naam":"Parkschool voor ZMOK","Adres":"S.M. Hugo van Gijnweg 10","PC":"3317 JM","Plts":"DORDRECHT","Srt":"(V)SO"},"geometry":{"type":"Point","coordinates":[4.66888,51.79439]}},{"type":"Feature","properties":{"Naam":"Schakenbosch College","Adres":"Bouwlustweg 4","PC":"2263 SZ","Plts":"LEIDSCHENDAM","Srt":"(V)SO"},"geometry":{"type":"Point","coordinates":[4.40503,52.10291]}},{"type":"Feature","properties":{"Naam":"Schakenbosch College","Adres":"Bouwlustweg 4","PC":"2263 SZ","Plts":"LEIDSCHENDAM","Srt":"(V)SO"},"geometry":{"type":"Point","coordinates":[4.40503,52.10291]}},{"type":"Feature","properties":{"Naam":"Parkschool","Adres":"Henry Dunantweg 5-7","PC":"2402 NM","Plts":"ALPHEN AAN DEN RIJN","Srt":"(V)SO"},"geometry":null},{"type":"Feature","properties":{"Naam":"Midgaard College","Adres":"Monsterseweg 216","PC":"2553 RM","Plts":"'S-GRAVENHAGE","Srt":"(V)SO"},"geometry":{"type":"Point","coordinates":[4.20799,52.04648]}},{"type":"Feature","properties":{"Naam":"School 2 Care","Adres":"Willem Dreespark 307","PC":"2531 SX","Plts":"'S-GRAVENHAGE","Srt":"(V)SO"},"geometry":{"type":"Point","coordinates":[4.30801,52.05682]}},{"type":"Feature","properties":{"Naam":"Rijnhove hand in hand","Adres":"Ds. Meijerlaan 14","PC":"2406 JD","Plts":"ALPHEN AAN DEN RIJN","Srt":"(V)SO"},"geometry":{"type":"Point","coordinates":[4.66957,52.12437]}},{"type":"Feature","properties":{"Naam":"School2Care de Vliet","Adres":"Klencke 603","PC":"3191 VZ","Plts":"HOOGVLIET ROTTERDAM","Srt":"(V)SO"},"geometry":{"type":"Point","coordinates":[4.35775,51.86633]}},{"type":"Feature","properties":{"Naam":"De Regenboog","Adres":"Winterdijk 6","PC":"2801 SJ","Plts":"GOUDA","Srt":"(V)SO"},"geometry":{"type":"Point","coordinates":[4.70018,52.0159]}},{"type":"Feature","properties":{"Naam":"School2Care de Vliet","Adres":"Klencke 603","PC":"3191 VZ","Plts":"HOOGVLIET ROTTERDAM","Srt":"(V)SO"},"geometry":{"type":"Point","coordinates":[4.35775,51.86633]}},{"type":"Feature","properties":{"Naam":"Het Palmhuis","Adres":"Willem Dreespark 307","PC":"2531 SX","Plts":"'S-GRAVENHAGE","Srt":"(V)SO"},"geometry":{"type":"Point","coordinates":[4.30801,52.05682]}},{"type":"Feature","properties":{"Naam":"Koetsveldschool","Adres":"Zwaardvegersgaarde 25","PC":"2542 TC","Plts":"'S-GRAVENHAGE","Srt":"(V)SO"},"geometry":{"type":"Point","coordinates":[4.27131,52.0394]}},{"type":"Feature","properties":{"Naam":"St Mattheusschool SO-VSO-ZMLK/MG","Adres":"Aleyda van Raephorstlaan 243","PC":"3054 CR","Plts":"ROTTERDAM","Srt":"(V)SO"},"geometry":{"type":"Point","coordinates":[4.48332,51.95929]}},{"type":"Feature","properties":{"Naam":"Yulius Onderwijs","Adres":"Boerhaavelaan 2","PC":"2992 KZ","Plts":"BARENDRECHT","Srt":"(V)SO"},"geometry":{"type":"Point","coordinates":[4.5315,51.86134]}},{"type":"Feature","properties":{"Naam":"Yulius DB MFC","Adres":"Rhijnauwensingel 160","PC":"3077 EV","Plts":"ROTTERDAM","Srt":"(V)SO"},"geometry":{"type":"Point","coordinates":[4.57109,51.89485]}},{"type":"Feature","properties":{"Naam":"Yulius de Fjord","Adres":"Poortmolen 121","PC":"2906 RN","Plts":"CAPELLE AAN DEN IJSSEL","Srt":"(V)SO"},"geometry":{"type":"Point","coordinates":[4.56384,51.93988]}},{"type":"Feature","properties":{"Naam":"Yulius De Gaard","Adres":"Bessengaard 93","PC":"3206 AG","Plts":"SPIJKENISSE","Srt":"(V)SO"},"geometry":{"type":"Point","coordinates":[4.32785,51.83265]}},{"type":"Feature","properties":{"Naam":"Yulius Drechtster College","Adres":"Atmosfeerstraat 32","PC":"3328 GD","Plts":"DORDRECHT","Srt":"(V)SO"},"geometry":{"type":"Point","coordinates":[4.67859,51.7791]}},{"type":"Feature","properties":{"Naam":"Yulius Het Tij","Adres":"Groenedijk 49","PC":"3311 DB","Plts":"DORDRECHT","Srt":"(V)SO"},"geometry":{"type":"Point","coordinates":[4.67979,51.81293]}},{"type":"Feature","properties":{"Naam":"Yulius De Atlas","Adres":"Chico Mendesring 821","PC":"3315 WX","Plts":"DORDRECHT","Srt":"(V)SO"},"geometry":{"type":"Point","coordinates":[4.70692,51.80546]}},{"type":"Feature","properties":{"Naam":"Yulius Ilex College","Adres":"Burg van Haarenlaan 1155","PC":"3118 GC","Plts":"SCHIEDAM","Srt":"(V)SO"},"geometry":{"type":"Point","coordinates":[4.38301,51.91989]}},{"type":"Feature","properties":{"Naam":"Yulius Heer Bokel College","Adres":"Heer Bokelweg 260","PC":"3032 AD","Plts":"ROTTERDAM","Srt":"(V)SO"},"geometry":{"type":"Point","coordinates":[4.47787,51.92696]}},{"type":"Feature","properties":{"Naam":"Yulius Lingewaal College","Adres":"Merwedekanaal 8-A","PC":"4206 BC","Plts":"GORINCHEM","Srt":"(V)SO"},"geometry":{"type":"Point","coordinates":[4.97594,51.8375]}},{"type":"Feature","properties":{"Naam":"Yulius Discovery College","Adres":"Dennenhout 1","PC":"2994 GC","Plts":"BARENDRECHT","Srt":"(V)SO"},"geometry":{"type":"Point","coordinates":[4.50058,51.857]}},{"type":"Feature","properties":{"Naam":"Yulius Middelland College","Adres":"Schietbaanlaan 118","PC":"3021 LP","Plts":"ROTTERDAM","Srt":"(V)SO"},"geometry":{"type":"Point","coordinates":[4.45701,51.91549]}},{"type":"Feature","properties":{"Naam":"Yulius Reijerwaard College","Adres":"De Quackstraat 77","PC":"3082 VS","Plts":"ROTTERDAM","Srt":"(V)SO"},"geometry":{"type":"Point","coordinates":[4.46448,51.88787]}},{"type":"Feature","properties":{"Naam":"Yulius Lombardia","Adres":"Moliereweg 629-A","PC":"3076 GE","Plts":"ROTTERDAM","Srt":"(V)SO"},"geometry":{"type":"Point","coordinates":[4.51623,51.87525]}},{"type":"Feature","properties":{"Naam":"Openbare School voor Speciaal Basisonderwijs De Catamaran","Adres":"Wendeling 112","PC":"7824 TK","Plts":"EMMEN","Srt":"SBAO"},"geometry":{"type":"Point","coordinates":[6.92839,52.77787]}},{"type":"Feature","properties":{"Naam":"School voor Speciaal Basisonderwijs t Hoge Holt","Adres":"Lijsterbesstraat 1","PC":"9301 MK","Plts":"RODEN","Srt":"SBAO"},"geometry":{"type":"Point","coordinates":[6.42897,53.14252]}},{"type":"Feature","properties":{"Naam":"Kindcentrum De Boei (voor speciaal basisonderwijs)","Adres":"Wethouder Bergerweg 2-A","PC":"9406 XP","Plts":"ASSEN","Srt":"SBAO"},"geometry":{"type":"Point","coordinates":[6.54805,53.00879]}},{"type":"Feature","properties":{"Naam":"School voor Speciaal Basisonderwijs De Kameleon","Adres":"van Goghlaan 3","PC":"7901 GK","Plts":"HOOGEVEEN","Srt":"SBAO"},"geometry":{"type":"Point","coordinates":[6.47003,52.72204]}},{"type":"Feature","properties":{"Naam":"School voor Speciaal Basisonderwijs De Carrousel","Adres":"De Wielewaal 1","PC":"7905 GX","Plts":"HOOGEVEEN","Srt":"SBAO"},"geometry":{"type":"Point","coordinates":[6.49889,52.71745]}},{"type":"Feature","properties":{"Naam":"School voor Speciaal Basisonderwijs Reestoever","Adres":"Jacob Marisstraat 1","PC":"7944 EM","Plts":"MEPPEL","Srt":"SBAO"},"geometry":{"type":"Point","coordinates":[6.18814,52.68932]}},{"type":"Feature","properties":{"Naam":"School voor Speciaal Basisonderwijs De Meander","Adres":"Wethouder Bergerweg 2-D","PC":"9406 XP","Plts":"ASSEN","Srt":"SBAO"},"geometry":{"type":"Point","coordinates":[6.54878,53.00943]}},{"type":"Feature","properties":{"Naam":"School voor Speciaal Basisonderwijs Toermalijn","Adres":"Sparrenlaan 4-5","PC":"7822 EM","Plts":"EMMEN","Srt":"SBAO"},"geometry":null},{"type":"Feature","properties":{"Naam":"School voor Speciaal Basisonderwijs De Klimop","Adres":"Rossinistraat 5","PC":"1323 BP","Plts":"ALMERE","Srt":"SBAO"},"geometry":{"type":"Point","coordinates":[5.19881,52.36557]}},{"type":"Feature","properties":{"Naam":"SBO De Klimboom","Adres":"Vogelsant 6","PC":"8303 ZR","Plts":"EMMELOORD","Srt":"SBAO"},"geometry":{"type":"Point","coordinates":[5.73404,52.70749]}},{"type":"Feature","properties":{"Naam":"School Speciaal Basisonderwijs De Watertuin I","Adres":"Churchillweg 3","PC":"1314 RA","Plts":"ALMERE","Srt":"SBAO"},"geometry":{"type":"Point","coordinates":[5.222,52.38017]}},{"type":"Feature","properties":{"Naam":"School voor Speciaal Basisonderwijs De Bombardon","Adres":"Simon van Collemstraat 7","PC":"1325 NA","Plts":"ALMERE","Srt":"SBAO"},"geometry":{"type":"Point","coordinates":[5.24302,52.36629]}},{"type":"Feature","properties":{"Naam":"School voor Speciaal Basisonderwijs De Watergeus","Adres":"Schouw 1901","PC":"8232 HM","Plts":"LELYSTAD","Srt":"SBAO"},"geometry":null},{"type":"Feature","properties":{"Naam":"Chr School voor Speciaal Basisonderwijs De Vogelveste","Adres":"de Veste 1840","PC":"8231 JV","Plts":"LELYSTAD","Srt":"SBAO"},"geometry":null},{"type":"Feature","properties":{"Naam":"School voor Speciaal Basisonderwijs De Driemaster","Adres":"Werfstraat 10","PC":"8251 GP","Plts":"DRONTEN","Srt":"SBAO"},"geometry":{"type":"Point","coordinates":[5.72256,52.52547]}},{"type":"Feature","properties":{"Naam":"Chr School voor Speciaal Basisonderwijs Sjalom","Adres":"John F Kennedylaan 6","PC":"9203 JV","Plts":"DRACHTEN","Srt":"SBAO"},"geometry":{"type":"Point","coordinates":[6.10332,53.09754]}},{"type":"Feature","properties":{"Naam":"Christelijke School voor Speciaal Basisonderwijs Aquamarijn","Adres":"Brandemeer 35","PC":"8918 CT","Plts":"LEEUWARDEN","Srt":"SBAO"},"geometry":{"type":"Point","coordinates":[5.80401,53.21522]}},{"type":"Feature","properties":{"Naam":"School voor Speciaal Basisonderwijs De Twine","Adres":"Hantumerweg 28","PC":"9101 AB","Plts":"DOKKUM","Srt":"SBAO"},"geometry":{"type":"Point","coordinates":[5.99816,53.3307]}},{"type":"Feature","properties":{"Naam":"School voor Speciaal Basisonderwijs It Oerset","Adres":"Domela Nieuwenhuisweg 7","PC":"8448 GK","Plts":"HEERENVEEN","Srt":"SBAO"},"geometry":{"type":"Point","coordinates":[5.94124,52.96133]}},{"type":"Feature","properties":{"Naam":"School voor Speciaal Basisonderwijs De Triade","Adres":"Andries Veenstrastraat 27","PC":"8471 AW","Plts":"WOLVEGA","Srt":"SBAO"},"geometry":{"type":"Point","coordinates":[6.00289,52.88033]}},{"type":"Feature","properties":{"Naam":"School voor Speciaal Basisonderwijs De Kampingerhof","Adres":"Kampingerhof 2","PC":"8431 AS","Plts":"OOSTERWOLDE FR","Srt":"SBAO"},"geometry":null},{"type":"Feature","properties":{"Naam":"School voor Speciaal Basisonderwijs De Bolder","Adres":"IJsbaanweg 2","PC":"8801 ER","Plts":"FRANEKER","Srt":"SBAO"},"geometry":{"type":"Point","coordinates":[5.53901,53.19302]}},{"type":"Feature","properties":{"Naam":"It Heechhof","Adres":"'t Swin 8","PC":"9201 XZ","Plts":"DRACHTEN","Srt":"SBAO"},"geometry":{"type":"Point","coordinates":[6.0877,53.11285]}},{"type":"Feature","properties":{"Naam":"Eigen Wijs SBO","Adres":"Verdistraat 4","PC":"8915 CD","Plts":"LEEUWARDEN","Srt":"SBAO"},"geometry":null},{"type":"Feature","properties":{"Naam":"SBO Wetterwille","Adres":"Simmerdyk 3","PC":"8601 ZP","Plts":"SNEEK","Srt":"SBAO"},"geometry":{"type":"Point","coordinates":[5.64259,53.03236]}},{"type":"Feature","properties":{"Naam":"School voor Speciaal Basisonderwijs de Sudwester","Adres":"Kaatsland 5-B","PC":"8608 CX","Plts":"SNEEK","Srt":"SBAO"},"geometry":{"type":"Point","coordinates":[5.65444,53.02485]}},{"type":"Feature","properties":{"Naam":"Christelijke School voor Speciaal Basisonderwijs De Vogelhorst","Adres":"Ds. E. Fransenlaan 1","PC":"3772 TX","Plts":"BARNEVELD","Srt":"SBAO"},"geometry":{"type":"Point","coordinates":[5.59017,52.12681]}},{"type":"Feature","properties":{"Naam":"SBO de Windroos, locatie Lindenholt","Adres":"de Gildekamp 6022","PC":"6545 LX","Plts":"NIJMEGEN","Srt":"SBAO"},"geometry":{"type":"Point","coordinates":[5.80115,51.83119]}},{"type":"Feature","properties":{"Naam":"SBO de Windroos, locatie de Goffert","Adres":"Tapirstraat 2","PC":"6532 AL","Plts":"NIJMEGEN","Srt":"SBAO"},"geometry":{"type":"Point","coordinates":[5.84186,51.82189]}},{"type":"Feature","properties":{"Naam":"School voor Speciaal Basisonderwijs De Bolster","Adres":"Homberg 2994","PC":"6601 XR","Plts":"WIJCHEN","Srt":"SBAO"},"geometry":{"type":"Point","coordinates":[5.71556,51.81343]}},{"type":"Feature","properties":{"Naam":"School voor Speciaal Basisonderwijs SAM, locatie Bodden Hosang","Adres":"Boddens Hosangstraat 98","PC":"7002 JA","Plts":"DOETINCHEM","Srt":"SBAO"},"geometry":{"type":"Point","coordinates":[6.31306,51.97004]}},{"type":"Feature","properties":{"Naam":"School voor Speciaal Basisonderwijs SAM, locatie van Limburg Stirum","Adres":"van Limburg Stirumlaan 5","PC":"7003 BG","Plts":"DOETINCHEM","Srt":"SBAO"},"geometry":{"type":"Point","coordinates":[6.30237,51.96513]}},{"type":"Feature","properties":{"Naam":"De Horizon","Adres":"Groningensingel 1183","PC":"6835 HZ","Plts":"ARNHEM","Srt":"SBAO"},"geometry":{"type":"Point","coordinates":[5.89901,51.95036]}},{"type":"Feature","properties":{"Naam":"School voor Speciaal Basisonderwijs De Schilderspoort","Adres":"Mercurion 36","PC":"6903 PZ","Plts":"ZEVENAAR","Srt":"SBAO"},"geometry":{"type":"Point","coordinates":[6.07641,51.94146]}},{"type":"Feature","properties":{"Naam":"School voor Speciaal Basisonderwijs De Dijk","Adres":"Heuvel 61-63","PC":"6651 DB","Plts":"DRUTEN","Srt":"SBAO"},"geometry":null},{"type":"Feature","properties":{"Naam":"School voor Speciaal Basisonderwijs Klavervier","Adres":"Koolzaadveld 1","PC":"6641 ST","Plts":"BEUNINGEN GLD","Srt":"SBAO"},"geometry":{"type":"Point","coordinates":[5.75796,51.86389]}},{"type":"Feature","properties":{"Naam":"School voor Speciaal Basisonderwijs Diekmaat","Adres":"Wheemerstraat 10","PC":"7161 AN","Plts":"NEEDE","Srt":"SBAO"},"geometry":{"type":"Point","coordinates":[6.61757,52.13038]}},{"type":"Feature","properties":{"Naam":"School voor Speciaal Basisonderwijs Koningin Juliana","Adres":"Oranje Nassaulaan 41","PC":"4101 JS","Plts":"CULEMBORG","Srt":"SBAO"},"geometry":{"type":"Point","coordinates":[5.23836,51.958]}},{"type":"Feature","properties":{"Naam":"De Dijk","Adres":"Marijkeweg 1","PC":"6708 AA","Plts":"WAGENINGEN","Srt":"SBAO"},"geometry":{"type":"Point","coordinates":[5.65643,51.96971]}},{"type":"Feature","properties":{"Naam":"School voor Speciaal Basisonderwijs De Korenburg","Adres":"Morsestraat 21-A","PC":"7101 JA","Plts":"WINTERSWIJK","Srt":"SBAO"},"geometry":{"type":"Point","coordinates":[6.72421,51.96796]}},{"type":"Feature","properties":{"Naam":"School voor Speciaal Basisonderwijs Het Mozaiek","Adres":"Paulus Potterstraat 8","PC":"7204 CV","Plts":"ZUTPHEN","Srt":"SBAO"},"geometry":{"type":"Point","coordinates":[6.20916,52.13878]}},{"type":"Feature","properties":{"Naam":"Speciaal Basisonderwijs De Boemerang","Adres":"Zilverschoon 104","PC":"7322 GK","Plts":"APELDOORN","Srt":"SBAO"},"geometry":{"type":"Point","coordinates":[5.9882,52.22428]}},{"type":"Feature","properties":{"Naam":"SSBO 't Sterrenbos","Adres":"van Limburg Stirumstraat 29","PC":"6951 EB","Plts":"DIEREN","Srt":"SBAO"},"geometry":{"type":"Point","coordinates":[6.09891,52.05386]}},{"type":"Feature","properties":{"Naam":"SBO De Klaproos","Adres":"Kluizeweg 189","PC":"6815 EC","Plts":"ARNHEM","Srt":"SBAO"},"geometry":{"type":"Point","coordinates":[5.90448,52.0045]}},{"type":"Feature","properties":{"Naam":"School voor Speciaal Basisonderwijs De Piramide","Adres":"Groningensingel 1185","PC":"6835 HZ","Plts":"ARNHEM","Srt":"SBAO"},"geometry":{"type":"Point","coordinates":[5.89875,51.95061]}},{"type":"Feature","properties":{"Naam":"School voor Speciaal Basisonderwijs Koningin Emma","Adres":"Scherpencamp 42","PC":"3861 LT","Plts":"NIJKERK GLD","Srt":"SBAO"},"geometry":null},{"type":"Feature","properties":{"Naam":"Christelijke School voor Speciaal Basisonderwijs De Springplank","Adres":"Kruithuis 2","PC":"3844 DH","Plts":"HARDERWIJK","Srt":"SBAO"},"geometry":{"type":"Point","coordinates":[5.61575,52.34452]}},{"type":"Feature","properties":{"Naam":"Chr School voor Speciaal Basisonderwijs De Arend","Adres":"Oosterlaan 147","PC":"8072 BW","Plts":"NUNSPEET","Srt":"SBAO"},"geometry":{"type":"Point","coordinates":[5.80438,52.38208]}},{"type":"Feature","properties":{"Naam":"Nieuw Hessen","Adres":"Hessenweg 4","PC":"7121 MG","Plts":"AALTEN","Srt":"SBAO"},"geometry":{"type":"Point","coordinates":[6.58997,51.9323]}},{"type":"Feature","properties":{"Naam":"School voor Speciaal Basisonderwijs De Wissel","Adres":"Bladergroenstraat 3","PC":"4002 AZ","Plts":"TIEL","Srt":"SBAO"},"geometry":{"type":"Point","coordinates":[5.42572,51.89413]}},{"type":"Feature","properties":{"Naam":"RK School voor Speciaal Basisonderwijs Carolus","Adres":"Cranenburgsestraat 112-C","PC":"6561 AR","Plts":"GROESBEEK","Srt":"SBAO"},"geometry":{"type":"Point","coordinates":[5.94465,51.78086]}},{"type":"Feature","properties":{"Naam":"School voor Speciaal Basisonderwijs De Regenboog","Adres":"Generaal Spoorlaan 2-4","PC":"6711 LX","Plts":"EDE GLD","Srt":"SBAO"},"geometry":null},{"type":"Feature","properties":{"Naam":"De Vorm KSBO","Adres":"Waleweingaarde 114","PC":"7329 BD","Plts":"APELDOORN","Srt":"SBAO"},"geometry":{"type":"Point","coordinates":[5.99277,52.19905]}},{"type":"Feature","properties":{"Naam":"School voor Speciaal Basisonderwijs St Ludgerus","Adres":"Varsseveldseweg 47","PC":"7131 BH","Plts":"LICHTENVOORDE","Srt":"SBAO"},"geometry":{"type":"Point","coordinates":[6.55742,51.98442]}},{"type":"Feature","properties":{"Naam":"School voor Speciaal Basisonderwijs vd Reijden","Adres":"Prinses Marijkestraat 10","PC":"8162 BB","Plts":"EPE","Srt":"SBAO"},"geometry":{"type":"Point","coordinates":[5.9809,52.34697]}},{"type":"Feature","properties":{"Naam":"School voor Speciaal Basisonderwijs De Vlinderboom","Adres":"Dorpsstraat 10","PC":"6681 BN","Plts":"BEMMEL","Srt":"SBAO"},"geometry":{"type":"Point","coordinates":[5.90196,51.89404]}},{"type":"Feature","properties":{"Naam":"School voor Speciaal Basisonderwijs De Prinsenhof","Adres":"Mr. van Hasseltlaan 57","PC":"7316 DK","Plts":"APELDOORN","Srt":"SBAO"},"geometry":{"type":"Point","coordinates":[5.95981,52.22589]}},{"type":"Feature","properties":{"Naam":"School voor Speciaal Basisonderwijs Toermalijn","Adres":"Wielkamp 1","PC":"5301 DB","Plts":"ZALTBOMMEL","Srt":"SBAO"},"geometry":{"type":"Point","coordinates":[5.24136,51.80186]}},{"type":"Feature","properties":{"Naam":"Rehoboth SBO, Ochten","Adres":"Het Katsland 6","PC":"4051 KA","Plts":"OCHTEN","Srt":"SBAO"},"geometry":{"type":"Point","coordinates":[5.56422,51.91035]}},{"type":"Feature","properties":{"Naam":"Rehoboth SBO, Barneveld","Adres":"Schoutenstraat 113","PC":"3771 CH","Plts":"BARNEVELD","Srt":"SBAO"},"geometry":{"type":"Point","coordinates":[5.57225,52.14582]}},{"type":"Feature","properties":{"Naam":"School voor Speciaal Basisonderwijs Fiducia","Adres":"Distributiestraat 1","PC":"9728 CR","Plts":"GRONINGEN","Srt":"SBAO"},"geometry":{"type":"Point","coordinates":[6.5619,53.20109]}},{"type":"Feature","properties":{"Naam":"School voor Speciaal Basisonderwijs De Kimkiel","Adres":"Kluiverboom 9","PC":"9732 KZ","Plts":"GRONINGEN","Srt":"SBAO"},"geometry":{"type":"Point","coordinates":[6.61004,53.23657]}},{"type":"Feature","properties":{"Naam":"School voor Speciaal Basisonderwijs De Baldakijn","Adres":"Vlaanderenlaan 11","PC":"9501 TJ","Plts":"STADSKANAAL","Srt":"SBAO"},"geometry":{"type":"Point","coordinates":[6.96485,52.98915]}},{"type":"Feature","properties":{"Naam":"SBO De Delta","Adres":"Pastorielaan 2","PC":"9901 CE","Plts":"APPINGEDAM","Srt":"SBAO"},"geometry":{"type":"Point","coordinates":[6.87183,53.32566]}},{"type":"Feature","properties":{"Naam":"SBO De Sterren","Adres":"Zuiderkroon 8","PC":"9602 MZ","Plts":"HOOGEZAND","Srt":"SBAO"},"geometry":{"type":"Point","coordinates":[6.7501,53.14621]}},{"type":"Feature","properties":{"Naam":"SBO Delta","Adres":"Grintweg 70","PC":"9675 HL","Plts":"WINSCHOTEN","Srt":"SBAO"},"geometry":{"type":"Point","coordinates":[7.02525,53.15025]}},{"type":"Feature","properties":{"Naam":"Wim Monnereauschool Speciale School voor Basisonderwijs","Adres":"Boven Westerdiep 10","PC":"9641 LJ","Plts":"VEENDAM","Srt":"SBAO"},"geometry":{"type":"Point","coordinates":[6.86968,53.10352]}},{"type":"Feature","properties":{"Naam":"School voor Speciaal Basisonderwijs Dr Bekenkamp","Adres":"Blekerslaan 1","PC":"9724 EJ","Plts":"GRONINGEN","Srt":"SBAO"},"geometry":{"type":"Point","coordinates":[6.57816,53.20942]}},{"type":"Feature","properties":{"Naam":"School voor Speciaal Basisonderwijs Dr Bekenkamp","Adres":"Wilgenlaan 1","PC":"9741 BX","Plts":"GRONINGEN","Srt":"SBAO"},"geometry":{"type":"Point","coordinates":[6.54764,53.22957]}},{"type":"Feature","properties":{"Naam":"De Meerpaal Geref SBO","Adres":"Koperstraat 4","PC":"9743 RW","Plts":"GRONINGEN","Srt":"SBAO"},"geometry":{"type":"Point","coordinates":[6.52965,53.22187]}},{"type":"Feature","properties":{"Naam":"School voor Speciaal Basisonderwijs Op de Tump","Adres":"Panheelderweg 29","PC":"6097 AH","Plts":"HEEL","Srt":"SBAO"},"geometry":{"type":"Point","coordinates":[5.88732,51.17641]}},{"type":"Feature","properties":{"Naam":"School voor Speciaal Basisonderwijs De Piramide","Adres":"Martinushof 21","PC":"6591 DM","Plts":"GENNEP","Srt":"SBAO"},"geometry":{"type":"Point","coordinates":[5.97409,51.69938]}},{"type":"Feature","properties":{"Naam":"Talentencampus Venlo Speciaal Basisonderwijs","Adres":"Rijnbeekstraat 8","PC":"5913 GB","Plts":"VENLO","Srt":"SBAO"},"geometry":{"type":"Point","coordinates":[6.18418,51.37075]}},{"type":"Feature","properties":{"Naam":"Talententuin Maastricht","Adres":"Marienwaard 57","PC":"6222 AM","Plts":"MAASTRICHT","Srt":"SBAO"},"geometry":{"type":"Point","coordinates":[5.72209,50.87056]}},{"type":"Feature","properties":{"Naam":"School voor Speciaal Basisonderwijs St Bernardus","Adres":"Willem Vliegenstraat 5","PC":"6271 DA","Plts":"GULPEN","Srt":"SBAO"},"geometry":{"type":"Point","coordinates":[5.88602,50.81592]}},{"type":"Feature","properties":{"Naam":"RK speciale school voor basisonderwijs de Griffel","Adres":"Heldevierlaan 6","PC":"6415 SB","Plts":"HEERLEN","Srt":"SBAO"},"geometry":{"type":"Point","coordinates":[5.97906,50.89876]}},{"type":"Feature","properties":{"Naam":"SBO Arcadia","Adres":"Schoolstraat 86-88","PC":"6466 HX","Plts":"KERKRADE","Srt":"SBAO"},"geometry":null},{"type":"Feature","properties":{"Naam":"School voor Speciaal Basisonderwijs De Wissel","Adres":"Hereweg 175","PC":"6371 LZ","Plts":"LANDGRAAF","Srt":"SBAO"},"geometry":{"type":"Point","coordinates":[6.02713,50.90141]}},{"type":"Feature","properties":{"Naam":"SBO De Boemerang","Adres":"De Insel 21","PC":"6442 AJ","Plts":"BRUNSSUM","Srt":"SBAO"},"geometry":{"type":"Point","coordinates":[5.98228,50.94985]}},{"type":"Feature","properties":{"Naam":"School voor Speciaal Basisonderwijs De Balans","Adres":"Heinsbergerweg 19-A","PC":"6045 CB","Plts":"ROERMOND","Srt":"SBAO"},"geometry":{"type":"Point","coordinates":[5.99951,51.18042]}},{"type":"Feature","properties":{"Naam":"School voor Speciaal Basisonderwijs Focus","Adres":"Groenewoltsepad 2","PC":"5801 AP","Plts":"VENRAY","Srt":"SBAO"},"geometry":{"type":"Point","coordinates":[5.97327,51.52013]}},{"type":"Feature","properties":{"Naam":"Speciaal Basisonderwijs De Twister","Adres":"Gebr. van Doornelaan 25","PC":"5961 BA","Plts":"HORST","Srt":"SBAO"},"geometry":{"type":"Point","coordinates":[6.04835,51.46095]}},{"type":"Feature","properties":{"Naam":"School voor Speciaal Basisonderwijs De Fontein","Adres":"Schoutenring 32","PC":"5981 DS","Plts":"PANNINGEN","Srt":"SBAO"},"geometry":{"type":"Point","coordinates":[5.98579,51.32256]}},{"type":"Feature","properties":{"Naam":"School voor Speciaal Basisonderwijs Het Palet","Adres":"Beatrixlaan 1","PC":"6006 AH","Plts":"WEERT","Srt":"SBAO"},"geometry":{"type":"Point","coordinates":[5.70828,51.24599]}},{"type":"Feature","properties":{"Naam":"School voor Speciaal Basisonderwijs De Lings","Adres":"van Wevelickhovenstraat 9","PC":"5931 KS","Plts":"TEGELEN","Srt":"SBAO"},"geometry":{"type":"Point","coordinates":[6.14645,51.34474]}},{"type":"Feature","properties":{"Naam":"School voor Speciaal Basisonderwijs De Schans","Adres":"Albert Verweystraat 4","PC":"5921 AZ","Plts":"VENLO","Srt":"SBAO"},"geometry":{"type":"Point","coordinates":[6.14276,51.36848]}},{"type":"Feature","properties":{"Naam":"School voor Speciaal Basisonderwijs Het Mozaiek","Adres":"Valkstraat 2","PC":"6135 GC","Plts":"SITTARD","Srt":"SBAO"},"geometry":{"type":"Point","coordinates":[5.85582,51.00282]}},