{"type":"FeatureCollection","features":[{"type":"Feature","properties":{"Naam":"Woonzorgvoorziening \"de Meerenburgh\"","Organisatie":"CV Woonzorgvoorziening \"de Meerenburgh\"","Soort zorg":"Verzorgingshuizen","Huisnummer":"10","Postcode":"6615AA","Plaats":"Leur","IsMainBranch":true},"geometry":{"type":"Point","coordinates":[5.69921,51.82659]}},{"type":"Feature","properties":{"Naam":"Stichting Kalorama","Organisatie":"Stichting Kalorama","Soort zorg":"Verpleeghuizen","Huisnummer":"12","Postcode":"6573DX","Plaats":"Beek","IsMainBranch":true},"geometry":{"type":"Point","coordinates":[5.92151,51.82739]}},{"type":"Feature","properties":{"Naam":"Hospice Bethlehem","Organisatie":"Stichting Kalorama","Soort zorg":"Verpleeghuizen","Huisnummer":"10","Postcode":"6511TR","Plaats":"Nijmegen"},"geometry":{"type":"Point","coordinates":[5.86773,51.84829]}},{"type":"Feature","properties":{"Naam":"Verzorgingshuis 't Höfke","Organisatie":"Stichting Kalorama","Soort zorg":"Verpleeghuizen","Huisnummer":"6","Postcode":"6573BV","Plaats":"Beek"},"geometry":{"type":"Point","coordinates":[5.92484,51.83065]}},{"type":"Feature","properties":{"Naam":"Kulturhus","Organisatie":"Stichting Kalorama","Soort zorg":"Verpleeghuizen","Huisnummer":"6e","Postcode":"6573BH","Plaats":"Beek"},"geometry":{"type":"Point","coordinates":[5.92896,51.83126]}},{"type":"Feature","properties":{"Naam":"Kooise Zorg Boerderij Camping","Organisatie":"Maatschap de Jong","Soort zorg":"onbekend","Huisnummer":"24a","Postcode":"4151JA","Plaats":"Acquoy","IsMainBranch":true},"geometry":{"type":"Point","coordinates":[5.13613,51.90208]}},{"type":"Feature","properties":{"Naam":"Zorgcentrum 't Slot","Organisatie":"Stichting Zorgcentrum 't Slot","Soort zorg":"Verpleeghuizen, Verzorgingshuizen","Huisnummer":"1","Postcode":"5311CM","Plaats":"Gameren","IsMainBranch":true},"geometry":{"type":"Point","coordinates":[5.20164,51.80207]}},{"type":"Feature","properties":{"Naam":"Zorgcentra De Betuwe/Oranjehof","Organisatie":"Zorgcentra De Betuwe","Soort zorg":"Verpleeghuizen","Huisnummer":"1","Postcode":"4116DJ","Plaats":"Buren"},"geometry":{"type":"Point","coordinates":[5.32848,51.91588]}},{"type":"Feature","properties":{"Naam":"Zorgcentra De Betuwe/ Zorgcentrum Kulenburg","Organisatie":"Zorgcentra De Betuwe","Soort zorg":"Verpleeghuizen","Huisnummer":"2","Postcode":"4102DH","Plaats":"Culemborg"},"geometry":{"type":"Point","coordinates":[5.23048,51.95209]}},{"type":"Feature","properties":{"Naam":"Zorgcentra De Betuwe/De Valentijn","Organisatie":"Zorgcentra De Betuwe","Soort zorg":"Verzorgingshuizen","Huisnummer":"84","Postcode":"4021HN","Plaats":"Maurik","IsMainBranch":true},"geometry":{"type":"Point","coordinates":[5.42935,51.96276]}},{"type":"Feature","properties":{"Naam":"Zorgcentra De Betuwe/Zorgcentrum Beatrix","Organisatie":"Zorgcentra De Betuwe","Soort zorg":"Verpleeghuizen","Huisnummer":"20","Postcode":"4101HK","Plaats":"Culemborg"},"geometry":{"type":"Point","coordinates":[5.23452,51.95751]}},{"type":"Feature","properties":{"Naam":"Zorgcentra De Betuwe/Huize Appelenburg","Organisatie":"Zorgcentra De Betuwe","Soort zorg":"Verpleeghuizen","Huisnummer":"18","Postcode":"6669AG","Plaats":"Dodewaard"},"geometry":{"type":"Point","coordinates":[5.65805,51.91035]}},{"type":"Feature","properties":{"Naam":"Zorgcentra De Betuwe/Zorgcentrum Elim","Organisatie":"Zorgcentra De Betuwe","Soort zorg":"Verpleeghuizen","Huisnummer":"2","Postcode":"4051AK","Plaats":"Ochten"},"geometry":{"type":"Point","coordinates":[5.56369,51.90603]}},{"type":"Feature","properties":{"Naam":"Zorgcentra De Betuwe/De Troelstrahof","Organisatie":"Zorgcentra De Betuwe","Soort zorg":"Verpleeghuizen","Huisnummer":"5","Postcode":"4102EP","Plaats":"Culemborg"},"geometry":{"type":"Point","coordinates":[5.24283,51.95177]}},{"type":"Feature","properties":{"Naam":"Zorgcentra De Betuwe/De Betuwehoeve","Organisatie":"Zorgcentra De Betuwe","Soort zorg":"Verpleeghuizen","Huisnummer":"1","Postcode":"4103VL","Plaats":"Culemborg"},"geometry":{"type":"Point","coordinates":[5.23003,51.94627]}},{"type":"Feature","properties":{"Naam":"Forellen Kwekerij Zederik","Organisatie":"Forellen Kwekerij Zederik","Soort zorg":"onbekend","Huisnummer":"28","Postcode":"4231VE","Plaats":"Meerkerk","IsMainBranch":true},"geometry":{"type":"Point","coordinates":[4.98864,51.93002]}},{"type":"Feature","properties":{"Naam":"Rivas locatie Het Gasthuis","Organisatie":"Stichting Rivas Zorggroep","Soort zorg":"Verpleeghuizen","Huisnummer":"61","Postcode":"4204AA","Plaats":"Gorinchem"},"geometry":{"type":"Point","coordinates":[4.95614,51.83948]}},{"type":"Feature","properties":{"Naam":"Rivas locatie A. Heijnisstraat","Organisatie":"Stichting Rivas Zorggroep","Soort zorg":"onbekend","Huisnummer":"4","Postcode":"2957AA","Plaats":"Nieuw-Lekkerland"},"geometry":{"type":"Point","coordinates":[4.68703,51.88983]}},{"type":"Feature","properties":{"Naam":"Rivas locatie Waellant Oievaar","Organisatie":"Stichting Rivas Zorggroep","Soort zorg":"Verpleeghuizen","Huisnummer":"16","Postcode":"2957NH","Plaats":"Nieuw-Lekkerland"},"geometry":{"type":"Point","coordinates":[4.67817,51.88591]}},{"type":"Feature","properties":{"Naam":"Rivas locatie Waellant Oievaar","Organisatie":"Stichting Rivas Zorggroep","Soort zorg":"Verpleeghuizen","Huisnummer":"154","Postcode":"2957NH","Plaats":"Nieuw-Lekkerland"},"geometry":{"type":"Point","coordinates":[4.6772,51.88551]}},{"type":"Feature","properties":{"Naam":"Rivas locatie Het Kruispunt","Organisatie":"Stichting Rivas Zorggroep","Soort zorg":"onbekend","Huisnummer":"16","Postcode":"3353VJ","Plaats":"Papendrecht"},"geometry":{"type":"Point","coordinates":[4.69296,51.82908]}},{"type":"Feature","properties":{"Naam":"Rivas locatie Pr. Marijkeweg","Organisatie":"Stichting Rivas Zorggroep","Soort zorg":"onbekend","Huisnummer":"1d","Postcode":"4233HJ","Plaats":"Ameide"},"geometry":{"type":"Point","coordinates":[4.96397,51.95426]}},{"type":"Feature","properties":{"Naam":"Rivas locatie Leyenburghplein 53","Organisatie":"Stichting Rivas Zorggroep","Soort zorg":"onbekend","Huisnummer":"53","Postcode":"4161AS","Plaats":"Heukelum"},"geometry":{"type":"Point","coordinates":[5.07345,51.87091]}},{"type":"Feature","properties":{"Naam":"Rivas locatie Waellant Ooievaar","Organisatie":"Stichting Rivas Zorggroep","Soort zorg":"Verpleeghuizen","Huisnummer":"12","Postcode":"2957NH","Plaats":"Nieuw-Lekkerland"},"geometry":{"type":"Point","coordinates":[4.67808,51.88596]}},{"type":"Feature","properties":{"Naam":"Rivas locatie Strevenaer","Organisatie":"Stichting Rivas Zorggroep","Soort zorg":"onbekend","Huisnummer":"53","Postcode":"2959BJ","Plaats":"Streefkerk"},"geometry":{"type":"Point","coordinates":[4.74085,51.90098]}},{"type":"Feature","properties":{"Naam":"Rivas locatie Vijverhof Vlietzicht","Organisatie":"Stichting Rivas Zorggroep","Soort zorg":"Verpleeghuizen","Huisnummer":"9","Postcode":"2965CG","Plaats":"Nieuwpoort"},"geometry":{"type":"Point","coordinates":[4.87207,51.93002]}},{"type":"Feature","properties":{"Naam":"Rivas locatie Lingepolikliniek","Organisatie":"Stichting Rivas Zorggroep","Soort zorg":"onbekend","Huisnummer":"3","Postcode":"4141GH","Plaats":"Leerdam"},"geometry":{"type":"Point","coordinates":[5.10682,51.89127]}},{"type":"Feature","properties":{"Naam":"Rivas locatie Kop van de IJsbaan","Organisatie":"Stichting Rivas Zorggroep","Soort zorg":"Verzorgingshuizen","Huisnummer":"61a","Postcode":"4206AG","Plaats":"Gorinchem"},"geometry":{"type":"Point","coordinates":[4.98375,51.84152]}},{"type":"Feature","properties":{"Naam":"Rivas locatie Molenhoek","Organisatie":"Stichting Rivas Zorggroep","Soort zorg":"Verpleeghuizen","Huisnummer":"113","Postcode":"4201KS","Plaats":"Gorinchem"},"geometry":{"type":"Point","coordinates":[4.97646,51.83212]}},{"type":"Feature","properties":{"Naam":"Stg. Rivas Zorggroep","Organisatie":"Stichting Rivas Zorggroep","Soort zorg":"onbekend","Huisnummer":"57","Postcode":"4204AA","Plaats":"Gorinchem","IsMainBranch":true},"geometry":{"type":"Point","coordinates":[4.95768,51.83863]}},{"type":"Feature","properties":{"Naam":"Rivas locatie De Merlinge de Vriesplein 9","Organisatie":"Stichting Rivas Zorggroep","Soort zorg":"onbekend","Huisnummer":"9","Postcode":"4241BW","Plaats":"Arkel"},"geometry":{"type":"Point","coordinates":[4.99321,51.86443]}},{"type":"Feature","properties":{"Naam":"Rivas locatie Rembrandthof 4","Organisatie":"Stichting Rivas Zorggroep","Soort zorg":"Verpleeghuizen","Huisnummer":"4","Postcode":"3372XS","Plaats":"Hardinxveld-Giessendam"},"geometry":{"type":"Point","coordinates":[4.88425,51.82404]}},{"type":"Feature","properties":{"Naam":"Rivas locatie Laakse hof","Organisatie":"Stichting Rivas Zorggroep","Soort zorg":"Verpleeghuizen","Huisnummer":"31","Postcode":"4128CA","Plaats":"Lexmond"},"geometry":{"type":"Point","coordinates":[5.03602,51.96194]}},{"type":"Feature","properties":{"Naam":"Rivas locatie Vijverhof Vlietzicht","Organisatie":"Stichting Rivas Zorggroep","Soort zorg":"Verpleeghuizen","Huisnummer":"3","Postcode":"2965CG","Plaats":"Nieuwpoort"},"geometry":{"type":"Point","coordinates":[4.87271,51.92988]}},{"type":"Feature","properties":{"Naam":"Rivas locatie Zorgmolen","Organisatie":"Stichting Rivas Zorggroep","Soort zorg":"onbekend","Huisnummer":"2","Postcode":"3352TH","Plaats":"Papendrecht"},"geometry":{"type":"Point","coordinates":[4.69013,51.83686]}},{"type":"Feature","properties":{"Naam":"Wijkverpleging Dordrecht","Organisatie":"Stichting Rivas Zorggroep","Soort zorg":"onbekend","Huisnummer":"3","Postcode":"3319PJ"},"geometry":{"type":"Point","coordinates":[4.69855,51.79351]}},{"type":"Feature","properties":{"Naam":"Rivas locatie GC Arkel","Organisatie":"Stichting Rivas Zorggroep","Soort zorg":"onbekend","Huisnummer":"7","Postcode":"4241AA","Plaats":"Arkel"},"geometry":{"type":"Point","coordinates":[4.99703,51.86435]}},{"type":"Feature","properties":{"Naam":"Gezondheidscentrum Hardinxveld","Organisatie":"Stichting Rivas Zorggroep","Soort zorg":"onbekend","Huisnummer":"138","Postcode":"3371AR","Plaats":"Hardinxveld-Giessendam"},"geometry":{"type":"Point","coordinates":[4.83485,51.82495]}},{"type":"Feature","properties":{"Naam":"Rivas locatie Dr. Ingelseplein","Organisatie":"Stichting Rivas Zorggroep","Soort zorg":"onbekend","Huisnummer":"9","Postcode":"2971AE","Plaats":"Bleskensgraaf ca"},"geometry":{"type":"Point","coordinates":[4.78176,51.87244]}},{"type":"Feature","properties":{"Naam":"Rivas locatie Zorghotel A. Schweitzerplaats","Organisatie":"Stichting Rivas Zorggroep","Soort zorg":"Verpleeghuizen","Huisnummer":"20","Postcode":"3318AT","Plaats":"Dordrecht"},"geometry":{"type":"Point","coordinates":[4.68287,51.79249]}},{"type":"Feature","properties":{"Naam":"Rivas locatie St. Clara","Organisatie":"Stichting Rivas Zorggroep","Soort zorg":"Verzorgingshuizen","Huisnummer":"6","Postcode":"4204HK","Plaats":"Gorinchem"},"geometry":{"type":"Point","coordinates":[4.9571,51.83767]}},{"type":"Feature","properties":{"Naam":"Rivas locatie Lingesteyn","Organisatie":"Stichting Rivas Zorggroep","Soort zorg":"Verpleeghuizen, Verzorgingshuizen","Huisnummer":"20","Postcode":"4141GH","Plaats":"Leerdam"},"geometry":{"type":"Point","coordinates":[5.10711,51.8909]}},{"type":"Feature","properties":{"Naam":"Rivas locatie Vijverhof Vlietzicht","Organisatie":"Stichting Rivas Zorggroep","Soort zorg":"Verpleeghuizen","Huisnummer":"6","Postcode":"2965CG","Plaats":"Nieuwpoort"},"geometry":{"type":"Point","coordinates":[4.87226,51.92995]}},{"type":"Feature","properties":{"Naam":"Rivas locatie Het Anker","Organisatie":"Stichting Rivas Zorggroep","Soort zorg":"onbekend","Huisnummer":"102","Postcode":"2951EM","Plaats":"Alblasserdam"},"geometry":{"type":"Point","coordinates":[4.6587,51.86467]}},{"type":"Feature","properties":{"Naam":"Rivas locatie De Merlingen Dr. Vriesplein 6","Organisatie":"Stichting Rivas Zorggroep","Soort zorg":"Verpleeghuizen","Huisnummer":"6","Postcode":"4241BW","Plaats":"Arkel"},"geometry":{"type":"Point","coordinates":[4.99379,51.86436]}},{"type":"Feature","properties":{"Naam":"Rivas locatie Jacobsweer","Organisatie":"Stichting Rivas Zorggroep","Soort zorg":"onbekend","Huisnummer":"16","Postcode":"3371PJ","Plaats":"Hardinxveld-Giessendam"},"geometry":{"type":"Point","coordinates":[4.83708,51.8261]}},{"type":"Feature","properties":{"Naam":"Rivas locatie GC Poort van West","Organisatie":"Stichting Rivas Zorggroep","Soort zorg":"onbekend","Huisnummer":"5l","Postcode":"4142AZ","Plaats":"Leerdam"},"geometry":{"type":"Point","coordinates":[5.08557,51.89152]}},{"type":"Feature","properties":{"Naam":"Rivas locatie Waellant Oievaar","Organisatie":"Stichting Rivas Zorggroep","Soort zorg":"Verpleeghuizen","Huisnummer":"156","Postcode":"2957NH","Plaats":"Nieuw-Lekkerland"},"geometry":{"type":"Point","coordinates":[4.67746,51.88563]}},{"type":"Feature","properties":{"Naam":"Rivas locatie GC Giessenburg","Organisatie":"Stichting Rivas Zorggroep","Soort zorg":"onbekend","Huisnummer":"1","Postcode":"3381LT","Plaats":"Giessenburg"},"geometry":{"type":"Point","coordinates":[4.88759,51.85355]}},{"type":"Feature","properties":{"Naam":"Rivas locatie Waellant Oievaar 12b","Organisatie":"Stichting Rivas Zorggroep","Soort zorg":"Verpleeghuizen","Huisnummer":"12b","Postcode":"2957NH","Plaats":"Nieuw-Lekkerland"},"geometry":{"type":"Point","coordinates":[4.67814,51.88592]}},{"type":"Feature","properties":{"Naam":"Stichting Zorgcentra Rivierenland","Organisatie":"Stichting Zorgcentra Rivierenland","Soort zorg":"Verpleeghuizen, Verzorgingshuizen","Huisnummer":"49","Postcode":"4003CA","Plaats":"Tiel","IsMainBranch":true},"geometry":{"type":"Point","coordinates":[5.41194,51.891]}},{"type":"Feature","properties":{"Naam":"Schakelafdeling","Organisatie":"Stichting Zorgcentra Rivierenland","Soort zorg":"Verpleeghuizen, Verzorgingshuizen","Huisnummer":"1","Postcode":"4002WP","Plaats":"Tiel"},"geometry":{"type":"Point","coordinates":[5.41557,51.88936]}},{"type":"Feature","properties":{"Naam":"Zorgcentrum Walstede","Organisatie":"Stichting Zorgcentra Rivierenland","Soort zorg":"Verpleeghuizen, Verzorgingshuizen","Huisnummer":"48","Postcode":"4001HE","Plaats":"Tiel"},"geometry":{"type":"Point","coordinates":[5.4328,51.88949]}},{"type":"Feature","properties":{"Naam":"Westerhof","Organisatie":"Stichting Zorgcentra Rivierenland","Soort zorg":"Verpleeghuizen","Huisnummer":"14","Postcode":"4001RZ","Plaats":"Tiel"},"geometry":{"type":"Point","coordinates":[5.42729,51.88145]}},{"type":"Feature","properties":{"Naam":"Zorgcentrum Ravestein","Organisatie":"Stichting Zorgcentra Rivierenland","Soort zorg":"Verpleeghuizen, Verzorgingshuizen","Huisnummer":"11","Postcode":"4191TS","Plaats":"Geldermalsen"},"geometry":{"type":"Point","coordinates":[5.28576,51.87853]}},{"type":"Feature","properties":{"Naam":"Psychologiepraktijk J. van Eldik","Organisatie":"Psychologiepraktijk J. van Eldik","Soort zorg":"onbekend","Huisnummer":"5","Postcode":"4006EA","Plaats":"Tiel","IsMainBranch":true},"geometry":{"type":"Point","coordinates":[5.41929,51.88343]}},{"type":"Feature","properties":{"Naam":"Verpleeghuis st. Elisabeth","Organisatie":"Stichting zorggroep Maas & Waal","Soort zorg":"Verpleeghuizen","Huisnummer":"10","Postcode":"6658WX","Plaats":"Beneden-Leeuwen","IsMainBranch":true},"geometry":{"type":"Point","coordinates":[5.51871,51.88143]}},{"type":"Feature","properties":{"Naam":"Verpleeghuis Waelwick","Organisatie":"Stichting zorggroep Maas & Waal","Soort zorg":"Verzorgingshuizen","Huisnummer":"1","Postcode":"6644CP","Plaats":"Ewijk"},"geometry":{"type":"Point","coordinates":[5.74327,51.87112]}},{"type":"Feature","properties":{"Naam":"Zorgcentrum Alde Steeg","Organisatie":"Stichting zorggroep Maas & Waal","Soort zorg":"Verzorgingshuizen","Huisnummer":"1","Postcode":"6641BG","Plaats":"Beuningen Gld"},"geometry":{"type":"Point","coordinates":[5.7713,51.86332]}},{"type":"Feature","properties":{"Naam":"ZC De Kasteelhof","Organisatie":"Stichting zorggroep Maas & Waal","Soort zorg":"Verzorgingshuizen","Huisnummer":"50","Postcode":"6651VB","Plaats":"Druten"},"geometry":{"type":"Point","coordinates":[5.60692,51.89129]}},{"type":"Feature","properties":{"Naam":"Zorgcentrum De Hey-Acker","Organisatie":"Stichting zorggroep Maas & Waal","Soort zorg":"Verzorgingshuizen","Huisnummer":"37","Postcode":"6658WT","Plaats":"Beneden-Leeuwen"},"geometry":{"type":"Point","coordinates":[5.51461,51.87867]}},{"type":"Feature","properties":{"Naam":"ZC Huize Henricus","Organisatie":"Stichting zorggroep Maas & Waal","Soort zorg":"Verzorgingshuizen","Huisnummer":"50","Postcode":"6659CR","Plaats":"Wamel"},"geometry":{"type":"Point","coordinates":[5.4701,51.88053]}},{"type":"Feature","properties":{"Naam":"verpleegunit De Hulsen","Organisatie":"Stichting zorggroep Maas & Waal","Soort zorg":"Verzorgingshuizen","Huisnummer":"15","Postcode":"6534AD","Plaats":"Nijmegen"},"geometry":{"type":"Point","coordinates":[5.82111,51.8211]}},{"type":"Feature","properties":{"Naam":"De Wilgenhoeve Onroerende Zaken B.V.","Organisatie":"De Wilgenhoeve Onroerende Zaken B.V.","Soort zorg":"onbekend","Huisnummer":"68","Postcode":"4126RK","Plaats":"Hei- en Boeicop","IsMainBranch":true},"geometry":{"type":"Point","coordinates":[5.07728,51.94578]}},{"type":"Feature","properties":{"Naam":"Autisme Zorg Kameleon","Organisatie":"Autisme Zorg Kameleon","Soort zorg":"onbekend","Huisnummer":"32","Postcode":"5953BT","Plaats":"Reuver","IsMainBranch":true},"geometry":{"type":"Point","coordinates":[6.07116,51.28493]}},{"type":"Feature","properties":{"Naam":"Hospice Mariaweide","Organisatie":"Stichting Hospice Venlo","Soort zorg":"Verzorgingshuizen","Huisnummer":"41","Postcode":"5911JS","Plaats":"Venlo","IsMainBranch":true},"geometry":{"type":"Point","coordinates":[6.16908,51.36774]}},{"type":"Feature","properties":{"Naam":"Janslust","Organisatie":"Janssen V.O.F.","Soort zorg":"onbekend","Huisnummer":"10","Postcode":"5814AE","Plaats":"Veulen","IsMainBranch":true},"geometry":{"type":"Point","coordinates":[5.96622,51.47017]}},{"type":"Feature","properties":{"Naam":"Vitaal Thuisdialyse B.V.","Organisatie":"Vitaal Thuisdialyse B.V.","Soort zorg":"onbekend","Huisnummer":"210","Postcode":"5912BL","Plaats":"Venlo","IsMainBranch":true},"geometry":{"type":"Point","coordinates":[6.15402,51.35674]}},{"type":"Feature","properties":{"Naam":"Dagverzorging Camillushof","Organisatie":"De Zorggroep","Soort zorg":"onbekend","Huisnummer":"172a1","Postcode":"6045CK","Plaats":"Roermond"},"geometry":{"type":"Point","coordinates":[6.00035,51.17369]}},{"type":"Feature","properties":{"Naam":"Beukenhof","Organisatie":"De Zorggroep","Soort zorg":"Verpleeghuizen","Huisnummer":"130","Postcode":"5801CE","Plaats":"Venray"},"geometry":{"type":"Point","coordinates":[5.95947,51.52721]}},{"type":"Feature","properties":{"Naam":"Kasteelhof","Organisatie":"De Zorggroep","Soort zorg":"onbekend","Huisnummer":"1","Postcode":"6075EZ","Plaats":"Herkenbosch"},"geometry":{"type":"Point","coordinates":[6.07356,51.15121]}},{"type":"Feature","properties":{"Naam":"Broekstraat","Organisatie":"De Zorggroep","Soort zorg":"Verpleeghuizen, Verzorgingshuizen","Huisnummer":"65","Postcode":"5993BB","Plaats":"Maasbree"},"geometry":{"type":"Point","coordinates":[6.05161,51.35617]}},{"type":"Feature","properties":{"Naam":"Vogelsbleek","Organisatie":"De Zorggroep","Soort zorg":"onbekend","Huisnummer":"10","Postcode":"6001BE","Plaats":"Weert"},"geometry":{"type":"Point","coordinates":[5.71109,51.25393]}},{"type":"Feature","properties":{"Naam":"Groepswoningen Blauwververstraat","Organisatie":"De Zorggroep","Soort zorg":"Verpleeghuizen","Huisnummer":"15","Postcode":"5801RP","Plaats":"Venray"},"geometry":{"type":"Point","coordinates":[5.96735,51.51822]}},{"type":"Feature","properties":{"Naam":"Vlodrop Aan de Tram","Organisatie":"De Zorggroep","Soort zorg":"onbekend","Huisnummer":"4","Postcode":"6063AV","Plaats":"Vlodrop"},"geometry":{"type":"Point","coordinates":[6.07231,51.13052]}},{"type":"Feature","properties":{"Naam":"Bösdael blok 1 Forum","Organisatie":"De Zorggroep","Soort zorg":"Verpleeghuizen, Verzorgingshuizen","Huisnummer":"47","Postcode":"5953BW","Plaats":"Reuver"},"geometry":{"type":"Point","coordinates":[6.0736,51.28705]}},{"type":"Feature","properties":{"Naam":"Stichting Zorggroep Noord- en Midden-Limburg","Organisatie":"De Zorggroep","Soort zorg":"Verpleeghuizen, Verzorgingshuizen","Huisnummer":"31","Postcode":"5915PN","Plaats":"Venlo","IsMainBranch":true},"geometry":{"type":"Point","coordinates":[6.18603,51.3416]}},{"type":"Feature","properties":{"Naam":"WoonZorgcentrum Bosscherhof","Organisatie":"De Zorggroep","Soort zorg":"Verpleeghuizen, Verzorgingshuizen","Huisnummer":"1","Postcode":"6075HE","Plaats":"Herkenbosch"},"geometry":{"type":"Point","coordinates":[6.0615,51.15439]}},{"type":"Feature","properties":{"Naam":"Eldershof","Organisatie":"De Zorggroep","Soort zorg":"Verpleeghuizen","Huisnummer":"10","Postcode":"5855AB","Plaats":"Well L"},"geometry":{"type":"Point","coordinates":[6.09633,51.55002]}},{"type":"Feature","properties":{"Naam":"De Beerendonck","Organisatie":"De Zorggroep","Soort zorg":"Verpleeghuizen, Verzorgingshuizen","Huisnummer":"8","Postcode":"5911AD","Plaats":"Venlo"},"geometry":{"type":"Point","coordinates":[6.17746,51.37072]}},{"type":"Feature","properties":{"Naam":"St. Julia","Organisatie":"De Zorggroep","Soort zorg":"Verpleeghuizen, Verzorgingshuizen","Huisnummer":"6","Postcode":"5931GT","Plaats":"Tegelen"},"geometry":{"type":"Point","coordinates":[6.14243,51.34628]}},{"type":"Feature","properties":{"Naam":"Tollensstraat","Organisatie":"De Zorggroep","Soort zorg":"Verpleeghuizen","Huisnummer":"45","Postcode":"5921CB","Plaats":"Venlo"},"geometry":{"type":"Point","coordinates":[6.13833,51.36521]}},{"type":"Feature","properties":{"Naam":"Meeuwbeemd","Organisatie":"De Zorggroep","Soort zorg":"Verpleeghuizen, Verzorgingshuizen","Huisnummer":"4","Postcode":"5914PW","Plaats":"Venlo"},"geometry":{"type":"Point","coordinates":[6.17271,51.37913]}},{"type":"Feature","properties":{"Naam":"De Mulder","Organisatie":"De Zorggroep","Soort zorg":"Verpleeghuizen, Verzorgingshuizen","Huisnummer":"68","Postcode":"5801SJ","Plaats":"Venray"},"geometry":{"type":"Point","coordinates":[5.96525,51.51863]}},{"type":"Feature","properties":{"Naam":"Zorgcentrum Bergh","Organisatie":"De Zorggroep","Soort zorg":"Verpleeghuizen, Verzorgingshuizen","Huisnummer":"31","Postcode":"6077BK","Plaats":"Sint Odiliënberg"},"geometry":{"type":"Point","coordinates":[6.00253,51.14096]}},{"type":"Feature","properties":{"Naam":"Hof te Berkel","Organisatie":"De Zorggroep","Soort zorg":"Verpleeghuizen, Verzorgingshuizen","Huisnummer":"19","Postcode":"5961KX","Plaats":"Horst"},"geometry":{"type":"Point","coordinates":[6.05476,51.44832]}},{"type":"Feature","properties":{"Naam":"Westhoven","Organisatie":"De Zorggroep","Soort zorg":"onbekend","Huisnummer":"5","Postcode":"6042NV","Plaats":"Roermond"},"geometry":{"type":"Point","coordinates":[6.01994,51.19211]}},{"type":"Feature","properties":{"Naam":"Dagverzorging Grootoord","Organisatie":"De Zorggroep","Soort zorg":"onbekend","Huisnummer":"34","Postcode":"5971JA","Plaats":"Grubbenvorst"},"geometry":{"type":"Point","coordinates":[6.14685,51.42052]}},{"type":"Feature","properties":{"Naam":"Maasduinen Staete","Organisatie":"De Zorggroep","Soort zorg":"Verpleeghuizen, Verzorgingshuizen","Huisnummer":"1","Postcode":"5854DA","Plaats":"Bergen L"},"geometry":{"type":"Point","coordinates":[6.04696,51.60543]}},{"type":"Feature","properties":{"Naam":"Vincentiushof","Organisatie":"De Zorggroep","Soort zorg":"Verpleeghuizen","Huisnummer":"1","Postcode":"5801DT","Plaats":"Venray"},"geometry":{"type":"Point","coordinates":[5.97416,51.53031]}},{"type":"Feature","properties":{"Naam":"Zorghotel Roermond","Organisatie":"De Zorggroep","Soort zorg":"Verpleeghuizen, Verzorgingshuizen","Huisnummer":"6","Postcode":"6043CV","Plaats":"Roermond"},"geometry":{"type":"Point","coordinates":[5.99884,51.19182]}},{"type":"Feature","properties":{"Naam":"Crescendo","Organisatie":"De Zorggroep","Soort zorg":"Verpleeghuizen, Verzorgingshuizen","Huisnummer":"1","Postcode":"5912AV","Plaats":"Venlo"},"geometry":{"type":"Point","coordinates":[6.16229,51.36522]}},{"type":"Feature","properties":{"Naam":"De Nieuwe Munt","Organisatie":"De Zorggroep","Soort zorg":"Verpleeghuizen, Verzorgingshuizen","Huisnummer":"124","Postcode":"5931MB","Plaats":"Tegelen"},"geometry":{"type":"Point","coordinates":[6.14358,51.34634]}},{"type":"Feature","properties":{"Naam":"Ruijsstraat Helden","Organisatie":"De Zorggroep","Soort zorg":"Verpleeghuizen","Huisnummer":"78","Postcode":"5988AB","Plaats":"Helden"},"geometry":{"type":"Point","coordinates":[5.99016,51.32492]}},{"type":"Feature","properties":{"Naam":"De Groenling","Organisatie":"De Zorggroep","Soort zorg":"Verpleeghuizen, Verzorgingshuizen","Huisnummer":"116","Postcode":"5981WV","Plaats":"Panningen"},"geometry":{"type":"Point","coordinates":[5.9719,51.3286]}},{"type":"Feature","properties":{"Naam":"Groepswoningen Maasbracht","Organisatie":"De Zorggroep","Soort zorg":"Verpleeghuizen","Huisnummer":"27","Postcode":"6051HL","Plaats":"Maasbracht"},"geometry":{"type":"Point","coordinates":[5.89588,51.14391]}},{"type":"Feature","properties":{"Naam":"D'n Horstgraaf","Organisatie":"De Zorggroep","Soort zorg":"Verpleeghuizen","Huisnummer":"33","Postcode":"5915PN","Plaats":"Venlo"},"geometry":{"type":"Point","coordinates":[6.18358,51.34102]}},{"type":"Feature","properties":{"Naam":"Woonzorgcentrum Herte","Organisatie":"De Zorggroep","Soort zorg":"Verpleeghuizen, Verzorgingshuizen","Huisnummer":"81","Postcode":"6049LB","Plaats":"Herten"},"geometry":{"type":"Point","coordinates":[5.96484,51.17733]}},{"type":"Feature","properties":{"Naam":"Sint Jan Baptist","Organisatie":"De Zorggroep","Soort zorg":"Verpleeghuizen, Verzorgingshuizen","Huisnummer":"1","Postcode":"6071JJ","Plaats":"Swalmen"},"geometry":{"type":"Point","coordinates":[6.03774,51.23263]}},{"type":"Feature","properties":{"Naam":"Verpleeghuis Camillus","Organisatie":"De Zorggroep","Soort zorg":"Verpleeghuizen","Huisnummer":"176","Postcode":"6045CK","Plaats":"Roermond"},"geometry":{"type":"Point","coordinates":[5.99902,51.17358]}},{"type":"Feature","properties":{"Naam":"De Tol","Organisatie":"De Zorggroep","Soort zorg":"onbekend","Huisnummer":"50","Postcode":"5801CV","Plaats":"Venray"},"geometry":{"type":"Point","coordinates":[5.97241,51.52993]}},{"type":"Feature","properties":{"Naam":"Groepswoningen Schoutstraat","Organisatie":"De Zorggroep","Soort zorg":"Verpleeghuizen","Huisnummer":"6","Postcode":"5975BN","Plaats":"Sevenum"},"geometry":{"type":"Point","coordinates":[6.03615,51.40931]}},{"type":"Feature","properties":{"Naam":"Amaliahof","Organisatie":"De Zorggroep","Soort zorg":"Verpleeghuizen, Verzorgingshuizen","Huisnummer":"1","Postcode":"6071DW","Plaats":"Swalmen"},"geometry":{"type":"Point","coordinates":[6.03686,51.22843]}},{"type":"Feature","properties":{"Naam":"Sinselhof","Organisatie":"De Zorggroep","Soort zorg":"Verpleeghuizen, Verzorgingshuizen","Huisnummer":"4","Postcode":"5912XN","Plaats":"Venlo"},"geometry":{"type":"Point","coordinates":[6.1642,51.35963]}},{"type":"Feature","properties":{"Naam":"Ruijsstraat","Organisatie":"De Zorggroep","Soort zorg":"Verpleeghuizen","Huisnummer":"6","Postcode":"5921VK","Plaats":"Venlo"},"geometry":{"type":"Point","coordinates":[6.1475,51.36832]}},{"type":"Feature","properties":{"Naam":"Huys Waerenberg","Organisatie":"Woon-Zorg ANJO","Soort zorg":"Verzorgingshuizen","Huisnummer":"40","Postcode":"6085NH","Plaats":"Horn","IsMainBranch":true},"geometry":{"type":"Point","coordinates":[5.91971,51.2251]}},{"type":"Feature","properties":{"Naam":"Daelzicht, Zonnebloemhof 20","Organisatie":"Daelzicht","Soort zorg":"onbekend","Huisnummer":"2","Postcode":"6097AK","Plaats":"Heel"},"geometry":{"type":"Point","coordinates":[5.89204,51.17765]}},{"type":"Feature","properties":{"Naam":"Princen Personenvervoer B.V.","Organisatie":"Princen Personenvervoer B.V.","Soort zorg":"onbekend","Huisnummer":"155","Postcode":"6005AD","Plaats":"Weert","IsMainBranch":true},"geometry":{"type":"Point","coordinates":[5.71878,51.23808]}},{"type":"Feature","properties":{"Naam":"Proteion RCG","Organisatie":"Stichting Proteion","Soort zorg":"Verpleeghuizen, Verzorgingshuizen","Huisnummer":"6","Postcode":"6041GC","Plaats":"Roermond"},"geometry":{"type":"Point","coordinates":[5.98904,51.19456]}},{"type":"Feature","properties":{"Naam":"Proteion Sterrebosch","Organisatie":"Stichting Proteion","Soort zorg":"Verpleeghuizen, Verzorgingshuizen","Huisnummer":"4","Postcode":"6017AL","Plaats":"Thorn"},"geometry":{"type":"Point","coordinates":[5.84096,51.15924]}},{"type":"Feature","properties":{"Naam":"Proteion Libermannhof","Organisatie":"Stichting Proteion","Soort zorg":"Verzorgingshuizen","Huisnummer":"157","Postcode":"6591GT","Plaats":"Gennep"},"geometry":{"type":"Point","coordinates":[5.97184,51.69466]}},{"type":"Feature","properties":{"Naam":"Proteion Thuiszorg","Organisatie":"Stichting Proteion","Soort zorg":"onbekend","Huisnummer":"21","Postcode":"6085NH","Plaats":"Horn","IsMainBranch":true},"geometry":{"type":"Point","coordinates":[5.9203,51.22131]}},{"type":"Feature","properties":{"Naam":"Proteion Hornerheide","Organisatie":"Stichting Proteion","Soort zorg":"Verpleeghuizen","Huisnummer":"1","Postcode":"6085NM","Plaats":"Horn"},"geometry":{"type":"Point","coordinates":[5.91829,51.21934]}},{"type":"Feature","properties":{"Naam":"Proteion De Kreppel","Organisatie":"Stichting Proteion","Soort zorg":"Verpleeghuizen, Verzorgingshuizen","Huisnummer":"1","Postcode":"6093KE","Plaats":"Heythuysen"},"geometry":{"type":"Point","coordinates":[5.88059,51.25308]}},{"type":"Feature","properties":{"Naam":"Proteion De Merwijck","Organisatie":"Stichting Proteion","Soort zorg":"Verpleeghuizen","Huisnummer":"2","Postcode":"5995XP","Plaats":"Kessel"},"geometry":{"type":"Point","coordinates":[6.05422,51.29288]}},{"type":"Feature","properties":{"Naam":"Proteion St. Jozef","Organisatie":"Stichting Proteion","Soort zorg":"Verpleeghuizen, Verzorgingshuizen","Huisnummer":"7","Postcode":"6019AN","Plaats":"Wessem"},"geometry":{"type":"Point","coordinates":[5.87927,51.15989]}},{"type":"Feature","properties":{"Naam":"Proteion Roncalli","Organisatie":"Stichting Proteion","Soort zorg":"Verpleeghuizen, Verzorgingshuizen","Huisnummer":"79","Postcode":"6042BC","Plaats":"Roermond"},"geometry":{"type":"Point","coordinates":[6.00398,51.1932]}},{"type":"Feature","properties":{"Naam":"Proteion De Wachtpost","Organisatie":"Stichting Proteion","Soort zorg":"Verpleeghuizen","Huisnummer":"85","Postcode":"5914AE","Plaats":"Venlo"},"geometry":{"type":"Point","coordinates":[6.18155,51.37489]}},{"type":"Feature","properties":{"Naam":"Zorgboerderij De Port","Organisatie":"Stichting Proteion","Soort zorg":"Verpleeghuizen","Huisnummer":"17","Postcode":"6037NL","Plaats":"Kelpen-Oler"},"geometry":{"type":"Point","coordinates":[5.83815,51.21695]}},{"type":"Feature","properties":{"Naam":"Boerderij Ophovenerhof","Organisatie":"Stichting Ophovenerhof","Soort zorg":"onbekend","Huisnummer":"57","Postcode":"6133XM","Plaats":"Sittard","IsMainBranch":true},"geometry":{"type":"Point","coordinates":[5.86191,50.98777]}},{"type":"Feature","properties":{"Naam":"Mosae Zorggroep","Organisatie":"Stichting Sevagram Maastricht","Soort zorg":"Verzorgingshuizen","Huisnummer":"1","Postcode":"6216CE","Plaats":"Maastricht","IsMainBranch":true},"geometry":{"type":"Point","coordinates":[5.66739,50.85014]}},{"type":"Feature","properties":{"Naam":"Licht en Liefde","Organisatie":"Stichting Sevagram Maastricht","Soort zorg":"Verzorgingshuizen","Huisnummer":"20","Postcode":"6211JX","Plaats":"Maastricht"},"geometry":{"type":"Point","coordinates":[5.69087,50.84217]}},{"type":"Feature","properties":{"Naam":"Scharwyerveld","Organisatie":"Stichting Sevagram Maastricht","Soort zorg":"Verzorgingshuizen","Huisnummer":"93","Postcode":"6218EN","Plaats":"Maastricht"},"geometry":{"type":"Point","coordinates":[5.66328,50.86325]}},{"type":"Feature","properties":{"Naam":"Daalhof","Organisatie":"Stichting Sevagram Maastricht","Soort zorg":"Verzorgingshuizen","Huisnummer":"22","Postcode":"6215BM","Plaats":"Maastricht"},"geometry":{"type":"Point","coordinates":[5.64943,50.83936]}},{"type":"Feature","properties":{"Naam":"AmaCura B.V.","Organisatie":"AmaCura B.V.","Soort zorg":"onbekend","Huisnummer":"80","Postcode":"6166GR","Plaats":"Geleen","IsMainBranch":true},"geometry":{"type":"Point","coordinates":[5.84271,50.97808]}},{"type":"Feature","properties":{"Naam":"AmaCura B.V.","Organisatie":"AmaCura B.V.","Soort zorg":"Verzorgingshuizen","Huisnummer":"90","Postcode":"6166GR","Plaats":"Geleen"},"geometry":{"type":"Point","coordinates":[5.84221,50.97826]}},{"type":"Feature","properties":{"Naam":"AmaCura B.V.","Organisatie":"AmaCura B.V.","Soort zorg":"Verzorgingshuizen","Huisnummer":"246","Postcode":"5045NE","Plaats":"Tilburg"},"geometry":{"type":"Point","coordinates":[4.99346,51.57537]}},{"type":"Feature","properties":{"Naam":"Stichting Zorg voor Mensen","Organisatie":"Stichting Zorg voor Mensen","Soort zorg":"onbekend","Huisnummer":"19","Postcode":"6241CL","Plaats":"Bunde","IsMainBranch":true},"geometry":{"type":"Point","coordinates":[5.73608,50.89615]}},{"type":"Feature","properties":{"Naam":"Cicero Zorggroep Zorgcentrum Elvira","Organisatie":"Stichting Cicero Zorggroep","Soort zorg":"Verpleeghuizen","Huisnummer":"10","Postcode":"6436AX","Plaats":"Amstenrade","Routekaart":"Voorlopig","Ambitie":"Route tot 2030"},"geometry":{"type":"Point","coordinates":[5.91769,50.93961]}},{"type":"Feature","properties":{"Naam":"Cicero Zorggroep Zorgcentrum Ave Maria","Organisatie":"Stichting Cicero Zorggroep","Soort zorg":"Verzorgingshuizen","Huisnummer":"21","Postcode":"6243AG","Plaats":"Geulle","Routekaart":"Voorlopig","Ambitie":"Route tot 2030"},"geometry":{"type":"Point","coordinates":[5.75851,50.92849]}},{"type":"Feature","properties":{"Naam":"Wijksteunpunt De Linde","Organisatie":"Stichting Cicero Zorggroep","Soort zorg":"Verzorgingshuizen","Huisnummer":"23","Postcode":"6343BJ","Plaats":"Klimmen","Routekaart":"Voorlopig","Ambitie":"Route tot 2030"},"geometry":{"type":"Point","coordinates":[5.8831,50.87616]}},{"type":"Feature","properties":{"Naam":"Cicero Zorggroep Zorgcentrum Bronnenhof/Heemh","Organisatie":"Stichting Cicero Zorggroep","Soort zorg":"Verzorgingshuizen","Huisnummer":"14","Postcode":"6442BH","Plaats":"Brunssum","Routekaart":"Voorlopig","Ambitie":"Route tot 2030"},"geometry":{"type":"Point","coordinates":[5.98142,50.95338]}},{"type":"Feature","properties":{"Naam":"Cicero Zorggroep Zorgcentrum Huize Louise","Organisatie":"Stichting Cicero Zorggroep","Soort zorg":"Verzorgingshuizen","Huisnummer":"5","Postcode":"6443BA","Plaats":"Brunssum","Routekaart":"Voorlopig","Ambitie":"Route tot 2030"},"geometry":{"type":"Point","coordinates":[5.97625,50.94237]}},{"type":"Feature","properties":{"Naam":"Wijksteunpunt Pastorij","Organisatie":"Stichting Cicero Zorggroep","Soort zorg":"Verzorgingshuizen","Huisnummer":"39","Postcode":"6361AG","Plaats":"Nuth","Routekaart":"Voorlopig","Ambitie":"Route tot 2030"},"geometry":{"type":"Point","coordinates":[5.88996,50.9164]}},{"type":"Feature","properties":{"Naam":"Cicero Zorggroep Revalidatie de Eik","Organisatie":"Stichting Cicero Zorggroep","Soort zorg":"Verpleeghuizen","Huisnummer":"111","Postcode":"6432CC","Plaats":"Hoensbroek","Routekaart":"Voorlopig","Ambitie":"Route tot 2030"},"geometry":{"type":"Point","coordinates":[5.91038,50.92099]}},{"type":"Feature","properties":{"Naam":"Stichting Cicero Zorggroep","Organisatie":"Stichting Cicero Zorggroep","Soort zorg":"Verzorgingshuizen","Huisnummer":"3","Postcode":"6441CR","Plaats":"Brunssum","Routekaart":"Voorlopig","Ambitie":"Route tot 2030","IsMainBranch":true},"geometry":{"type":"Point","coordinates":[5.96984,50.94819]}},{"type":"Feature","properties":{"Naam":"Cicero Zorggroep Zorgcentrum Leontine","Organisatie":"Stichting Cicero Zorggroep","Soort zorg":"Verzorgingshuizen","Huisnummer":"10a","Postcode":"6436AX","Plaats":"Amstenrade","Routekaart":"Voorlopig","Ambitie":"Route tot 2030"},"geometry":{"type":"Point","coordinates":[5.91688,50.93949]}},{"type":"Feature","properties":{"Naam":"Wijksteunpunt Distelenveld","Organisatie":"Stichting Cicero Zorggroep","Soort zorg":"Verzorgingshuizen","Huisnummer":"519","Postcode":"6441XR","Plaats":"Brunssum","Routekaart":"Voorlopig","Ambitie":"Route tot 2030"},"geometry":{"type":"Point","coordinates":[5.95596,50.94796]}},{"type":"Feature","properties":{"Naam":"Cicero Zorggroep Zorgcentrum Aan de Bleek","Organisatie":"Stichting Cicero Zorggroep","Soort zorg":"Verzorgingshuizen","Huisnummer":"1","Postcode":"6451CB","Plaats":"Schinveld","Routekaart":"Voorlopig","Ambitie":"Route tot 2030"},"geometry":{"type":"Point","coordinates":[5.98057,50.96834]}},{"type":"Feature","properties":{"Naam":"Cicero Residentie","Organisatie":"Stichting Cicero Zorggroep","Soort zorg":"Verzorgingshuizen","Huisnummer":"110","Postcode":"6225AR","Plaats":"Maastricht","Routekaart":"Voorlopig","Ambitie":"Route tot 2030"},"geometry":{"type":"Point","coordinates":[5.72747,50.86207]}},{"type":"Feature","properties":{"Naam":"Cicero Zorggroep Zorgcentrum Schuttershof","Organisatie":"Stichting Cicero Zorggroep","Soort zorg":"Verzorgingshuizen","Huisnummer":"10","Postcode":"6442BE","Plaats":"Brunssum","Routekaart":"Voorlopig","Ambitie":"Route tot 2030"},"geometry":{"type":"Point","coordinates":[5.98016,50.95276]}},{"type":"Feature","properties":{"Naam":"Cicero Zorggroep Zorgcentrum Op den Toren","Organisatie":"Stichting Cicero Zorggroep","Soort zorg":"Verzorgingshuizen","Huisnummer":"67","Postcode":"6361EB","Plaats":"Nuth","Routekaart":"Voorlopig","Ambitie":"Route tot 2030"},"geometry":{"type":"Point","coordinates":[5.87578,50.91302]}},{"type":"Feature","properties":{"Naam":"Wijksteunpunt De Beemden","Organisatie":"Stichting Cicero Zorggroep","Soort zorg":"Verzorgingshuizen","Huisnummer":"19","Postcode":"6365BL","Plaats":"Schinnen","Routekaart":"Voorlopig","Ambitie":"Route tot 2030"},"geometry":{"type":"Point","coordinates":[5.88586,50.94352]}},{"type":"Feature","properties":{"Naam":"Huize d'Alzon (Dependance Hulsberg)","Organisatie":"Stichting Cicero Zorggroep","Soort zorg":"Verzorgingshuizen","Huisnummer":"5","Postcode":"6336AN","Plaats":"Hulsberg","Routekaart":"Voorlopig","Ambitie":"Route tot 2030"},"geometry":{"type":"Point","coordinates":[5.85768,50.89125]}},{"type":"Feature","properties":{"Naam":"Cicero Zorggroep Gregoriushuis","Organisatie":"Stichting Cicero Zorggroep","Soort zorg":"Verzorgingshuizen","Huisnummer":"30","Postcode":"6442AG","Plaats":"Brunssum","Routekaart":"Voorlopig","Ambitie":"Route tot 2030"},"geometry":{"type":"Point","coordinates":[5.97815,50.95033]}},{"type":"Feature","properties":{"Naam":"Cicero Zorggroep Zorgcentrum Pius","Organisatie":"Stichting Cicero Zorggroep","Soort zorg":"Verzorgingshuizen","Huisnummer":"2","Postcode":"6431NW","Plaats":"Hoensbroek","Routekaart":"Voorlopig","Ambitie":"Route tot 2030"},"geometry":{"type":"Point","coordinates":[5.92191,50.9201]}},{"type":"Feature","properties":{"Naam":"Cicero Zorggroep Zorgcentrum 't Brook","Organisatie":"Stichting Cicero Zorggroep","Soort zorg":"Verzorgingshuizen","Huisnummer":"4","Postcode":"6367TN","Plaats":"Voerendaal","Routekaart":"Voorlopig","Ambitie":"Route tot 2030"},"geometry":{"type":"Point","coordinates":[5.9274,50.87873]}},{"type":"Feature","properties":{"Naam":"Cicero Zorggroep Zorgcentrum Emmastaete","Organisatie":"Stichting Cicero Zorggroep","Soort zorg":"Verzorgingshuizen","Huisnummer":"63","Postcode":"6446XC","Plaats":"Brunssum","Routekaart":"Voorlopig","Ambitie":"Route tot 2030"},"geometry":{"type":"Point","coordinates":[5.93789,50.92981]}},{"type":"Feature","properties":{"Naam":"Wijksteunpunt Gemeinsjapshoes","Organisatie":"Stichting Cicero Zorggroep","Soort zorg":"Verzorgingshuizen","Huisnummer":"10","Postcode":"6333BD","Plaats":"Schimmert","Routekaart":"Voorlopig","Ambitie":"Route tot 2030"},"geometry":{"type":"Point","coordinates":[5.82214,50.90059]}},{"type":"Feature","properties":{"Naam":"Boerderijmuseum Schimmert","Organisatie":"Boerderijmuseum Schimmert","Soort zorg":"onbekend","Huisnummer":"36","Postcode":"6333BJ","Plaats":"Schimmert","IsMainBranch":true},"geometry":{"type":"Point","coordinates":[5.82473,50.90344]}},{"type":"Feature","properties":{"Naam":"'t Puther Höfke","Organisatie":"'t Puther Höfke V.O.F.","Soort zorg":"Verzorgingshuizen","Huisnummer":"82","Postcode":"6155KP","Plaats":"Puth","IsMainBranch":true},"geometry":{"type":"Point","coordinates":[5.86956,50.95634]}},{"type":"Feature","properties":{"Naam":"Zorgboerderij Asselterhof","Organisatie":"Maatschap Dings-Relouw","Soort zorg":"onbekend","Huisnummer":"26","Postcode":"6071NW","Plaats":"Swalmen","IsMainBranch":true},"geometry":{"type":"Point","coordinates":[6.01257,51.2244]}},{"type":"Feature","properties":{"Naam":"Zuyderland Zorgcentra B.V.","Organisatie":"Zuyderland Zorgcentra B.V.","Soort zorg":"Verpleeghuizen","Huisnummer":"10","Postcode":"6131KG","Plaats":"Sittard","IsMainBranch":true},"geometry":{"type":"Point","coordinates":[5.86475,50.99649]}},{"type":"Feature","properties":{"Naam":"de Baenje","Organisatie":"Zuyderland Zorgcentra B.V.","Soort zorg":"Verzorgingshuizen","Huisnummer":"2","Postcode":"6131JR","Plaats":"Sittard"},"geometry":{"type":"Point","coordinates":[5.86764,50.99463]}},{"type":"Feature","properties":{"Naam":"Glana locatie Athos","Organisatie":"Zuyderland Zorgcentra B.V.","Soort zorg":"Verzorgingshuizen","Huisnummer":"5","Postcode":"6164HK","Plaats":"Geleen"},"geometry":{"type":"Point","coordinates":[5.83357,50.95378]}},{"type":"Feature","properties":{"Naam":"Glana locatie Aramis","Organisatie":"Zuyderland Zorgcentra B.V.","Soort zorg":"Verzorgingshuizen","Huisnummer":"119","Postcode":"6164GH","Plaats":"Geleen"},"geometry":{"type":"Point","coordinates":[5.83156,50.95335]}},{"type":"Feature","properties":{"Naam":"Aldenhof","Organisatie":"Zuyderland Zorgcentra B.V.","Soort zorg":"Verzorgingshuizen","Huisnummer":"26","Postcode":"6121NZ","Plaats":"Born"},"geometry":{"type":"Point","coordinates":[5.81867,51.03846]}},{"type":"Feature","properties":{"Naam":"Glana locatie Athos","Organisatie":"Zuyderland Zorgcentra B.V.","Soort zorg":"Verzorgingshuizen","Huisnummer":"3","Postcode":"6164HK","Plaats":"Geleen"},"geometry":{"type":"Point","coordinates":[5.83365,50.95397]}},{"type":"Feature","properties":{"Naam":"Glana locatie Aramis","Organisatie":"Zuyderland Zorgcentra B.V.","Soort zorg":"Verzorgingshuizen","Huisnummer":"115","Postcode":"6164GH","Plaats":"Geleen"},"geometry":{"type":"Point","coordinates":[5.83115,50.95359]}},{"type":"Feature","properties":{"Naam":"Lemborgh","Organisatie":"Zuyderland Zorgcentra B.V.","Soort zorg":"Verzorgingshuizen","Huisnummer":"23","Postcode":"6135CV","Plaats":"Sittard"},"geometry":{"type":"Point","coordinates":[5.84895,51.00884]}},{"type":"Feature","properties":{"Naam":"Aldenhof","Organisatie":"Zuyderland Zorgcentra B.V.","Soort zorg":"Verzorgingshuizen","Huisnummer":"6","Postcode":"6121NZ","Plaats":"Born"},"geometry":{"type":"Point","coordinates":[5.81819,51.0383]}},{"type":"Feature","properties":{"Naam":"Aldenhof","Organisatie":"Zuyderland Zorgcentra B.V.","Soort zorg":"Verzorgingshuizen","Huisnummer":"9","Postcode":"6121NZ","Plaats":"Born"},"geometry":{"type":"Point","coordinates":[5.81818,51.03837]}},{"type":"Feature","properties":{"Naam":"de Baenje dagvoorziening Odapark","Organisatie":"Zuyderland Zorgcentra B.V.","Soort zorg":"Verzorgingshuizen","Huisnummer":"657","Postcode":"6131GS","Plaats":"Sittard"},"geometry":{"type":"Point","coordinates":[5.87193,51.00045]}},{"type":"Feature","properties":{"Naam":"Glana locatie Porthos","Organisatie":"Zuyderland Zorgcentra B.V.","Soort zorg":"Verzorgingshuizen","Huisnummer":"67","Postcode":"6164HL","Plaats":"Geleen"},"geometry":{"type":"Point","coordinates":[5.83201,50.9538]}},{"type":"Feature","properties":{"Naam":"de Egthe locatie 't Pejjerhoes","Organisatie":"Zuyderland Zorgcentra B.V.","Soort zorg":"Verzorgingshuizen","Huisnummer":"20","Postcode":"6102EG","Plaats":"Echt"},"geometry":{"type":"Point","coordinates":[5.88994,51.10157]}},{"type":"Feature","properties":{"Naam":"Aldenhof","Organisatie":"Zuyderland Zorgcentra B.V.","Soort zorg":"Verzorgingshuizen","Huisnummer":"1","Postcode":"6121NZ","Plaats":"Born"},"geometry":{"type":"Point","coordinates":[5.81842,51.03828]}},{"type":"Feature","properties":{"Naam":"Aldenhof","Organisatie":"Zuyderland Zorgcentra B.V.","Soort zorg":"Verzorgingshuizen","Huisnummer":"10","Postcode":"6121NZ","Plaats":"Born"},"geometry":{"type":"Point","coordinates":[5.81867,51.03831]}},{"type":"Feature","properties":{"Naam":"de Kollenberg","Organisatie":"Zuyderland Zorgcentra B.V.","Soort zorg":"Verzorgingshuizen","Huisnummer":"24","Postcode":"6137AC","Plaats":"Sittard"},"geometry":{"type":"Point","coordinates":[5.87539,50.99568]}},{"type":"Feature","properties":{"Naam":"Glana locatie Aramis","Organisatie":"Zuyderland Zorgcentra B.V.","Soort zorg":"Verzorgingshuizen","Huisnummer":"117","Postcode":"6164GH","Plaats":"Geleen"},"geometry":{"type":"Point","coordinates":[5.83135,50.95346]}},{"type":"Feature","properties":{"Naam":"Glana locatie Zilverlinde","Organisatie":"Zuyderland Zorgcentra B.V.","Soort zorg":"Verzorgingshuizen","Huisnummer":"1","Postcode":"6163GC","Plaats":"Geleen"},"geometry":{"type":"Point","coordinates":[5.81987,50.97982]}},{"type":"Feature","properties":{"Naam":"Vastrada","Organisatie":"Zuyderland Zorgcentra B.V.","Soort zorg":"Verzorgingshuizen","Huisnummer":"47","Postcode":"6114HG","Plaats":"Susteren"},"geometry":{"type":"Point","coordinates":[5.85172,51.06169]}},{"type":"Feature","properties":{"Naam":"Glana locatie Porthos","Organisatie":"Zuyderland Zorgcentra B.V.","Soort zorg":"Verzorgingshuizen","Huisnummer":"63","Postcode":"6164HL","Plaats":"Geleen"},"geometry":{"type":"Point","coordinates":[5.83256,50.95378]}},{"type":"Feature","properties":{"Naam":"Glana verpleegunit Beek","Organisatie":"Zuyderland Zorgcentra B.V.","Soort zorg":"Verzorgingshuizen","Huisnummer":"2","Postcode":"6191KZ","Plaats":"Beek"},"geometry":{"type":"Point","coordinates":[5.79162,50.93772]}},{"type":"Feature","properties":{"Naam":"de Egthe","Organisatie":"Zuyderland Zorgcentra B.V.","Soort zorg":"Verzorgingshuizen","Huisnummer":"1","Postcode":"6101EX","Plaats":"Echt"},"geometry":{"type":"Point","coordinates":[5.8735,51.10564]}},{"type":"Feature","properties":{"Naam":"Hoogstaete","Organisatie":"Zuyderland Zorgcentra B.V.","Soort zorg":"Verzorgingshuizen","Huisnummer":"151","Postcode":"6135JL","Plaats":"Sittard"},"geometry":{"type":"Point","coordinates":[5.85301,51.0113]}},{"type":"Feature","properties":{"Naam":"Glana locatie Porthos","Organisatie":"Zuyderland Zorgcentra B.V.","Soort zorg":"Verzorgingshuizen","Huisnummer":"65","Postcode":"6164HL","Plaats":"Geleen"},"geometry":{"type":"Point","coordinates":[5.83232,50.95379]}},{"type":"Feature","properties":{"Naam":"Glana locatie Aramis","Organisatie":"Zuyderland Zorgcentra B.V.","Soort zorg":"Verzorgingshuizen","Huisnummer":"121","Postcode":"6164GH","Plaats":"Geleen"},"geometry":{"type":"Point","coordinates":[5.83184,50.95318]}},{"type":"Feature","properties":{"Naam":"Glana verpleegunit Stein","Organisatie":"Zuyderland Zorgcentra B.V.","Soort zorg":"Verzorgingshuizen","Huisnummer":"45","Postcode":"6171HS","Plaats":"Stein"},"geometry":{"type":"Point","coordinates":[5.76442,50.96859]}},{"type":"Feature","properties":{"Naam":"Hospice Mariaveld","Organisatie":"Zuyderland Zorgcentra B.V.","Soort zorg":"Verzorgingshuizen","Huisnummer":"1","Postcode":"6114EG","Plaats":"Susteren"},"geometry":{"type":"Point","coordinates":[5.86304,51.06502]}},{"type":"Feature","properties":{"Naam":"Aldenhof","Organisatie":"Zuyderland Zorgcentra B.V.","Soort zorg":"Verzorgingshuizen","Huisnummer":"48","Postcode":"6121NZ","Plaats":"Born"},"geometry":{"type":"Point","coordinates":[5.8188,51.03852]}},{"type":"Feature","properties":{"Naam":"Glana","Organisatie":"Zuyderland Zorgcentra B.V.","Soort zorg":"Verzorgingshuizen","Huisnummer":"159","Postcode":"6164GH","Plaats":"Geleen"},"geometry":{"type":"Point","coordinates":[5.83259,50.95271]}},{"type":"Feature","properties":{"Naam":"Glana locatie Athos","Organisatie":"Zuyderland Zorgcentra B.V.","Soort zorg":"Verzorgingshuizen","Huisnummer":"1","Postcode":"6164HK","Plaats":"Geleen"},"geometry":{"type":"Point","coordinates":[5.83376,50.9542]}},{"type":"Feature","properties":{"Naam":"Glana locatie Athos","Organisatie":"Zuyderland Zorgcentra B.V.","Soort zorg":"Verzorgingshuizen","Huisnummer":"7","Postcode":"6164HK","Plaats":"Geleen"},"geometry":{"type":"Point","coordinates":[5.83351,50.95356]}},{"type":"Feature","properties":{"Naam":"Glana locatie Porthos","Organisatie":"Zuyderland Zorgcentra B.V.","Soort zorg":"Verzorgingshuizen","Huisnummer":"61","Postcode":"6164HL","Plaats":"Geleen"},"geometry":{"type":"Point","coordinates":[5.83285,50.95377]}},{"type":"Feature","properties":{"Naam":"Aldenhof","Organisatie":"Zuyderland Zorgcentra B.V.","Soort zorg":"Verzorgingshuizen","Huisnummer":"5","Postcode":"6121NZ","Plaats":"Born"},"geometry":{"type":"Point","coordinates":[5.81821,51.03827]}},{"type":"Feature","properties":{"Naam":"Aldenhof","Organisatie":"Zuyderland Zorgcentra B.V.","Soort zorg":"Verzorgingshuizen","Huisnummer":"7","Postcode":"6121NZ","Plaats":"Born"},"geometry":{"type":"Point","coordinates":[5.81819,51.03831]}},{"type":"Feature","properties":{"Naam":"Aldenhof","Organisatie":"Zuyderland Zorgcentra B.V.","Soort zorg":"Verzorgingshuizen","Huisnummer":"8","Postcode":"6121NZ","Plaats":"Born"},"geometry":{"type":"Point","coordinates":[5.81818,51.03834]}},{"type":"Feature","properties":{"Naam":"BCO Onderwijsadvies B.V.","Organisatie":"BCO Onderwijsadvies B.V.","Soort zorg":"onbekend","Huisnummer":"11","Postcode":"5912PM","Plaats":"Venlo","IsMainBranch":true},"geometry":{"type":"Point","coordinates":[6.15838,51.35493]}},{"type":"Feature","properties":{"Naam":"TopSupport B.V.","Organisatie":"TopSupport B.V.","Soort zorg":"onbekend","Huisnummer":"1","Postcode":"5644RX","Plaats":"Eindhoven","IsMainBranch":true},"geometry":{"type":"Point","coordinates":[5.4768,51.41644]}},{"type":"Feature","properties":{"Naam":"Savant Zorg","Organisatie":"Savant Zorg","Soort zorg":"Verpleeghuizen","Huisnummer":"4","Postcode":"5708HN","Plaats":"Helmond","IsMainBranch":true},"geometry":{"type":"Point","coordinates":[5.62681,51.47375]}},{"type":"Feature","properties":{"Naam":"WoonzorgCentrum Akert","Organisatie":"Stichting St. Anna Zorggroep","Soort zorg":"Verzorgingshuizen","Huisnummer":"35","Postcode":"5664TZ","Plaats":"Geldrop"},"geometry":{"type":"Point","coordinates":[5.56209,51.41707]}},{"type":"Feature","properties":{"Naam":"St. Anna Ziekenhuis","Organisatie":"Stichting St. Anna Zorggroep","Soort zorg":"onbekend","Huisnummer":"2","Postcode":"5664EH","Plaats":"Geldrop","IsMainBranch":true},"geometry":{"type":"Point","coordinates":[5.55855,51.41984]}},{"type":"Feature","properties":{"Naam":"WoonzorgCentrum Berkenheuvel","Organisatie":"Stichting St. Anna Zorggroep","Soort zorg":"Verpleeghuizen","Huisnummer":"6","Postcode":"5666AZ","Plaats":"Geldrop"},"geometry":{"type":"Point","coordinates":[5.57675,51.42569]}},{"type":"Feature","properties":{"Naam":"Touch Annemieke","Organisatie":"Touch Annemieke","Soort zorg":"onbekend","Huisnummer":"1e","Postcode":"5613EL","Plaats":"Eindhoven","IsMainBranch":true},"geometry":{"type":"Point","coordinates":[5.48927,51.43964]}},{"type":"Feature","properties":{"Naam":"Woonzorgcentrum Antoniushof","Organisatie":"Stichting Zorggroep Elde Maasduinen","Soort zorg":"Verzorgingshuizen","Huisnummer":"100","Postcode":"5142RT","Plaats":"Waalwijk"},"geometry":{"type":"Point","coordinates":[5.07182,51.6882]}},{"type":"Feature","properties":{"Naam":"Woonzorgcentrum Rosagaerde","Organisatie":"Stichting Zorggroep Elde Maasduinen","Soort zorg":"Verzorgingshuizen","Huisnummer":"4","Postcode":"5171KR","Plaats":"Kaatsheuvel"},"geometry":{"type":"Point","coordinates":[5.04738,51.65428]}},{"type":"Feature","properties":{"Naam":"Hofjeshuis Vinckenrode","Organisatie":"Stichting Zorggroep Elde Maasduinen","Soort zorg":"onbekend","Huisnummer":"2","Postcode":"5281BR","Plaats":"Boxtel"},"geometry":{"type":"Point","coordinates":[5.32977,51.58907]}},{"type":"Feature","properties":{"Naam":"Zorgexpertisehuis Liduina","Organisatie":"Stichting Zorggroep Elde Maasduinen","Soort zorg":"onbekend","Huisnummer":"35","Postcode":"5281AD","Plaats":"Boxtel"},"geometry":{"type":"Point","coordinates":[5.32157,51.59399]}},{"type":"Feature","properties":{"Naam":"Buitenhuis","Organisatie":"Stichting Zorggroep Elde Maasduinen","Soort zorg":"Verpleeghuizen","Huisnummer":"2","Postcode":"5296LB","Plaats":"Esch"},"geometry":{"type":"Point","coordinates":[5.29332,51.61196]}},{"type":"Feature","properties":{"Naam":"Stichting Zorggroep Elde Maasduinen","Organisatie":"Stichting Zorggroep Elde Maasduinen","Soort zorg":"onbekend","Huisnummer":"43","Postcode":"5171DR","Plaats":"Kaatsheuvel"},"geometry":{"type":"Point","coordinates":[5.03121,51.66344]}},{"type":"Feature","properties":{"Naam":"Ontmoetingshuis De Beemden","Organisatie":"Stichting Zorggroep Elde Maasduinen","Soort zorg":"Verpleeghuizen","Huisnummer":"1","Postcode":"5271BH","Plaats":"Sint-Michielsgestel"},"geometry":{"type":"Point","coordinates":[5.35552,51.63837]}},{"type":"Feature","properties":{"Naam":"Stichting Zuidzorg","Organisatie":"Stichting Zuidzorg","Soort zorg":"onbekend","Huisnummer":"23a","Postcode":"5502JA","Plaats":"Veldhoven"},"geometry":{"type":"Point","coordinates":[5.41577,51.42702]}},{"type":"Feature","properties":{"Naam":"Stichting Zuidzorg","Organisatie":"Stichting Zuidzorg","Soort zorg":"onbekend","Huisnummer":"586","Postcode":"5627RE","Plaats":"Eindhoven"},"geometry":{"type":"Point","coordinates":[5.44034,51.48159]}},{"type":"Feature","properties":{"Naam":"Stichting Zuidzorg","Organisatie":"Stichting Zuidzorg","Soort zorg":"onbekend","Huisnummer":"5","Postcode":"5531BA","Plaats":"Bladel"},"geometry":{"type":"Point","coordinates":[5.2157,51.36738]}},{"type":"Feature","properties":{"Naam":"Psycho-Expertise B.V.","Organisatie":"Psycho-Expertise B.V.","Soort zorg":"onbekend","Huisnummer":"7","Postcode":"5611ZS","Plaats":"Eindhoven","IsMainBranch":true},"geometry":{"type":"Point","coordinates":[5.47995,51.44418]}},{"type":"Feature","properties":{"Naam":"Stichting Vivent / Maria Oord","Organisatie":"Stichting Vivent","Soort zorg":"Verpleeghuizen","Huisnummer":"369","Postcode":"5244NJ","Plaats":"Rosmalen","IsMainBranch":true},"geometry":{"type":"Point","coordinates":[5.39992,51.71441]}},{"type":"Feature","properties":{"Naam":"Locatie Bosscheweg","Organisatie":"Stichting Vivent","Soort zorg":"onbekend","Huisnummer":"5","Postcode":"5281AE","Plaats":"Boxtel"},"geometry":{"type":"Point","coordinates":[5.32524,51.59131]}},{"type":"Feature","properties":{"Naam":"Bij Elkaar","Organisatie":"Stichting Vivent","Soort zorg":"Verpleeghuizen","Huisnummer":"5","Postcode":"5245NB","Plaats":"Rosmalen"},"geometry":{"type":"Point","coordinates":[5.34473,51.72947]}},{"type":"Feature","properties":{"Naam":"Werk & Uitleg","Organisatie":"Werk & Uitleg V.O.F.","Soort zorg":"onbekend","Huisnummer":"48","Postcode":"5628CL","Plaats":"Eindhoven","IsMainBranch":true},"geometry":{"type":"Point","coordinates":[5.45748,51.47823]}},{"type":"Feature","properties":{"Naam":"Zorgcentrum Hof van Bluyssen","Organisatie":"Stichting Amaliazorg","Soort zorg":"Verpleeghuizen","Huisnummer":"29","Postcode":"5721KG","Plaats":"Asten"},"geometry":{"type":"Point","coordinates":[5.74203,51.40039]}},{"type":"Feature","properties":{"Naam":"Zorgcentrum Catharinenberg","Organisatie":"Stichting Amaliazorg","Soort zorg":"Verpleeghuizen","Huisnummer":"3","Postcode":"5061BG","Plaats":"Oisterwijk"},"geometry":{"type":"Point","coordinates":[5.18314,51.57756]}},{"type":"Feature","properties":{"Naam":"Zorgcentrum Van Haarenstaete","Organisatie":"Stichting Amaliazorg","Soort zorg":"Verpleeghuizen","Huisnummer":"44","Postcode":"5464VH","Plaats":"Veghel"},"geometry":{"type":"Point","coordinates":[5.57988,51.63464]}},{"type":"Feature","properties":{"Naam":"Zorgcentrum Amaliazorg","Organisatie":"Stichting Amaliazorg","Soort zorg":"Verpleeghuizen","Huisnummer":"37","Postcode":"5688AG","Plaats":"Oirschot","IsMainBranch":true},"geometry":{"type":"Point","coordinates":[5.30371,51.50145]}},{"type":"Feature","properties":{"Naam":"Zorgcentrum Blijendaal","Organisatie":"Stichting Amaliazorg","Soort zorg":"Verpleeghuizen","Huisnummer":"28","Postcode":"5688BE","Plaats":"Oirschot"},"geometry":{"type":"Point","coordinates":[5.30523,51.5046]}},{"type":"Feature","properties":{"Naam":"Steur Training & Begeleiding","Organisatie":"Steur Training & Begeleiding","Soort zorg":"onbekend","Huisnummer":"16","Postcode":"5091WB","Plaats":"Oost West en Middelbeers","IsMainBranch":true},"geometry":{"type":"Point","coordinates":[5.22889,51.51512]}},{"type":"Feature","properties":{"Naam":"Stichting BrabantZorg","Organisatie":"Stichting BrabantZorg","Soort zorg":"Verzorgingshuizen","Huisnummer":"20","Postcode":"5349AA","Plaats":"Oss","IsMainBranch":true},"geometry":{"type":"Point","coordinates":[5.52877,51.76421]}},{"type":"Feature","properties":{"Naam":"Catharinahof","Organisatie":"Stichting BrabantZorg","Soort zorg":"Verpleeghuizen","Huisnummer":"252","Postcode":"5361CR","Plaats":"Grave"},"geometry":{"type":"Point","coordinates":[5.73605,51.76237]}},{"type":"Feature","properties":{"Naam":"De Lindeboom","Organisatie":"Stichting BrabantZorg","Soort zorg":"Verpleeghuizen","Huisnummer":"21","Postcode":"5324EP","Plaats":"Ammerzoden"},"geometry":{"type":"Point","coordinates":[5.21589,51.74985]}},{"type":"Feature","properties":{"Naam":"Nieuwehagen","Organisatie":"Stichting BrabantZorg","Soort zorg":"Verpleeghuizen","Huisnummer":"2","Postcode":"5211PD","Plaats":"'s-Hertogenbosch"},"geometry":{"type":"Point","coordinates":[5.30737,51.69263]}},{"type":"Feature","properties":{"Naam":"Sterrebos","Organisatie":"Stichting BrabantZorg","Soort zorg":"onbekend","Huisnummer":"62","Postcode":"5344AR","Plaats":"Oss"},"geometry":{"type":"Point","coordinates":[5.51314,51.75232]}},{"type":"Feature","properties":{"Naam":"De Watersteeg","Organisatie":"Stichting BrabantZorg","Soort zorg":"Verpleeghuizen","Huisnummer":"37","Postcode":"5467AN","Plaats":"Veghel"},"geometry":{"type":"Point","coordinates":[5.54908,51.62626]}},{"type":"Feature","properties":{"Naam":"Sint Antonius","Organisatie":"Stichting BrabantZorg","Soort zorg":"Verpleeghuizen","Huisnummer":"60","Postcode":"5408BK","Plaats":"Volkel"},"geometry":{"type":"Point","coordinates":[5.65739,51.64274]}},{"type":"Feature","properties":{"Naam":"Sint Jan","Organisatie":"Stichting BrabantZorg","Soort zorg":"Verpleeghuizen","Huisnummer":"8","Postcode":"5401BE","Plaats":"Uden"},"geometry":{"type":"Point","coordinates":[5.61081,51.66037]}},{"type":"Feature","properties":{"Naam":"Vierhoven","Organisatie":"Stichting BrabantZorg","Soort zorg":"Verpleeghuizen","Huisnummer":"2b","Postcode":"5374HE","Plaats":"Schaijk"},"geometry":{"type":"Point","coordinates":[5.62995,51.74673]}},{"type":"Feature","properties":{"Naam":"De Wellen","Organisatie":"Stichting BrabantZorg","Soort zorg":"Verpleeghuizen","Huisnummer":"2","Postcode":"5341AL","Plaats":"Oss"},"geometry":{"type":"Point","coordinates":[5.52006,51.77098]}},{"type":"Feature","properties":{"Naam":"Martinushuis","Organisatie":"Stichting BrabantZorg","Soort zorg":"Verpleeghuizen","Huisnummer":"3","Postcode":"5391AB","Plaats":"Nuland"},"geometry":{"type":"Point","coordinates":[5.43397,51.72975]}},{"type":"Feature","properties":{"Naam":"Maasland","Organisatie":"Stichting BrabantZorg","Soort zorg":"Verpleeghuizen","Huisnummer":"5","Postcode":"5373AD","Plaats":"Herpen"},"geometry":{"type":"Point","coordinates":[5.64588,51.77436]}},{"type":"Feature","properties":{"Naam":"Heelwijk","Organisatie":"Stichting BrabantZorg","Soort zorg":"Verpleeghuizen","Huisnummer":"2","Postcode":"5384CG","Plaats":"Heesch"},"geometry":{"type":"Point","coordinates":[5.53292,51.73417]}},{"type":"Feature","properties":{"Naam":"De Wilberthof","Organisatie":"Stichting BrabantZorg","Soort zorg":"Verpleeghuizen","Huisnummer":"4","Postcode":"5351EV","Plaats":"Berghem"},"geometry":{"type":"Point","coordinates":[5.56892,51.76959]}},{"type":"Feature","properties":{"Naam":"Sint Joachim & Anna","Organisatie":"Stichting BrabantZorg","Soort zorg":"Verpleeghuizen","Huisnummer":"26","Postcode":"5461BL","Plaats":"Veghel"},"geometry":{"type":"Point","coordinates":[5.53943,51.61827]}},{"type":"Feature","properties":{"Naam":"Udens Duyn","Organisatie":"Stichting BrabantZorg","Soort zorg":"Verpleeghuizen","Huisnummer":"6","Postcode":"5406PZ","Plaats":"Uden"},"geometry":{"type":"Point","coordinates":[5.60812,51.67456]}},{"type":"Feature","properties":{"Naam":"Simeonshof","Organisatie":"Stichting BrabantZorg","Soort zorg":"Verpleeghuizen","Huisnummer":"1","Postcode":"5469CK","Plaats":"Erp"},"geometry":{"type":"Point","coordinates":[5.60754,51.59975]}},{"type":"Feature","properties":{"Naam":"'t Geerke","Organisatie":"Stichting BrabantZorg","Soort zorg":"Verpleeghuizen","Huisnummer":"17","Postcode":"5235HH","Plaats":"'s-Hertogenbosch"},"geometry":{"type":"Point","coordinates":[5.31037,51.72115]}},{"type":"Feature","properties":{"Naam":"Katwijk","Organisatie":"Stichting BrabantZorg","Soort zorg":"Verpleeghuizen","Huisnummer":"55","Postcode":"5341HB","Plaats":"Oss"},"geometry":{"type":"Point","coordinates":[5.51917,51.76439]}},{"type":"Feature","properties":{"Naam":"Laarstede","Organisatie":"Stichting BrabantZorg","Soort zorg":"Verpleeghuizen","Huisnummer":"40","Postcode":"5388HH","Plaats":"Nistelrode"},"geometry":{"type":"Point","coordinates":[5.56064,51.70046]}},{"type":"Feature","properties":{"Naam":"Corte Foort","Organisatie":"Stichting BrabantZorg","Soort zorg":"onbekend","Huisnummer":"61","Postcode":"5342JW","Plaats":"Oss"},"geometry":{"type":"Point","coordinates":[5.52306,51.75784]}},{"type":"Feature","properties":{"Naam":"Compostella","Organisatie":"Stichting BrabantZorg","Soort zorg":"Verpleeghuizen","Huisnummer":"1","Postcode":"5411BK","Plaats":"Zeeland"},"geometry":{"type":"Point","coordinates":[5.67472,51.69575]}},{"type":"Feature","properties":{"Naam":"Het Zonnelied","Organisatie":"Stichting BrabantZorg","Soort zorg":"Verpleeghuizen","Huisnummer":"2","Postcode":"5324AD","Plaats":"Ammerzoden"},"geometry":{"type":"Point","coordinates":[5.22264,51.75001]}},{"type":"Feature","properties":{"Naam":"AAtrium","Organisatie":"Stichting BrabantZorg","Soort zorg":"Verpleeghuizen","Huisnummer":"21","Postcode":"5463GK","Plaats":"Veghel"},"geometry":{"type":"Point","coordinates":[5.54648,51.60951]}},{"type":"Feature","properties":{"Naam":"Dijkstaete","Organisatie":"Stichting BrabantZorg","Soort zorg":"Verpleeghuizen","Huisnummer":"4","Postcode":"5374RM","Plaats":"Schaijk"},"geometry":{"type":"Point","coordinates":[5.63347,51.73357]}},{"type":"Feature","properties":{"Naam":"Nieuwe Hoeven","Organisatie":"Stichting BrabantZorg","Soort zorg":"Verpleeghuizen","Huisnummer":"5","Postcode":"5374RL","Plaats":"Schaijk"},"geometry":{"type":"Point","coordinates":[5.63347,51.73164]}},{"type":"Feature","properties":{"Naam":"De Ruwaard","Organisatie":"Stichting BrabantZorg","Soort zorg":"Verpleeghuizen","Huisnummer":"1","Postcode":"5344BT","Plaats":"Oss"},"geometry":{"type":"Point","coordinates":[5.51067,51.75617]}},{"type":"Feature","properties":{"Naam":"De Heegt","Organisatie":"Stichting BrabantZorg","Soort zorg":"Verpleeghuizen","Huisnummer":"1","Postcode":"5386AW","Plaats":"Geffen"},"geometry":{"type":"Point","coordinates":[5.46364,51.74218]}},{"type":"Feature","properties":{"Naam":"Sint Petrus","Organisatie":"Stichting BrabantZorg","Soort zorg":"Verpleeghuizen","Huisnummer":"34","Postcode":"5427AJ","Plaats":"Boekel"},"geometry":{"type":"Point","coordinates":[5.67706,51.60362]}},{"type":"Feature","properties":{"Naam":"Odendael","Organisatie":"Stichting BrabantZorg","Soort zorg":"Verpleeghuizen","Huisnummer":"1","Postcode":"5492CT","Plaats":"Sint-Oedenrode"},"geometry":{"type":"Point","coordinates":[5.45803,51.56471]}},{"type":"Feature","properties":{"Naam":"De Wielewaal","Organisatie":"Stichting BrabantZorg","Soort zorg":"Verpleeghuizen","Huisnummer":"1","Postcode":"5301GV","Plaats":"Zaltbommel"},"geometry":{"type":"Point","coordinates":[5.2522,51.80913]}},{"type":"Feature","properties":{"Naam":"Kruisherencomplex","Organisatie":"Stichting BrabantZorg","Soort zorg":"onbekend","Huisnummer":"44","Postcode":"5401AS","Plaats":"Uden"},"geometry":{"type":"Point","coordinates":[5.60986,51.66122]}},{"type":"Feature","properties":{"Naam":"ERVAREN IN BEWEGEN","Organisatie":"ERVAREN IN BEWEGEN","Soort zorg":"onbekend","Huisnummer":"9","Postcode":"5262CW","Plaats":"Vught","IsMainBranch":true},"geometry":{"type":"Point","coordinates":[5.28319,51.64488]}},{"type":"Feature","properties":{"Naam":"ANH Centrale ZorgGroep B.V.","Organisatie":"ANH Centrale ZorgGroep B.V.","Soort zorg":"onbekend","Huisnummer":"3","Postcode":"4708MK","Plaats":"Roosendaal","IsMainBranch":true},"geometry":{"type":"Point","coordinates":[4.43302,51.50821]}},{"type":"Feature","properties":{"Naam":"Stichting de Riethorst Stromenland","Organisatie":"Stichting de Riethorst Stromenland","Soort zorg":"Verpleeghuizen","Huisnummer":"1c","Postcode":"4941VX","Plaats":"Raamsdonksveer","IsMainBranch":true},"geometry":{"type":"Point","coordinates":[4.87135,51.70774]}},{"type":"Feature","properties":{"Naam":"Woonzorgcentrum Mauritsstaete","Organisatie":"Stichting de Riethorst Stromenland","Soort zorg":"Verpleeghuizen","Huisnummer":"9a01","Postcode":"4931HV","Plaats":"Geertruidenberg"},"geometry":{"type":"Point","coordinates":[4.84806,51.70173]}},{"type":"Feature","properties":{"Naam":"Zorgcomplex De Kloosterhoeve","Organisatie":"Stichting de Riethorst Stromenland","Soort zorg":"Verzorgingshuizen","Huisnummer":"1","Postcode":"4941EG","Plaats":"Raamsdonksveer"},"geometry":{"type":"Point","coordinates":[4.86127,51.68875]}},{"type":"Feature","properties":{"Naam":"Zorgcentrum Antonia","Organisatie":"Stichting de Riethorst Stromenland","Soort zorg":"Verzorgingshuizen","Huisnummer":"29","Postcode":"4286DE","Plaats":"Almkerk"},"geometry":{"type":"Point","coordinates":[4.95721,51.76981]}},{"type":"Feature","properties":{"Naam":"Verpleeghuis De Riethorst","Organisatie":"Stichting de Riethorst Stromenland","Soort zorg":"Verzorgingshuizen","Huisnummer":"17","Postcode":"4904PX","Plaats":"Oosterhout"},"geometry":{"type":"Point","coordinates":[4.85322,51.62788]}},{"type":"Feature","properties":{"Naam":"Zorgcentrum De Lemmenskamp","Organisatie":"Stichting de Riethorst Stromenland","Soort zorg":"Verzorgingshuizen","Huisnummer":"2","Postcode":"4285CD","Plaats":"Woudrichem"},"geometry":{"type":"Point","coordinates":[4.99963,51.8112]}},{"type":"Feature","properties":{"Naam":"Zorgcentrum De Stroming","Organisatie":"Stichting de Riethorst Stromenland","Soort zorg":"Verzorgingshuizen","Huisnummer":"23","Postcode":"5165CE","Plaats":"Waspik"},"geometry":{"type":"Point","coordinates":[4.94377,51.68628]}},{"type":"Feature","properties":{"Naam":"Woonzorgcentrum De Dotter","Organisatie":"Stichting de Riethorst Stromenland","Soort zorg":"Verzorgingshuizen","Huisnummer":"101","Postcode":"4273CG","Plaats":"Hank"},"geometry":{"type":"Point","coordinates":[4.89373,51.73583]}},{"type":"Feature","properties":{"Naam":"Verpleeghuis Altenahove","Organisatie":"Stichting de Riethorst Stromenland","Soort zorg":"Verzorgingshuizen","Huisnummer":"1","Postcode":"4286DC","Plaats":"Almkerk"},"geometry":{"type":"Point","coordinates":[4.95928,51.76981]}},{"type":"Feature","properties":{"Naam":"Zorgcentrum Goezate","Organisatie":"Stichting de Riethorst Stromenland","Soort zorg":"Verzorgingshuizen","Huisnummer":"4","Postcode":"4251VS","Plaats":"Werkendam"},"geometry":{"type":"Point","coordinates":[4.89726,51.80642]}},{"type":"Feature","properties":{"Naam":"Kleinschalig verpleeghuis Aernswaert","Organisatie":"Stichting de Riethorst Stromenland","Soort zorg":"Verzorgingshuizen","Huisnummer":"9a","Postcode":"4273CD","Plaats":"Hank"},"geometry":{"type":"Point","coordinates":[4.89617,51.73603]}},{"type":"Feature","properties":{"Naam":"Slotjesveste","Organisatie":"Stichting de Riethorst Stromenland","Soort zorg":"Verpleeghuizen","Huisnummer":"30","Postcode":"4902ZC","Plaats":"Oosterhout"},"geometry":{"type":"Point","coordinates":[4.85967,51.63745]}},{"type":"Feature","properties":{"Naam":"Zonnehof","Organisatie":"Stichting Schakelring","Soort zorg":"Verpleeghuizen","Huisnummer":"24","Postcode":"5037EK","Plaats":"Tilburg","Routekaart":"Voorlopig","Ambitie":"Niet bekend"},"geometry":{"type":"Point","coordinates":[5.05737,51.55882]}},{"type":"Feature","properties":{"Naam":"Elzenhoven","Organisatie":"Stichting Schakelring","Soort zorg":"Verpleeghuizen, Verzorgingshuizen","Huisnummer":"15","Postcode":"5161SB","Plaats":"Sprang-Capelle","Routekaart":"Voorlopig","Ambitie":"Niet bekend"},"geometry":{"type":"Point","coordinates":[5.01594,51.67448]}},{"type":"Feature","properties":{"Naam":"Stichting Schakelring/Eikendonk","Organisatie":"Stichting Schakelring","Soort zorg":"Verpleeghuizen","Huisnummer":"2","Postcode":"5143NG","Plaats":"Waalwijk","Routekaart":"Voorlopig","Ambitie":"Niet bekend","IsMainBranch":true},"geometry":{"type":"Point","coordinates":[5.0985,51.6847]}},{"type":"Feature","properties":{"Naam":"Sint Janshof","Organisatie":"Stichting Schakelring","Soort zorg":"Verpleeghuizen, Verzorgingshuizen","Huisnummer":"41","Postcode":"5251BL","Plaats":"Vlijmen","Routekaart":"Voorlopig","Ambitie":"Niet bekend"},"geometry":{"type":"Point","coordinates":[5.22682,51.69683]}},{"type":"Feature","properties":{"Naam":"Koetshuis","Organisatie":"Stichting Schakelring","Soort zorg":"Verpleeghuizen","Huisnummer":"701","Postcode":"5146BR","Plaats":"Waalwijk","Routekaart":"Voorlopig","Ambitie":"Niet bekend"},"geometry":{"type":"Point","coordinates":[5.04478,51.67451]}},{"type":"Feature","properties":{"Naam":"Sint Antonius","Organisatie":"Stichting Schakelring","Soort zorg":"Verzorgingshuizen","Huisnummer":"5","Postcode":"5256AJ","Plaats":"Heusden","Routekaart":"Voorlopig","Ambitie":"Niet bekend"},"geometry":{"type":"Point","coordinates":[5.14129,51.73416]}},{"type":"Feature","properties":{"Naam":"Schakelring-Revalidatie TweeStedenziekenhuis","Organisatie":"Stichting Schakelring","Soort zorg":"Verpleeghuizen","Huisnummer":"2","Postcode":"5141BM","Plaats":"Waalwijk","Routekaart":"Voorlopig","Ambitie":"Niet bekend"},"geometry":{"type":"Point","coordinates":[5.0523,51.68616]}},{"type":"Feature","properties":{"Naam":"Eekhof","Organisatie":"Stichting Schakelring","Soort zorg":"Verpleeghuizen","Huisnummer":"11","Postcode":"5171GC","Plaats":"Kaatsheuvel","Routekaart":"Voorlopig","Ambitie":"Niet bekend"},"geometry":{"type":"Point","coordinates":[5.03453,51.65966]}},{"type":"Feature","properties":{"Naam":"Zandley","Organisatie":"Stichting Schakelring","Soort zorg":"Verpleeghuizen, Verzorgingshuizen","Huisnummer":"1","Postcode":"5151HK","Plaats":"Drunen","Routekaart":"Voorlopig","Ambitie":"Niet bekend"},"geometry":{"type":"Point","coordinates":[5.1308,51.68989]}},{"type":"Feature","properties":{"Naam":"Spoorwiel","Organisatie":"Stichting Schakelring","Soort zorg":"Verpleeghuizen","Huisnummer":"2","Postcode":"5141BD","Plaats":"Waalwijk","Routekaart":"Voorlopig","Ambitie":"Niet bekend"},"geometry":{"type":"Point","coordinates":[5.05495,51.68801]}},{"type":"Feature","properties":{"Naam":"Paramedisch Centrum Zuid West Nederland","Organisatie":"Paramedisch Centrum Zuid West Nederland B.V.","Soort zorg":"onbekend","Huisnummer":"3","Postcode":"4624VT","Plaats":"Bergen op Zoom"},"geometry":{"type":"Point","coordinates":[4.31517,51.48729]}},{"type":"Feature","properties":{"Naam":"Stichting Park Zuiderhout","Organisatie":"Stichting Park Zuiderhout","Soort zorg":"Verzorgingshuizen","Huisnummer":"46","Postcode":"4847DK","Plaats":"Teteringen","Routekaart":"Voorlopig","Ambitie":"Route tot +-2025","IsMainBranch":true},"geometry":{"type":"Point","coordinates":[4.83149,51.61714]}},{"type":"Feature","properties":{"Naam":"De Geerhof","Organisatie":"Stichting Thebe West-Brabant","Soort zorg":"Verpleeghuizen, Verzorgingshuizen","Huisnummer":"54","Postcode":"4861AR","Plaats":"Chaam"},"geometry":{"type":"Point","coordinates":[4.86029,51.50928]}},{"type":"Feature","properties":{"Naam":"De Hoogt","Organisatie":"Stichting Thebe West-Brabant","Soort zorg":"Verpleeghuizen, Verzorgingshuizen","Huisnummer":"1","Postcode":"5131AJ","Plaats":"Alphen"},"geometry":{"type":"Point","coordinates":[4.95361,51.48322]}},{"type":"Feature","properties":{"Naam":"De Hillen","Organisatie":"Stichting Thebe West-Brabant","Soort zorg":"Verpleeghuizen, Verzorgingshuizen","Huisnummer":"52","Postcode":"4823HA","Plaats":"Breda"},"geometry":{"type":"Point","coordinates":[4.74033,51.62383]}},{"type":"Feature","properties":{"Naam":"De IJpelaar","Organisatie":"Stichting Thebe West-Brabant","Soort zorg":"Verpleeghuizen, Verzorgingshuizen","Huisnummer":"101","Postcode":"4834XJ","Plaats":"Breda"},"geometry":{"type":"Point","coordinates":[4.79917,51.57046]}},{"type":"Feature","properties":{"Naam":"Hagedonk","Organisatie":"Stichting Thebe West-Brabant","Soort zorg":"Verpleeghuizen, Verzorgingshuizen","Huisnummer":"2a1","Postcode":"4841XD","Plaats":"Prinsenbeek"},"geometry":{"type":"Point","coordinates":[4.71569,51.59977]}},{"type":"Feature","properties":{"Naam":"Brabantpark","Organisatie":"Stichting Thebe West-Brabant","Soort zorg":"Verpleeghuizen, Verzorgingshuizen","Huisnummer":"1","Postcode":"4817GA","Plaats":"Breda"},"geometry":{"type":"Point","coordinates":[4.80621,51.58916]}},{"type":"Feature","properties":{"Naam":"Heuvel","Organisatie":"Stichting Thebe West-Brabant","Soort zorg":"Verpleeghuizen, Verzorgingshuizen","Huisnummer":"1","Postcode":"4812JR","Plaats":"Breda"},"geometry":{"type":"Point","coordinates":[4.75288,51.57095]}},{"type":"Feature","properties":{"Naam":"Haga","Organisatie":"Stichting Thebe West-Brabant","Soort zorg":"Verpleeghuizen, Verzorgingshuizen","Huisnummer":"93a1","Postcode":"4813CX","Plaats":"Breda"},"geometry":{"type":"Point","coordinates":[4.73384,51.57962]}},{"type":"Feature","properties":{"Naam":"Merano Management B.V.","Organisatie":"Merano Management B.V.","Soort zorg":"onbekend","Huisnummer":"125","Postcode":"3543EN","Plaats":"Utrecht","IsMainBranch":true},"geometry":{"type":"Point","coordinates":[5.0456,52.10087]}},{"type":"Feature","properties":{"Naam":"Zorgcentrum De Vossemeren","Organisatie":"Stichting tanteLouise","Soort zorg":"Verzorgingshuizen","Huisnummer":"18","Postcode":"4681AV","Plaats":"Nieuw-Vossemeer","Routekaart":"Voorlopig","Ambitie":"Route tot 2030"},"geometry":{"type":"Point","coordinates":[4.21888,51.58903]}},{"type":"Feature","properties":{"Naam":"Bosgaard","Organisatie":"Stichting tanteLouise","Soort zorg":"Verzorgingshuizen","Huisnummer":"12","Postcode":"4661AA","Plaats":"Halsteren","Routekaart":"Voorlopig","Ambitie":"Route tot 2030"},"geometry":{"type":"Point","coordinates":[4.30195,51.51448]}},{"type":"Feature","properties":{"Naam":"Woonzorgcentrum Stuijvenburgh","Organisatie":"Stichting tanteLouise","Soort zorg":"Verzorgingshuizen","Huisnummer":"2","Postcode":"4615KX","Plaats":"Bergen op Zoom","Routekaart":"Voorlopig","Ambitie":"Route tot 2030"},"geometry":{"type":"Point","coordinates":[4.28706,51.48332]}},{"type":"Feature","properties":{"Naam":"Zorgcentrum De Beukenhof","Organisatie":"Stichting tanteLouise","Soort zorg":"Verzorgingshuizen","Huisnummer":"2","Postcode":"4645HV","Plaats":"Putte","Routekaart":"Voorlopig","Ambitie":"Route tot 2030"},"geometry":{"type":"Point","coordinates":[4.39155,51.3606]}},{"type":"Feature","properties":{"Naam":"Stichting tanteLouise","Organisatie":"Stichting tanteLouise","Soort zorg":"Verzorgingshuizen","Huisnummer":"18","Postcode":"4613AK","Plaats":"Bergen op Zoom","Routekaart":"Voorlopig","Ambitie":"Route tot 2030","IsMainBranch":true},"geometry":{"type":"Point","coordinates":[4.27722,51.49964]}},{"type":"Feature","properties":{"Naam":"Woonzorgcentrum Avondvrede","Organisatie":"Stichting tanteLouise","Soort zorg":"Verzorgingshuizen","Huisnummer":"172","Postcode":"4611DX","Plaats":"Bergen op Zoom","Routekaart":"Voorlopig","Ambitie":"Route tot 2030"},"geometry":{"type":"Point","coordinates":[4.29062,51.4993]}},{"type":"Feature","properties":{"Naam":"Zorgcentrum De Nieuwe Haven","Organisatie":"Stichting tanteLouise","Soort zorg":"Verzorgingshuizen","Huisnummer":"2","Postcode":"4671AW","Plaats":"Dinteloord","Routekaart":"Voorlopig","Ambitie":"Route tot 2030"},"geometry":{"type":"Point","coordinates":[4.36968,51.63427]}},{"type":"Feature","properties":{"Naam":"Zorgcentrum St. Elisabeth","Organisatie":"Stichting tanteLouise","Soort zorg":"Verzorgingshuizen","Huisnummer":"4","Postcode":"4661JG","Plaats":"Halsteren","Routekaart":"Voorlopig","Ambitie":"Route tot 2030"},"geometry":{"type":"Point","coordinates":[4.26988,51.52915]}},{"type":"Feature","properties":{"Naam":"Kleinschalig wonen Bergen op Zoom","Organisatie":"Stichting tanteLouise","Soort zorg":"Verpleeghuizen","Huisnummer":"15","Postcode":"4624ES","Plaats":"Bergen op Zoom","Routekaart":"Voorlopig","Ambitie":"Route tot 2030"},"geometry":{"type":"Point","coordinates":[4.30021,51.48732]}},{"type":"Feature","properties":{"Naam":"Kleinschalig wonen Bergen op Zoom","Organisatie":"Stichting tanteLouise","Soort zorg":"Verpleeghuizen","Huisnummer":"101","Postcode":"4624ES","Plaats":"Bergen op Zoom","Routekaart":"Voorlopig","Ambitie":"Route tot 2030"},"geometry":{"type":"Point","coordinates":[4.30204,51.48734]}},{"type":"Feature","properties":{"Naam":"Het nieuwe ABG","Organisatie":"Stichting tanteLouise","Soort zorg":"Verpleeghuizen","Huisnummer":"13","Postcode":"4611BD","Plaats":"Bergen op Zoom","Routekaart":"Voorlopig","Ambitie":"Route tot 2030"},"geometry":{"type":"Point","coordinates":[4.29059,51.49158]}},{"type":"Feature","properties":{"Naam":"Zorgcentrum Onze Stede","Organisatie":"Stichting tanteLouise","Soort zorg":"Verzorgingshuizen","Huisnummer":"1","Postcode":"4651EL","Plaats":"Steenbergen","Routekaart":"Voorlopig","Ambitie":"Route tot 2030"},"geometry":{"type":"Point","coordinates":[4.32086,51.58599]}},{"type":"Feature","properties":{"Naam":"Residentie Moermont","Organisatie":"Stichting tanteLouise","Soort zorg":"Verpleeghuizen","Huisnummer":"6","Postcode":"4614RX","Plaats":"Bergen op Zoom","Routekaart":"Voorlopig","Ambitie":"Route tot 2030"},"geometry":{"type":"Point","coordinates":[4.30009,51.50945]}},{"type":"Feature","properties":{"Naam":"Hospice De Markies","Organisatie":"Stichting tanteLouise","Soort zorg":"onbekend","Huisnummer":"1","Postcode":"4624ES","Plaats":"Bergen op Zoom","Routekaart":"Voorlopig","Ambitie":"Route tot 2030"},"geometry":{"type":"Point","coordinates":[4.30021,51.48732]}},{"type":"Feature","properties":{"Naam":"Woonzorgcentrum Jacqueline","Organisatie":"Stichting tanteLouise","Soort zorg":"Verzorgingshuizen","Huisnummer":"20","Postcode":"4624AK","Plaats":"Bergen op Zoom","Routekaart":"Voorlopig","Ambitie":"Route tot 2030"},"geometry":{"type":"Point","coordinates":[4.30804,51.48334]}},{"type":"Feature","properties":{"Naam":"Centrum voor Geriatrische Revalidatie Zorg","Organisatie":"Stichting tanteLouise","Soort zorg":"onbekend","Huisnummer":"1","Postcode":"4624VT","Plaats":"Bergen op Zoom","Routekaart":"Voorlopig","Ambitie":"Route tot 2030"},"geometry":{"type":"Point","coordinates":[4.3142,51.48689]}},{"type":"Feature","properties":{"Naam":"Verpleeghuis Mariahove","Organisatie":"Stichting tanteLouise","Soort zorg":"Verpleeghuizen","Huisnummer":"1","Postcode":"4641TL","Plaats":"Ossendrecht","Routekaart":"Voorlopig","Ambitie":"Route tot 2030"},"geometry":{"type":"Point","coordinates":[4.32603,51.39317]}},{"type":"Feature","properties":{"Naam":"PLUK! Fysiotherapie","Organisatie":"PLUK! Fysiotherapie","Soort zorg":"onbekend","Huisnummer":"94","Postcode":"4818CD","Plaats":"Breda"},"geometry":{"type":"Point","coordinates":[4.79129,51.57857]}},{"type":"Feature","properties":{"Naam":"Bureau Gerda Felius","Organisatie":"Bureau Gerda Felius","Soort zorg":"Verpleeghuizen","Huisnummer":"18","Postcode":"4461TW","Plaats":"Goes","IsMainBranch":true},"geometry":{"type":"Point","coordinates":[3.90434,51.50975]}},{"type":"Feature","properties":{"Naam":"Gemeenschappelijke Gezondheidsdienst Zeeland","Organisatie":"Gemeenschappelijke Gezondheidsdienst Zeeland","Soort zorg":"onbekend","Huisnummer":"37","Postcode":"4461CM","Plaats":"Goes","IsMainBranch":true},"geometry":{"type":"Point","coordinates":[3.8868,51.50378]}},{"type":"Feature","properties":{"Naam":"Eilandzorg thuiszorg","Organisatie":"Stichting Eilandzorg Schouwen-Duiveland","Soort zorg":"onbekend","Huisnummer":"1","Postcode":"4301LZ","Plaats":"Zierikzee"},"geometry":{"type":"Point","coordinates":[3.93077,51.65065]}},{"type":"Feature","properties":{"Naam":"Mitt Hem","Organisatie":"Stichting Eilandzorg Schouwen-Duiveland","Soort zorg":"Verzorgingshuizen","Huisnummer":"4","Postcode":"4301NW","Plaats":"Zierikzee"},"geometry":{"type":"Point","coordinates":[3.92693,51.65618]}},{"type":"Feature","properties":{"Naam":"De Stelle","Organisatie":"Stichting Warmande","Soort zorg":"Verpleeghuizen","Huisnummer":"7","Postcode":"4501AE","Plaats":"Oostburg","IsMainBranch":true},"geometry":{"type":"Point","coordinates":[3.48057,51.32551]}},{"type":"Feature","properties":{"Naam":"Woonzorgcentrum Rozenoord","Organisatie":"Stichting Warmande","Soort zorg":"Verzorgingshuizen","Huisnummer":"58","Postcode":"4524AD","Plaats":"Sluis"},"geometry":{"type":"Point","coordinates":[3.38845,51.31293]}},{"type":"Feature","properties":{"Naam":"Warmande Zorg Thuis","Organisatie":"Stichting Warmande","Soort zorg":"onbekend","Huisnummer":"40","Postcode":"4511GM","Plaats":"Breskens"},"geometry":{"type":"Point","coordinates":[3.55165,51.39548]}},{"type":"Feature","properties":{"Naam":"Burght","Organisatie":"Stichting Warmande","Soort zorg":"Verzorgingshuizen","Huisnummer":"2a","Postcode":"4501BP","Plaats":"Oostburg"},"geometry":{"type":"Point","coordinates":[3.48882,51.32527]}},{"type":"Feature","properties":{"Naam":"Wijkkantoor","Organisatie":"Zorgstroom","Soort zorg":"onbekend","Huisnummer":"6","Postcode":"4334CN","Plaats":"Middelburg"},"geometry":{"type":"Point","coordinates":[3.60252,51.501]}},{"type":"Feature","properties":{"Naam":"Hospice het Clarahofje","Organisatie":"Zorgstroom","Soort zorg":"onbekend","Huisnummer":"100","Postcode":"4461EC","Plaats":"Goes"},"geometry":{"type":"Point","coordinates":[3.87651,51.50428]}},{"type":"Feature","properties":{"Naam":"Zorgstroom","Organisatie":"Zorgstroom","Soort zorg":"onbekend","Huisnummer":"21","Postcode":"4382ND","Plaats":"Vlissingen"},"geometry":{"type":"Point","coordinates":[3.5857,51.452]}},{"type":"Feature","properties":{"Naam":"Equimio","Organisatie":"Equimio","Soort zorg":"onbekend","Huisnummer":"6","Postcode":"4697PB","Plaats":"Sint-Annaland","IsMainBranch":true},"geometry":{"type":"Point","coordinates":[4.05885,51.59651]}},{"type":"Feature","properties":{"Naam":"Manege op je gemak","Organisatie":"Stichting op je GEMAK","Soort zorg":"onbekend","Huisnummer":"1","Postcode":"4401ND","Plaats":"Yerseke","IsMainBranch":true},"geometry":{"type":"Point","coordinates":[4.04103,51.48305]}},{"type":"Feature","properties":{"Naam":"QinO Benelux B.V.","Organisatie":"QinO Benelux B.V.","Soort zorg":"onbekend","Huisnummer":"6","Postcode":"4337LG","Plaats":"Middelburg","IsMainBranch":true},"geometry":{"type":"Point","coordinates":[3.615,51.49344]}},{"type":"Feature","properties":{"Naam":"Hervormde Stichting \"Sonneburgh\"","Organisatie":"Hervormde Stichting \"Sonneburgh\"","Soort zorg":"Verzorgingshuizen","Huisnummer":"381","Postcode":"3084LM","Plaats":"Rotterdam","IsMainBranch":true},"geometry":{"type":"Point","coordinates":[4.45703,51.87412]}},{"type":"Feature","properties":{"Naam":"Herv St Sonneburgh, locatie Groene Kruisweg","Organisatie":"Hervormde Stichting \"Sonneburgh\"","Soort zorg":"Verzorgingshuizen","Huisnummer":"269","Postcode":"3084LM","Plaats":"Rotterdam"},"geometry":{"type":"Point","coordinates":[4.45739,51.87469]}},{"type":"Feature","properties":{"Naam":"Sonneburgh, locatie Ravenswaard","Organisatie":"Hervormde Stichting \"Sonneburgh\"","Soort zorg":"Verzorgingshuizen","Huisnummer":"5","Postcode":"3078PG","Plaats":"Rotterdam"},"geometry":{"type":"Point","coordinates":[4.54434,51.88835]}},{"type":"Feature","properties":{"Naam":"Waardeburgh Vastgoed","Organisatie":"Stichting Waardeburgh Vastgoed","Soort zorg":"onbekend","Huisnummer":"12","Postcode":"3363EL","Plaats":"Sliedrecht","IsMainBranch":true},"geometry":{"type":"Point","coordinates":[4.77232,51.82451]}},{"type":"Feature","properties":{"Naam":"Het Theehuis","Organisatie":"Stichting Het Spectrum","Soort zorg":"onbekend","Huisnummer":"1j","Postcode":"3328GA","Plaats":"Dordrecht"},"geometry":{"type":"Point","coordinates":[4.67738,51.78114]}},{"type":"Feature","properties":{"Naam":"Het Stadswiel","Organisatie":"Stichting Het Spectrum","Soort zorg":"onbekend","Huisnummer":"69","Postcode":"3311GB","Plaats":"Dordrecht"},"geometry":{"type":"Point","coordinates":[4.66615,51.81048]}},{"type":"Feature","properties":{"Naam":"Verpleeghuis De Sterrenlanden","Organisatie":"Stichting Het Spectrum","Soort zorg":"Verpleeghuizen","Huisnummer":"4","Postcode":"3328HN","Plaats":"Dordrecht","IsMainBranch":true},"geometry":{"type":"Point","coordinates":[4.68579,51.78293]}},{"type":"Feature","properties":{"Naam":"Zorgcentrum Vreedonk","Organisatie":"Stichting Het Spectrum","Soort zorg":"Verpleeghuizen","Huisnummer":"2","Postcode":"3317HS","Plaats":"Dordrecht"},"geometry":{"type":"Point","coordinates":[4.67234,51.79739]}},{"type":"Feature","properties":{"Naam":"Het Waterwiel","Organisatie":"Stichting Het Spectrum","Soort zorg":"Verzorgingshuizen","Huisnummer":"700","Postcode":"3317NJ","Plaats":"Dordrecht"},"geometry":{"type":"Point","coordinates":[4.65527,51.792]}},{"type":"Feature","properties":{"Naam":"Het Sterrenwiel","Organisatie":"Stichting Het Spectrum","Soort zorg":"Verzorgingshuizen","Huisnummer":"80","Postcode":"3318DA","Plaats":"Dordrecht"},"geometry":{"type":"Point","coordinates":[4.67792,51.78471]}},{"type":"Feature","properties":{"Naam":"Hospice De Patio","Organisatie":"Stichting Het Spectrum","Soort zorg":"Verzorgingshuizen","Huisnummer":"50","Postcode":"3314JE","Plaats":"Dordrecht"},"geometry":{"type":"Point","coordinates":[4.66908,51.80633]}},{"type":"Feature","properties":{"Naam":"Derma Rijnmond","Organisatie":"Praktijk Prof. Stolz","Soort zorg":"onbekend","Huisnummer":"14g","Postcode":"3011XH","Plaats":"Rotterdam","IsMainBranch":true},"geometry":{"type":"Point","coordinates":[4.48588,51.91625]}},{"type":"Feature","properties":{"Naam":"Stichting Kinderplein","Organisatie":"Stichting Kinderplein","Soort zorg":"onbekend","Huisnummer":"88","Postcode":"3083BB","Plaats":"Rotterdam","IsMainBranch":true},"geometry":{"type":"Point","coordinates":[4.48836,51.88595]}},{"type":"Feature","properties":{"Naam":"Catharina Stichting","Organisatie":"Catharina Stichting","Soort zorg":"Verzorgingshuizen","Huisnummer":"7","Postcode":"3235AE","Plaats":"Rockanje","IsMainBranch":true},"geometry":{"type":"Point","coordinates":[4.06834,51.87454]}},{"type":"Feature","properties":{"Naam":"Woonzorgcentrum Stuifakkers","Organisatie":"Catharina Stichting","Soort zorg":"Verzorgingshuizen","Huisnummer":"2","Postcode":"3235DZ","Plaats":"Rockanje"},"geometry":{"type":"Point","coordinates":[4.06626,51.87419]}},{"type":"Feature","properties":{"Naam":"de Bollaarshoeve","Organisatie":"Catharina Stichting","Soort zorg":"Verpleeghuizen","Huisnummer":"1","Postcode":"3233LB","Plaats":"Oostvoorne"},"geometry":{"type":"Point","coordinates":[4.13623,51.92427]}},{"type":"Feature","properties":{"Naam":"Catharina Gasthuis","Organisatie":"Catharina Stichting","Soort zorg":"Verzorgingshuizen","Huisnummer":"37","Postcode":"3231AP","Plaats":"Brielle"},"geometry":{"type":"Point","coordinates":[4.16831,51.90522]}},{"type":"Feature","properties":{"Naam":"A&G Thuiszorgbureau","Organisatie":"A&G Thuiszorgbureau","Soort zorg":"onbekend","Huisnummer":"135a","Postcode":"3082LH","Plaats":"Rotterdam","IsMainBranch":true},"geometry":{"type":"Point","coordinates":[4.47148,51.88735]}},{"type":"Feature","properties":{"Naam":"Centrum Gouwestein","Organisatie":"SZMH","Soort zorg":"Verpleeghuizen, Verzorgingshuizen","Huisnummer":"7","Postcode":"2801AA","Plaats":"Gouda","Routekaart":"Voorlopig","Ambitie":"EM ingepland"},"geometry":{"type":"Point","coordinates":[4.70045,52.01422]}},{"type":"Feature","properties":{"Naam":"Centrum Slothoven","Organisatie":"SZMH","Soort zorg":"Verpleeghuizen, Verzorgingshuizen","Huisnummer":"23","Postcode":"2861DV","Plaats":"Bergambacht","Routekaart":"Voorlopig","Ambitie":"EM ingepland"},"geometry":{"type":"Point","coordinates":[4.7844,51.92871]}},{"type":"Feature","properties":{"Naam":"Centrum Karnemelksloot","Organisatie":"SZMH","Soort zorg":"Verpleeghuizen, Verzorgingshuizen","Huisnummer":"6a","Postcode":"2806WP","Plaats":"Gouda","Routekaart":"Voorlopig","Ambitie":"EM ingepland"},"geometry":{"type":"Point","coordinates":[4.71863,52.0132]}},{"type":"Feature","properties":{"Naam":"Centrum Geerestein","Organisatie":"SZMH","Soort zorg":"Verpleeghuizen, Verzorgingshuizen","Huisnummer":"8","Postcode":"2935BB","Plaats":"Ouderkerk aan den IJssel","Routekaart":"Voorlopig","Ambitie":"EM ingepland"},"geometry":{"type":"Point","coordinates":[4.63725,51.93564]}},{"type":"Feature","properties":{"Naam":"Centrum Sola Gratia","Organisatie":"SZMH","Soort zorg":"Verpleeghuizen, Verzorgingshuizen","Huisnummer":"1","Postcode":"2871GA","Plaats":"Schoonhoven","Routekaart":"Voorlopig","Ambitie":"EM ingepland"},"geometry":{"type":"Point","coordinates":[4.844,51.94795]}},{"type":"Feature","properties":{"Naam":"Centrum Prinsenhof","Organisatie":"SZMH","Soort zorg":"Verpleeghuizen, Verzorgingshuizen","Huisnummer":"10","Postcode":"2804TL","Plaats":"Gouda","Routekaart":"Voorlopig","Ambitie":"EM ingepland"},"geometry":{"type":"Point","coordinates":[4.70799,52.02748]}},{"type":"Feature","properties":{"Naam":"Zorgpartners Thuiszorg","Organisatie":"SZMH","Soort zorg":"onbekend","Huisnummer":"140","Postcode":"2803ZR","Plaats":"Gouda","Routekaart":"Voorlopig","Ambitie":"EM ingepland"},"geometry":{"type":"Point","coordinates":[4.70714,52.01971]}},{"type":"Feature","properties":{"Naam":"De Ronsseveste","Organisatie":"SZMH","Soort zorg":"Verpleeghuizen, Verzorgingshuizen","Huisnummer":"242","Postcode":"2803ZX","Plaats":"Gouda","Routekaart":"Voorlopig","Ambitie":"EM ingepland","IsMainBranch":true},"geometry":{"type":"Point","coordinates":[4.70724,52.01926]}},{"type":"Feature","properties":{"Naam":"Centrum De Breeje Hendrick","Organisatie":"SZMH","Soort zorg":"Verpleeghuizen, Verzorgingshuizen","Huisnummer":"1","Postcode":"2941TN","Plaats":"Lekkerkerk","Routekaart":"Voorlopig","Ambitie":"EM ingepland"},"geometry":{"type":"Point","coordinates":[4.67998,51.89673]}},{"type":"Feature","properties":{"Naam":"Centrum De Waterpoort","Organisatie":"SZMH","Soort zorg":"Verpleeghuizen, Verzorgingshuizen","Huisnummer":"182","Postcode":"2931EC","Plaats":"Krimpen aan de Lek","Routekaart":"Voorlopig","Ambitie":"EM ingepland"},"geometry":{"type":"Point","coordinates":[4.62824,51.89388]}},{"type":"Feature","properties":{"Naam":"Ronssehof/ Ronssehof Revalidatie","Organisatie":"SZMH","Soort zorg":"Verpleeghuizen, Verzorgingshuizen","Huisnummer":"410","Postcode":"2803ZX","Plaats":"Gouda","Routekaart":"Voorlopig","Ambitie":"EM ingepland"},"geometry":{"type":"Point","coordinates":[4.70555,52.01928]}},{"type":"Feature","properties":{"Naam":"Centrum Irishof","Organisatie":"SZMH","Soort zorg":"Verpleeghuizen, Verzorgingshuizen","Huisnummer":"266","Postcode":"2807GV","Plaats":"Gouda","Routekaart":"Voorlopig","Ambitie":"EM ingepland"},"geometry":{"type":"Point","coordinates":[4.74252,52.01159]}},{"type":"Feature","properties":{"Naam":"Centrum De Hanepraij","Organisatie":"SZMH","Soort zorg":"Verpleeghuizen, Verzorgingshuizen","Huisnummer":"110","Postcode":"2806CH","Plaats":"Gouda","Routekaart":"Voorlopig","Ambitie":"EM ingepland"},"geometry":{"type":"Point","coordinates":[4.71835,52.00779]}},{"type":"Feature","properties":{"Naam":"Centrum Souburgh","Organisatie":"SZMH","Soort zorg":"Verpleeghuizen, Verzorgingshuizen","Huisnummer":"2","Postcode":"2741DW","Plaats":"Waddinxveen","Routekaart":"Voorlopig","Ambitie":"EM ingepland"},"geometry":{"type":"Point","coordinates":[4.65329,52.04612]}},{"type":"Feature","properties":{"Naam":"Centrum Moerdregt","Organisatie":"SZMH","Soort zorg":"Verpleeghuizen, Verzorgingshuizen","Huisnummer":"3","Postcode":"2841NA","Plaats":"Moordrecht","Routekaart":"Voorlopig","Ambitie":"EM ingepland"},"geometry":{"type":"Point","coordinates":[4.66665,51.98935]}},{"type":"Feature","properties":{"Naam":"Verpleeghuis Bloemendaal","Organisatie":"SZMH","Soort zorg":"Verpleeghuizen, Verzorgingshuizen","Huisnummer":"54","Postcode":"2803EL","Plaats":"Gouda","Routekaart":"Voorlopig","Ambitie":"EM ingepland"},"geometry":{"type":"Point","coordinates":[4.70487,52.0246]}},{"type":"Feature","properties":{"Naam":"Centrum Floravita","Organisatie":"SZMH","Soort zorg":"Verpleeghuizen, Verzorgingshuizen","Huisnummer":"4","Postcode":"2771VP","Plaats":"Boskoop","Routekaart":"Voorlopig","Ambitie":"EM ingepland"},"geometry":{"type":"Point","coordinates":[4.6466,52.0742]}},{"type":"Feature","properties":{"Naam":"G. Blokland v.o.f.","Organisatie":"G. Blokland v.o.f.","Soort zorg":"onbekend","Huisnummer":"116","Postcode":"2821XZ","Plaats":"Stolwijk","IsMainBranch":true},"geometry":{"type":"Point","coordinates":[4.79946,51.97582]}},{"type":"Feature","properties":{"Naam":"Het Zonnehuis","Organisatie":"Het Zonnehuis","Soort zorg":"Verpleeghuizen","Huisnummer":"5","Postcode":"3136EA","Plaats":"Vlaardingen","IsMainBranch":true},"geometry":{"type":"Point","coordinates":[4.35069,51.92489]}},{"type":"Feature","properties":{"Naam":"De Laurenburg","Organisatie":"Het Zonnehuis","Soort zorg":"Verzorgingshuizen","Huisnummer":"7","Postcode":"3136EA","Plaats":"Vlaardingen"},"geometry":{"type":"Point","coordinates":[4.34984,51.92471]}},{"type":"Feature","properties":{"Naam":"Drieën-Huysen Zuid","Organisatie":"Het Zonnehuis","Soort zorg":"Verpleeghuizen","Huisnummer":"100","Postcode":"3136CZ","Plaats":"Vlaardingen"},"geometry":{"type":"Point","coordinates":[4.34203,51.92921]}},{"type":"Feature","properties":{"Naam":"Adriaan Pauw","Organisatie":"Het Zonnehuis","Soort zorg":"Verzorgingshuizen","Huisnummer":"1383","Postcode":"3135BK","Plaats":"Vlaardingen"},"geometry":{"type":"Point","coordinates":[4.36061,51.9144]}},{"type":"Feature","properties":{"Naam":"RMC/Van Ballegooijen","Organisatie":"Taxibedrijf Van Ballegooijen Spijkenisse B.V.","Soort zorg":"onbekend","Huisnummer":"5b","Postcode":"3201VB","Plaats":"Spijkenisse","IsMainBranch":true},"geometry":{"type":"Point","coordinates":[4.32776,51.84549]}},{"type":"Feature","properties":{"Naam":"De Buitensluis","Organisatie":"Stichting Alerimus","Soort zorg":"Verpleeghuizen, Verzorgingshuizen","Huisnummer":"25","Postcode":"3281BC","Plaats":"Numansdorp","IsMainBranch":true},"geometry":{"type":"Point","coordinates":[4.43385,51.73013]}},{"type":"Feature","properties":{"Naam":"Woonstede het Spectrum","Organisatie":"Stg ZVGO","Soort zorg":"Verzorgingshuizen","Huisnummer":"67","Postcode":"3251AA","Plaats":"Stellendam"},"geometry":{"type":"Point","coordinates":[4.02303,51.807]}},{"type":"Feature","properties":{"Naam":"Woonstede het Spectrum","Organisatie":"Stg ZVGO","Soort zorg":"Verzorgingshuizen","Huisnummer":"27","Postcode":"3251AA","Plaats":"Stellendam"},"geometry":{"type":"Point","coordinates":[4.02344,51.80675]}},{"type":"Feature","properties":{"Naam":"Woonstede het Spectrum","Organisatie":"Stg ZVGO","Soort zorg":"Verzorgingshuizen","Huisnummer":"29","Postcode":"3251AA","Plaats":"Stellendam"},"geometry":{"type":"Point","coordinates":[4.02336,51.80679]}},{"type":"Feature","properties":{"Naam":"Woonstede het Spectrum","Organisatie":"Stg ZVGO","Soort zorg":"Verzorgingshuizen","Huisnummer":"31","Postcode":"3251AA","Plaats":"Stellendam"},"geometry":{"type":"Point","coordinates":[4.02329,51.80684]}},{"type":"Feature","properties":{"Naam":"Woonstede het Spectrum","Organisatie":"Stg ZVGO","Soort zorg":"Verzorgingshuizen","Huisnummer":"33","Postcode":"3251AA","Plaats":"Stellendam"},"geometry":{"type":"Point","coordinates":[4.02322,51.80688]}},{"type":"Feature","properties":{"Naam":"Woonstede het Spectrum","Organisatie":"Stg ZVGO","Soort zorg":"Verzorgingshuizen","Huisnummer":"35","Postcode":"3251AA","Plaats":"Stellendam"},"geometry":{"type":"Point","coordinates":[4.02314,51.80693]}},{"type":"Feature","properties":{"Naam":"CuraMare Behandeling","Organisatie":"Stg ZVGO","Soort zorg":"Verzorgingshuizen","Huisnummer":"273","Postcode":"3245VP","Plaats":"Sommelsdijk"},"geometry":{"type":"Point","coordinates":[4.15664,51.75261]}},{"type":"Feature","properties":{"Naam":"Stg ZVGO","Organisatie":"Stg ZVGO","Soort zorg":"Verzorgingshuizen","Huisnummer":"22","Postcode":"3247BW","Plaats":"Dirksland","IsMainBranch":true},"geometry":{"type":"Point","coordinates":[4.10199,51.75039]}},{"type":"Feature","properties":{"Naam":"Zorgcentrum Geldershof","Organisatie":"Stg ZVGO","Soort zorg":"Verzorgingshuizen","Huisnummer":"2","Postcode":"3247KE","Plaats":"Dirksland"},"geometry":{"type":"Point","coordinates":[4.10299,51.74558]}},{"type":"Feature","properties":{"Naam":"Zorgsteunpunt Nieuwstraat","Organisatie":"Stg ZVGO","Soort zorg":"Verzorgingshuizen","Huisnummer":"56","Postcode":"3241CL","Plaats":"Middelharnis"},"geometry":{"type":"Point","coordinates":[4.16292,51.76001]}},{"type":"Feature","properties":{"Naam":"De Vliedberg","Organisatie":"Stg ZVGO","Soort zorg":"Verzorgingshuizen","Huisnummer":"100","Postcode":"3253VT","Plaats":"Ouddorp"},"geometry":{"type":"Point","coordinates":[3.93818,51.81416]}},{"type":"Feature","properties":{"Naam":"Nieuw Rijsenburgh","Organisatie":"Stg ZVGO","Soort zorg":"Verzorgingshuizen","Huisnummer":"271","Postcode":"3245VP","Plaats":"Sommelsdijk"},"geometry":{"type":"Point","coordinates":[4.15683,51.75279]}},{"type":"Feature","properties":{"Naam":"ASVZ","Organisatie":"ASVZ","Soort zorg":"onbekend","Huisnummer":"9","Postcode":"5076ND","Plaats":"Haaren","Routekaart":"Voorlopig","Ambitie":"Route tot 2030"},"geometry":{"type":"Point","coordinates":[5.20404,51.58967]}},{"type":"Feature","properties":{"Naam":"A-Vastgoed Zorg B.V.","Organisatie":"A-Vastgoed Zorg B.V.","Soort zorg":"onbekend","Huisnummer":"7","Postcode":"2803PB","Plaats":"Gouda","IsMainBranch":true},"geometry":{"type":"Point","coordinates":[4.68733,52.02064]}},{"type":"Feature","properties":{"Naam":"Kraamzorg De Drechtstromen","Organisatie":"Kraamzorg De Drechtstromen","Soort zorg":"onbekend","Huisnummer":"18","Postcode":"3351EC","Plaats":"Papendrecht","IsMainBranch":true},"geometry":{"type":"Point","coordinates":[4.67391,51.83227]}},{"type":"Feature","properties":{"Naam":"Zorgcentrum Hooge-Werf","Organisatie":"Stichting Argos Zorggroep","Soort zorg":"onbekend","Huisnummer":"2","Postcode":"3171BJ","Plaats":"Poortugaal"},"geometry":{"type":"Point","coordinates":[4.39237,51.85542]}},{"type":"Feature","properties":{"Naam":"Zorgcentrum François Haverschmidt","Organisatie":"Stichting Argos Zorggroep","Soort zorg":"onbekend","Huisnummer":"35","Postcode":"3116HW","Plaats":"Schiedam"},"geometry":{"type":"Point","coordinates":[4.39669,51.90775]}},{"type":"Feature","properties":{"Naam":"Stichting Argos Zorggroep","Organisatie":"Stichting Argos Zorggroep","Soort zorg":"Verpleeghuizen","Huisnummer":"35","Postcode":"3123AX","Plaats":"Schiedam","IsMainBranch":true},"geometry":{"type":"Point","coordinates":[4.36507,51.93931]}},{"type":"Feature","properties":{"Naam":"Geriatrisch Centrum De Es","Organisatie":"Stichting Argos Zorggroep","Soort zorg":"onbekend","Huisnummer":"1","Postcode":"3203LH","Plaats":"Spijkenisse"},