{
"type": "FeatureCollection",
"crs": { "type": "name", "properties": { "name": "urn:ogc:def:crs:OGC:1.3:CRS84" } },
"features": [
{ "type": "Feature", "properties": { "Naam": "Woonzorgvoorziening \"de Meerenburgh\"", "Organisatie": "CV Woonzorgvoorziening \"de Meerenburgh\"", "Soort zorg": "Verzorgingshuizen", "Huisnummer": "10", "Postcode": "6615AA", "Plaats": "Leur", "Concept ingeleverd": null }, "geometry": { "type": "Point", "coordinates": [ 5.699210410625564, 51.826590600399065 ] } },
{ "type": "Feature", "properties": { "Naam": "Stichting Kalorama", "Organisatie": "Stichting Kalorama", "Soort zorg": "Verpleeghuizen", "Huisnummer": "12", "Postcode": "6573DX", "Plaats": "Beek", "Concept ingeleverd": null }, "geometry": { "type": "Point", "coordinates": [ 5.921510937877004, 51.827388661046825 ] } },
{ "type": "Feature", "properties": { "Naam": "Hospice Bethlehem", "Organisatie": "Stichting Kalorama", "Soort zorg": "Verpleeghuizen", "Huisnummer": "10", "Postcode": "6511TR", "Plaats": "Nijmegen", "Concept ingeleverd": null }, "geometry": { "type": "Point", "coordinates": [ 5.867726567619795, 51.848285807058595 ] } },
{ "type": "Feature", "properties": { "Naam": "Verzorgingshuis 't Höfke", "Organisatie": "Stichting Kalorama", "Soort zorg": "Verpleeghuizen", "Huisnummer": "6", "Postcode": "6573BV", "Plaats": "Beek", "Concept ingeleverd": null }, "geometry": { "type": "Point", "coordinates": [ 5.924842769508674, 51.83064526263184 ] } },
{ "type": "Feature", "properties": { "Naam": "Kulturhus", "Organisatie": "Stichting Kalorama", "Soort zorg": "Verpleeghuizen", "Huisnummer": "6e", "Postcode": "6573BH", "Plaats": "Beek", "Concept ingeleverd": null }, "geometry": { "type": "Point", "coordinates": [ 5.928955727612927, 51.831255539658152 ] } },
{ "type": "Feature", "properties": { "Naam": "Veste Brakkenstein", "Organisatie": "Stichting Kalorama", "Soort zorg": "Verpleeghuizen", "Huisnummer": "376", "Postcode": "6525PP", "Plaats": "Nijmegen", "Concept ingeleverd": null }, "geometry": { "type": "Point", "coordinates": [ 5.870462360331398, 51.812464424440655 ] } },
{ "type": "Feature", "properties": { "Naam": "Zorgcentrum 't Slot", "Organisatie": "Stichting Zorgcentrum 't Slot", "Soort zorg": "Verpleeghuizen, Verzorgingshuizen", "Huisnummer": "1", "Postcode": "5311CM", "Plaats": "Gameren", "Concept ingeleverd": null }, "geometry": { "type": "Point", "coordinates": [ 5.201642133116434, 51.802069374859748 ] } },
{ "type": "Feature", "properties": { "Naam": "Zorgcentra De Betuwe\/Oranjehof", "Organisatie": "Zorgcentra De Betuwe", "Soort zorg": "Verpleeghuizen", "Huisnummer": "1", "Postcode": "4116DJ", "Plaats": "Buren", "Concept ingeleverd": null }, "geometry": { "type": "Point", "coordinates": [ 5.328482475541072, 51.915876577198958 ] } },
{ "type": "Feature", "properties": { "Naam": "Zorgcentra De Betuwe\/ Zorgcentrum Kulenburg", "Organisatie": "Zorgcentra De Betuwe", "Soort zorg": "Verpleeghuizen", "Huisnummer": "2", "Postcode": "4102DH", "Plaats": "Culemborg", "Concept ingeleverd": null }, "geometry": { "type": "Point", "coordinates": [ 5.230479494572746, 51.952090411782635 ] } },
{ "type": "Feature", "properties": { "Naam": "Zorgcentra De Betuwe\/De Valentijn", "Organisatie": "Zorgcentra De Betuwe", "Soort zorg": "Verzorgingshuizen", "Huisnummer": "84", "Postcode": "4021HN", "Plaats": "Maurik", "Concept ingeleverd": null }, "geometry": { "type": "Point", "coordinates": [ 5.429353905085521, 51.962757152656238 ] } },
{ "type": "Feature", "properties": { "Naam": "Zorgcentra De Betuwe\/Zorgcentrum Beatrix", "Organisatie": "Zorgcentra De Betuwe", "Soort zorg": "Verpleeghuizen", "Huisnummer": "20", "Postcode": "4101HK", "Plaats": "Culemborg", "Concept ingeleverd": null }, "geometry": { "type": "Point", "coordinates": [ 5.234519554274476, 51.95750663046018 ] } },
{ "type": "Feature", "properties": { "Naam": "Zorgcentra De Betuwe\/Huize Appelenburg", "Organisatie": "Zorgcentra De Betuwe", "Soort zorg": "Verpleeghuizen", "Huisnummer": "18", "Postcode": "6669AG", "Plaats": "Dodewaard", "Concept ingeleverd": null }, "geometry": { "type": "Point", "coordinates": [ 5.658053165774777, 51.910347472249768 ] } },
{ "type": "Feature", "properties": { "Naam": "Zorgcentra De Betuwe\/Zorgcentrum Elim", "Organisatie": "Zorgcentra De Betuwe", "Soort zorg": "Verpleeghuizen", "Huisnummer": "2", "Postcode": "4051AK", "Plaats": "Ochten", "Concept ingeleverd": null }, "geometry": { "type": "Point", "coordinates": [ 5.56368817226725, 51.906033080035144 ] } },
{ "type": "Feature", "properties": { "Naam": "Zorgcentra De Betuwe\/De Troelstrahof", "Organisatie": "Zorgcentra De Betuwe", "Soort zorg": "Verpleeghuizen", "Huisnummer": "5", "Postcode": "4102EP", "Plaats": "Culemborg", "Concept ingeleverd": null }, "geometry": { "type": "Point", "coordinates": [ 5.242830451147936, 51.951773643695155 ] } },
{ "type": "Feature", "properties": { "Naam": "Zorgcentra De Betuwe\/De Betuwehoeve", "Organisatie": "Zorgcentra De Betuwe", "Soort zorg": "Verpleeghuizen", "Huisnummer": "1", "Postcode": "4103VL", "Plaats": "Culemborg", "Concept ingeleverd": null }, "geometry": { "type": "Point", "coordinates": [ 5.230034347596519, 51.94627443431763 ] } },
{ "type": "Feature", "properties": { "Naam": "Zorgcentra De Betuwe\/Zorgcentrum Lingewaarde", "Organisatie": "Zorgcentra De Betuwe", "Soort zorg": "Verpleeghuizen", "Huisnummer": "2", "Postcode": "4002AG", "Plaats": "Tiel", "Concept ingeleverd": null }, "geometry": { "type": "Point", "coordinates": [ 5.424976293411323, 51.896146806255707 ] } },
{ "type": "Feature", "properties": { "Naam": "Rivas locatie Het Gasthuis", "Organisatie": "Stichting Rivas Zorggroep", "Soort zorg": "Verpleeghuizen", "Huisnummer": "61", "Postcode": "4204AA", "Plaats": "Gorinchem", "Concept ingeleverd": null }, "geometry": { "type": "Point", "coordinates": [ 4.956136116652146, 51.8394816710071 ] } },
{ "type": "Feature", "properties": { "Naam": "Rivas locatie Tiendwaert", "Organisatie": "Stichting Rivas Zorggroep", "Soort zorg": "Verpleeghuizen", "Huisnummer": "2", "Postcode": "3371TE", "Plaats": "Hardinxveld-Giessendam", "Concept ingeleverd": null }, "geometry": { "type": "Point", "coordinates": [ 4.823187386295635, 51.823691718541056 ] } },
{ "type": "Feature", "properties": { "Naam": "Rivas locatie Waellant Oievaar", "Organisatie": "Stichting Rivas Zorggroep", "Soort zorg": "Verpleeghuizen", "Huisnummer": "16", "Postcode": "2957NH", "Plaats": "Nieuw-Lekkerland", "Concept ingeleverd": null }, "geometry": { "type": "Point", "coordinates": [ 4.67817030051855, 51.885906555334145 ] } },
{ "type": "Feature", "properties": { "Naam": "Rivas locatie Waellant Oievaar", "Organisatie": "Stichting Rivas Zorggroep", "Soort zorg": "Verpleeghuizen", "Huisnummer": "154", "Postcode": "2957NH", "Plaats": "Nieuw-Lekkerland", "Concept ingeleverd": null }, "geometry": { "type": "Point", "coordinates": [ 4.677203283660668, 51.885514206079961 ] } },
{ "type": "Feature", "properties": { "Naam": "Rivas locatie De Waalburcht", "Organisatie": "Stichting Rivas Zorggroep", "Soort zorg": "Verpleeghuizen", "Huisnummer": "6", "Postcode": "3353BT", "Plaats": "Papendrecht", "Concept ingeleverd": null }, "geometry": { "type": "Point", "coordinates": [ 4.688942592639487, 51.825423778339506 ] } },
{ "type": "Feature", "properties": { "Naam": "Rivas locatie Waerthove", "Organisatie": "Stichting Rivas Zorggroep", "Soort zorg": "Verpleeghuizen", "Huisnummer": "200", "Postcode": "3361BM", "Plaats": "Sliedrecht", "Concept ingeleverd": null }, "geometry": { "type": "Point", "coordinates": [ 4.768251290759366, 51.822965461531481 ] } },
{ "type": "Feature", "properties": { "Naam": "Rivas locatie Bannehof", "Organisatie": "Stichting Rivas Zorggroep", "Soort zorg": "Verzorgingshuizen", "Huisnummer": "169", "Postcode": "4204RH", "Plaats": "Gorinchem", "Concept ingeleverd": null }, "geometry": { "type": "Point", "coordinates": [ 4.959440477675122, 51.833786086722675 ] } },
{ "type": "Feature", "properties": { "Naam": "Rivas locatie Waellant Ooievaar", "Organisatie": "Stichting Rivas Zorggroep", "Soort zorg": "Verpleeghuizen", "Huisnummer": "12", "Postcode": "2957NH", "Plaats": "Nieuw-Lekkerland", "Concept ingeleverd": null }, "geometry": { "type": "Point", "coordinates": [ 4.678082305799824, 51.885959955774929 ] } },
{ "type": "Feature", "properties": { "Naam": "Rivas locatie Waellant Oievaar", "Organisatie": "Stichting Rivas Zorggroep", "Soort zorg": "Verpleeghuizen", "Huisnummer": "140", "Postcode": "2957NH", "Plaats": "Nieuw-Lekkerland", "Concept ingeleverd": null }, "geometry": { "type": "Point", "coordinates": [ 4.677214545403755, 51.885721011672295 ] } },
{ "type": "Feature", "properties": { "Naam": "Rivas locatie Vijverhof Vlietzicht", "Organisatie": "Stichting Rivas Zorggroep", "Soort zorg": "Verpleeghuizen", "Huisnummer": "9", "Postcode": "2965CG", "Plaats": "Nieuwpoort", "Concept ingeleverd": null }, "geometry": { "type": "Point", "coordinates": [ 4.87207294904838, 51.930016174389806 ] } },
{ "type": "Feature", "properties": { "Naam": "Rivas locatie Vijverhof Vlietzicht 14", "Organisatie": "Stichting Rivas Zorggroep", "Soort zorg": "Verpleeghuizen", "Huisnummer": "14", "Postcode": "2965CG", "Plaats": "Nieuwpoort", "Concept ingeleverd": null }, "geometry": { "type": "Point", "coordinates": [ 4.872129455902773, 51.930160236251687 ] } },
{ "type": "Feature", "properties": { "Naam": "Rivas locatie Kop van de IJsbaan", "Organisatie": "Stichting Rivas Zorggroep", "Soort zorg": "Verzorgingshuizen", "Huisnummer": "61a", "Postcode": "4206AG", "Plaats": "Gorinchem", "Concept ingeleverd": null }, "geometry": { "type": "Point", "coordinates": [ 4.983745304089186, 51.841521282418327 ] } },
{ "type": "Feature", "properties": { "Naam": "Rivas locatie Molenhoek", "Organisatie": "Stichting Rivas Zorggroep", "Soort zorg": "Verpleeghuizen", "Huisnummer": "113", "Postcode": "4201KS", "Plaats": "Gorinchem", "Concept ingeleverd": null }, "geometry": { "type": "Point", "coordinates": [ 4.976459477034913, 51.832121075152081 ] } },
{ "type": "Feature", "properties": { "Naam": "Rivas locatie Steijndeld", "Organisatie": "Stichting Rivas Zorggroep", "Soort zorg": "Verzorgingshuizen", "Huisnummer": "72", "Postcode": "4201KW", "Plaats": "Gorinchem", "Concept ingeleverd": null }, "geometry": { "type": "Point", "coordinates": [ 4.977012884332351, 51.831889310143758 ] } },
{ "type": "Feature", "properties": { "Naam": "Rivas locatie De Alblashof", "Organisatie": "Stichting Rivas Zorggroep", "Soort zorg": "Verpleeghuizen", "Huisnummer": "1", "Postcode": "2951XR", "Plaats": "Alblasserdam", "Concept ingeleverd": null }, "geometry": { "type": "Point", "coordinates": [ 4.665295649484717, 51.866304890907521 ] } },
{ "type": "Feature", "properties": { "Naam": "Rivas locatie Rembrandthof 4", "Organisatie": "Stichting Rivas Zorggroep", "Soort zorg": "Verpleeghuizen", "Huisnummer": "4", "Postcode": "3372XS", "Plaats": "Hardinxveld-Giessendam", "Concept ingeleverd": null }, "geometry": { "type": "Point", "coordinates": [ 4.884250530780297, 51.824041145469224 ] } },
{ "type": "Feature", "properties": { "Naam": "Rivas locatie Laakse hof", "Organisatie": "Stichting Rivas Zorggroep", "Soort zorg": "Verpleeghuizen", "Huisnummer": "31", "Postcode": "4128CA", "Plaats": "Lexmond", "Concept ingeleverd": null }, "geometry": { "type": "Point", "coordinates": [ 5.036017611086425, 51.961944290127505 ] } },
{ "type": "Feature", "properties": { "Naam": "Rivas locatie Vijverhof Vlietzicht", "Organisatie": "Stichting Rivas Zorggroep", "Soort zorg": "Verpleeghuizen", "Huisnummer": "3", "Postcode": "2965CG", "Plaats": "Nieuwpoort", "Concept ingeleverd": null }, "geometry": { "type": "Point", "coordinates": [ 4.872714303096808, 51.929875168184836 ] } },
{ "type": "Feature", "properties": { "Naam": "Rivas locatie Vijverhof Vlietzicht", "Organisatie": "Stichting Rivas Zorggroep", "Soort zorg": "Verpleeghuizen", "Huisnummer": "7", "Postcode": "2965CG", "Plaats": "Nieuwpoort", "Concept ingeleverd": null }, "geometry": { "type": "Point", "coordinates": [ 4.872409709863669, 51.929810916225215 ] } },
{ "type": "Feature", "properties": { "Naam": "Rivas locatie De Wieken", "Organisatie": "Stichting Rivas Zorggroep", "Soort zorg": "Verpleeghuizen, Verzorgingshuizen", "Huisnummer": "1", "Postcode": "3351HB", "Plaats": "Papendrecht", "Concept ingeleverd": null }, "geometry": { "type": "Point", "coordinates": [ 4.685210255001145, 51.828493610375531 ] } },
{ "type": "Feature", "properties": { "Naam": "Rivas locatie 7e Bastion", "Organisatie": "Stichting Rivas Zorggroep", "Soort zorg": "Verzorgingshuizen", "Huisnummer": "52", "Postcode": "4201AR", "Plaats": "Gorinchem", "Concept ingeleverd": null }, "geometry": { "type": "Point", "coordinates": [ 4.97754959537677, 51.827109326977492 ] } },
{ "type": "Feature", "properties": { "Naam": "Rivas locatie Waellant Oievaar", "Organisatie": "Stichting Rivas Zorggroep", "Soort zorg": "Verpleeghuizen", "Huisnummer": "12a", "Postcode": "2957NH", "Plaats": "Nieuw-Lekkerland", "Concept ingeleverd": null }, "geometry": { "type": "Point", "coordinates": [ 4.678111637395948, 51.885942155635441 ] } },
{ "type": "Feature", "properties": { "Naam": "Rivas locatie De Merlingen Dr. de Vriesplein", "Organisatie": "Stichting Rivas Zorggroep", "Soort zorg": "Verpleeghuizen", "Huisnummer": "7", "Postcode": "4241BW", "Plaats": "Arkel", "Concept ingeleverd": null }, "geometry": { "type": "Point", "coordinates": [ 4.993557241218751, 51.864475053532132 ] } },
{ "type": "Feature", "properties": { "Naam": "Rivas locatie Zorghotel A. Schweitzerplaats", "Organisatie": "Stichting Rivas Zorggroep", "Soort zorg": "Verpleeghuizen", "Huisnummer": "20", "Postcode": "3318AT", "Plaats": "Dordrecht", "Concept ingeleverd": null }, "geometry": { "type": "Point", "coordinates": [ 4.682871519289215, 51.792488978554779 ] } },
{ "type": "Feature", "properties": { "Naam": "Rivas locatie St. Clara", "Organisatie": "Stichting Rivas Zorggroep", "Soort zorg": "Verzorgingshuizen", "Huisnummer": "6", "Postcode": "4204HK", "Plaats": "Gorinchem", "Concept ingeleverd": null }, "geometry": { "type": "Point", "coordinates": [ 4.957096579348017, 51.837669525475633 ] } },
{ "type": "Feature", "properties": { "Naam": "Rivas locatie Rembrandthof 2", "Organisatie": "Stichting Rivas Zorggroep", "Soort zorg": "Verpleeghuizen", "Huisnummer": "2", "Postcode": "3372XS", "Plaats": "Hardinxveld-Giessendam", "Concept ingeleverd": null }, "geometry": { "type": "Point", "coordinates": [ 4.884264734545683, 51.824068171852886 ] } },
{ "type": "Feature", "properties": { "Naam": "Rivas locatie Vijverhof Vlietzicht", "Organisatie": "Stichting Rivas Zorggroep", "Soort zorg": "Verpleeghuizen", "Huisnummer": "6", "Postcode": "2965CG", "Plaats": "Nieuwpoort", "Concept ingeleverd": null }, "geometry": { "type": "Point", "coordinates": [ 4.87226277751458, 51.929945098742913 ] } },
{ "type": "Feature", "properties": { "Naam": "Rivas locatie De Markt", "Organisatie": "Stichting Rivas Zorggroep", "Soort zorg": "Verzorgingshuizen", "Huisnummer": "24", "Postcode": "3351PB", "Plaats": "Papendrecht", "Concept ingeleverd": null }, "geometry": { "type": "Point", "coordinates": [ 4.682061369601301, 51.826694983899948 ] } },
{ "type": "Feature", "properties": { "Naam": "Rivas locatie De Merlingen Dr. Vriesplein 6", "Organisatie": "Stichting Rivas Zorggroep", "Soort zorg": "Verpleeghuizen", "Huisnummer": "6", "Postcode": "4241BW", "Plaats": "Arkel", "Concept ingeleverd": null }, "geometry": { "type": "Point", "coordinates": [ 4.993790547402058, 51.864358985818953 ] } },
{ "type": "Feature", "properties": { "Naam": "Rivas locatie De Schutse", "Organisatie": "Stichting Rivas Zorggroep", "Soort zorg": "Verzorgingshuizen", "Huisnummer": "14", "Postcode": "4205HA", "Plaats": "Gorinchem", "Concept ingeleverd": null }, "geometry": { "type": "Point", "coordinates": [ 4.963757590133513, 51.840641947218558 ] } },
{ "type": "Feature", "properties": { "Naam": "Rivas locatie Rembrandthof 6", "Organisatie": "Stichting Rivas Zorggroep", "Soort zorg": "Verpleeghuizen", "Huisnummer": "6", "Postcode": "3372XS", "Plaats": "Hardinxveld-Giessendam", "Concept ingeleverd": null }, "geometry": { "type": "Point", "coordinates": [ 4.884279640313052, 51.824032281678647 ] } },
{ "type": "Feature", "properties": { "Naam": "Rivas locatie Waellant Oievaar", "Organisatie": "Stichting Rivas Zorggroep", "Soort zorg": "Verpleeghuizen", "Huisnummer": "156", "Postcode": "2957NH", "Plaats": "Nieuw-Lekkerland", "Concept ingeleverd": null }, "geometry": { "type": "Point", "coordinates": [ 4.677462872300299, 51.885632626212455 ] } },
{ "type": "Feature", "properties": { "Naam": "Rivas locatie Vijverhof Vlietzicht", "Organisatie": "Stichting Rivas Zorggroep", "Soort zorg": "Verpleeghuizen", "Huisnummer": "117", "Postcode": "2965CG", "Plaats": "Nieuwpoort", "Concept ingeleverd": null }, "geometry": { "type": "Point", "coordinates": [ 4.872088518169803, 51.929926358652544 ] } },
{ "type": "Feature", "properties": { "Naam": "Rivas locatie Waellant Oievaar 12b", "Organisatie": "Stichting Rivas Zorggroep", "Soort zorg": "Verpleeghuizen", "Huisnummer": "12b", "Postcode": "2957NH", "Plaats": "Nieuw-Lekkerland", "Concept ingeleverd": null }, "geometry": { "type": "Point", "coordinates": [ 4.678140968968855, 51.885924355488505 ] } },
{ "type": "Feature", "properties": { "Naam": "Rivas locatie Vijverhof Vlietzicht", "Organisatie": "Stichting Rivas Zorggroep", "Soort zorg": "Verpleeghuizen", "Huisnummer": "8", "Postcode": "2965CG", "Plaats": "Nieuwpoort", "Concept ingeleverd": null }, "geometry": { "type": "Point", "coordinates": [ 4.872247414734342, 51.930016938616667 ] } },
{ "type": "Feature", "properties": { "Naam": "Stichting Zorgcentra Rivierenland", "Organisatie": "Stichting Zorgcentra Rivierenland", "Soort zorg": "Verpleeghuizen, Verzorgingshuizen", "Huisnummer": "49", "Postcode": "4003CA", "Plaats": "Tiel", "Concept ingeleverd": null }, "geometry": { "type": "Point", "coordinates": [ 5.411941529294331, 51.89100000681708 ] } },
{ "type": "Feature", "properties": { "Naam": "Schakelafdeling", "Organisatie": "Stichting Zorgcentra Rivierenland", "Soort zorg": "Verpleeghuizen, Verzorgingshuizen", "Huisnummer": "1", "Postcode": "4002WP", "Plaats": "Tiel", "Concept ingeleverd": null }, "geometry": { "type": "Point", "coordinates": [ 5.415572158174456, 51.889363312995016 ] } },
{ "type": "Feature", "properties": { "Naam": "Zorgcentrum Walstede", "Organisatie": "Stichting Zorgcentra Rivierenland", "Soort zorg": "Verpleeghuizen, Verzorgingshuizen", "Huisnummer": "48", "Postcode": "4001HE", "Plaats": "Tiel", "Concept ingeleverd": null }, "geometry": { "type": "Point", "coordinates": [ 5.432800293192917, 51.889492689221036 ] } },
{ "type": "Feature", "properties": { "Naam": "Westerhof", "Organisatie": "Stichting Zorgcentra Rivierenland", "Soort zorg": "Verpleeghuizen", "Huisnummer": "14", "Postcode": "4001RZ", "Plaats": "Tiel", "Concept ingeleverd": null }, "geometry": { "type": "Point", "coordinates": [ 5.427287672593606, 51.881450186006404 ] } },
{ "type": "Feature", "properties": { "Naam": "Zorgcentrum Ravestein", "Organisatie": "Stichting Zorgcentra Rivierenland", "Soort zorg": "Verpleeghuizen, Verzorgingshuizen", "Huisnummer": "11", "Postcode": "4191TS", "Plaats": "Geldermalsen", "Concept ingeleverd": null }, "geometry": { "type": "Point", "coordinates": [ 5.285761895297678, 51.87852817345636 ] } },
{ "type": "Feature", "properties": { "Naam": "Verpleeghuis st. Elisabeth", "Organisatie": "Stichting zorggroep Maas & Waal", "Soort zorg": "Verpleeghuizen", "Huisnummer": "10", "Postcode": "6658WX", "Plaats": "Beneden-Leeuwen", "Concept ingeleverd": null }, "geometry": { "type": "Point", "coordinates": [ 5.518713621697014, 51.881428215393278 ] } },
{ "type": "Feature", "properties": { "Naam": "Verpleeghuis Waelwick", "Organisatie": "Stichting zorggroep Maas & Waal", "Soort zorg": "Verzorgingshuizen", "Huisnummer": "1", "Postcode": "6644CP", "Plaats": "Ewijk", "Concept ingeleverd": null }, "geometry": { "type": "Point", "coordinates": [ 5.743269107125816, 51.87111953946102 ] } },
{ "type": "Feature", "properties": { "Naam": "Zorgcentrum Alde Steeg", "Organisatie": "Stichting zorggroep Maas & Waal", "Soort zorg": "Verzorgingshuizen", "Huisnummer": "1", "Postcode": "6641BG", "Plaats": "Beuningen Gld", "Concept ingeleverd": null }, "geometry": { "type": "Point", "coordinates": [ 5.771299436542708, 51.86331911955164 ] } },
{ "type": "Feature", "properties": { "Naam": "ZC De Kasteelhof", "Organisatie": "Stichting zorggroep Maas & Waal", "Soort zorg": "Verzorgingshuizen", "Huisnummer": "50", "Postcode": "6651VB", "Plaats": "Druten", "Concept ingeleverd": null }, "geometry": { "type": "Point", "coordinates": [ 5.606920129530606, 51.891291219229245 ] } },
{ "type": "Feature", "properties": { "Naam": "Zorgcentrum De Hey-Acker", "Organisatie": "Stichting zorggroep Maas & Waal", "Soort zorg": "Verzorgingshuizen", "Huisnummer": "37", "Postcode": "6658WT", "Plaats": "Beneden-Leeuwen", "Concept ingeleverd": null }, "geometry": { "type": "Point", "coordinates": [ 5.514610156114056, 51.878673333729253 ] } },
{ "type": "Feature", "properties": { "Naam": "ZC Huize Henricus", "Organisatie": "Stichting zorggroep Maas & Waal", "Soort zorg": "Verzorgingshuizen", "Huisnummer": "50", "Postcode": "6659CR", "Plaats": "Wamel", "Concept ingeleverd": null }, "geometry": { "type": "Point", "coordinates": [ 5.470101509896826, 51.880528881576474 ] } },
{ "type": "Feature", "properties": { "Naam": "verpleegunit De Hulsen", "Organisatie": "Stichting zorggroep Maas & Waal", "Soort zorg": "Verzorgingshuizen", "Huisnummer": "15", "Postcode": "6534AD", "Plaats": "Nijmegen", "Concept ingeleverd": null }, "geometry": { "type": "Point", "coordinates": [ 5.821109705086638, 51.821097573541522 ] } },
{ "type": "Feature", "properties": { "Naam": "De Wilgenhoeve B.V.", "Organisatie": "De Wilgenhoeve B.V.", "Soort zorg": "Verzorgingshuizen", "Huisnummer": "68", "Postcode": "4126RK", "Plaats": "Hei- en Boeicop", "Concept ingeleverd": null }, "geometry": { "type": "Point", "coordinates": [ 5.07727579063182, 51.945782453623018 ] } },
{ "type": "Feature", "properties": { "Naam": "Beukenhof", "Organisatie": "De Zorggroep", "Soort zorg": "Verpleeghuizen", "Huisnummer": "130", "Postcode": "5801CE", "Plaats": "Venray", "Concept ingeleverd": null }, "geometry": { "type": "Point", "coordinates": [ 5.959465273138162, 51.527212072931746 ] } },
{ "type": "Feature", "properties": { "Naam": "Broekstraat", "Organisatie": "De Zorggroep", "Soort zorg": "Verpleeghuizen, Verzorgingshuizen", "Huisnummer": "65", "Postcode": "5993BB", "Plaats": "Maasbree", "Concept ingeleverd": null }, "geometry": { "type": "Point", "coordinates": [ 6.051614589202159, 51.356168172702382 ] } },
{ "type": "Feature", "properties": { "Naam": "Rooyhof", "Organisatie": "De Zorggroep", "Soort zorg": "Verpleeghuizen", "Huisnummer": "67", "Postcode": "5802AT", "Plaats": "Venray", "Concept ingeleverd": null }, "geometry": { "type": "Point", "coordinates": [ 5.978239858179643, 51.522597180852664 ] } },
{ "type": "Feature", "properties": { "Naam": "Groepswoningen Blauwververstraat", "Organisatie": "De Zorggroep", "Soort zorg": "Verpleeghuizen", "Huisnummer": "15", "Postcode": "5801RP", "Plaats": "Venray", "Concept ingeleverd": null }, "geometry": { "type": "Point", "coordinates": [ 5.967348331092069, 51.518220310307981 ] } },
{ "type": "Feature", "properties": { "Naam": "Beukenrode", "Organisatie": "De Zorggroep", "Soort zorg": "Verpleeghuizen", "Huisnummer": "1", "Postcode": "5802CJ", "Plaats": "Venray", "Concept ingeleverd": null }, "geometry": { "type": "Point", "coordinates": [ 5.978177666833327, 51.522246931267553 ] } },
{ "type": "Feature", "properties": { "Naam": "Bösdael blok 1 Forum", "Organisatie": "De Zorggroep", "Soort zorg": "Verpleeghuizen, Verzorgingshuizen", "Huisnummer": "47", "Postcode": "5953BW", "Plaats": "Reuver", "Concept ingeleverd": null }, "geometry": { "type": "Point", "coordinates": [ 6.073603978158156, 51.287050038529294 ] } },
{ "type": "Feature", "properties": { "Naam": "Stichting Zorggroep Noord- en Midden-Limburg", "Organisatie": "De Zorggroep", "Soort zorg": "Verpleeghuizen, Verzorgingshuizen", "Huisnummer": "31", "Postcode": "5915PN", "Plaats": "Venlo", "Concept ingeleverd": null }, "geometry": { "type": "Point", "coordinates": [ 6.186026084506509, 51.341597584883559 ] } },
{ "type": "Feature", "properties": { "Naam": "WoonZorgcentrum Bosscherhof", "Organisatie": "De Zorggroep", "Soort zorg": "Verpleeghuizen, Verzorgingshuizen", "Huisnummer": "1", "Postcode": "6075HE", "Plaats": "Herkenbosch", "Concept ingeleverd": null }, "geometry": { "type": "Point", "coordinates": [ 6.061500582502577, 51.154388795589696 ] } },
{ "type": "Feature", "properties": { "Naam": "Eldershof", "Organisatie": "De Zorggroep", "Soort zorg": "Verpleeghuizen", "Huisnummer": "10", "Postcode": "5855AB", "Plaats": "Well L", "Concept ingeleverd": null }, "geometry": { "type": "Point", "coordinates": [ 6.096333237532902, 51.55002110368671 ] } },
{ "type": "Feature", "properties": { "Naam": "De Beerendonck", "Organisatie": "De Zorggroep", "Soort zorg": "Verpleeghuizen, Verzorgingshuizen", "Huisnummer": "8", "Postcode": "5911AD", "Plaats": "Venlo", "Concept ingeleverd": null }, "geometry": { "type": "Point", "coordinates": [ 6.177459242594757, 51.370717735168398 ] } },
{ "type": "Feature", "properties": { "Naam": "St. Julia", "Organisatie": "De Zorggroep", "Soort zorg": "Verpleeghuizen, Verzorgingshuizen", "Huisnummer": "6", "Postcode": "5931GT", "Plaats": "Tegelen", "Concept ingeleverd": null }, "geometry": { "type": "Point", "coordinates": [ 6.142429548500278, 51.346275129457709 ] } },
{ "type": "Feature", "properties": { "Naam": "Tollensstraat", "Organisatie": "De Zorggroep", "Soort zorg": "Verpleeghuizen", "Huisnummer": "45", "Postcode": "5921CB", "Plaats": "Venlo", "Concept ingeleverd": null }, "geometry": { "type": "Point", "coordinates": [ 6.138334440611344, 51.365214567813084 ] } },
{ "type": "Feature", "properties": { "Naam": "Meeuwbeemd", "Organisatie": "De Zorggroep", "Soort zorg": "Verpleeghuizen, Verzorgingshuizen", "Huisnummer": "4", "Postcode": "5914PW", "Plaats": "Venlo", "Concept ingeleverd": null }, "geometry": { "type": "Point", "coordinates": [ 6.172706733407498, 51.379127686270003 ] } },
{ "type": "Feature", "properties": { "Naam": "De Mulder", "Organisatie": "De Zorggroep", "Soort zorg": "Verpleeghuizen, Verzorgingshuizen", "Huisnummer": "68", "Postcode": "5801SJ", "Plaats": "Venray", "Concept ingeleverd": null }, "geometry": { "type": "Point", "coordinates": [ 5.96524996729418, 51.518626225524102 ] } },
{ "type": "Feature", "properties": { "Naam": "Zorgcentrum Bergh", "Organisatie": "De Zorggroep", "Soort zorg": "Verpleeghuizen, Verzorgingshuizen", "Huisnummer": "31", "Postcode": "6077BK", "Plaats": "Sint Odiliënberg", "Concept ingeleverd": null }, "geometry": { "type": "Point", "coordinates": [ 6.002531378525169, 51.14096306130196 ] } },
{ "type": "Feature", "properties": { "Naam": "Hof te Berkel", "Organisatie": "De Zorggroep", "Soort zorg": "Verpleeghuizen, Verzorgingshuizen", "Huisnummer": "19", "Postcode": "5961KX", "Plaats": "Horst", "Concept ingeleverd": null }, "geometry": { "type": "Point", "coordinates": [ 6.054756828155426, 51.448322958407182 ] } },
{ "type": "Feature", "properties": { "Naam": "De Linde", "Organisatie": "De Zorggroep", "Soort zorg": "Verpleeghuizen", "Huisnummer": "33c", "Postcode": "5915PN", "Plaats": "Venlo", "Concept ingeleverd": null }, "geometry": { "type": "Point", "coordinates": [ 6.184369026250342, 51.339577403998732 ] } },
{ "type": "Feature", "properties": { "Naam": "Ter Borcht", "Organisatie": "De Zorggroep", "Soort zorg": "Verpleeghuizen, Verzorgingshuizen", "Huisnummer": "5", "Postcode": "5991AN", "Plaats": "Baarlo", "Concept ingeleverd": null }, "geometry": { "type": "Point", "coordinates": [ 6.093669204340301, 51.332288579029083 ] } },
{ "type": "Feature", "properties": { "Naam": "Maasduinen Staete", "Organisatie": "De Zorggroep", "Soort zorg": "Verpleeghuizen, Verzorgingshuizen", "Huisnummer": "1", "Postcode": "5854DA", "Plaats": "Bergen L", "Concept ingeleverd": null }, "geometry": { "type": "Point", "coordinates": [ 6.046964070038213, 51.605429916081171 ] } },
{ "type": "Feature", "properties": { "Naam": "Vincentiushof", "Organisatie": "De Zorggroep", "Soort zorg": "Verpleeghuizen", "Huisnummer": "1", "Postcode": "5801DT", "Plaats": "Venray", "Concept ingeleverd": null }, "geometry": { "type": "Point", "coordinates": [ 5.974160867301943, 51.530312188658996 ] } },
{ "type": "Feature", "properties": { "Naam": "Zorghotel Roermond", "Organisatie": "De Zorggroep", "Soort zorg": "Verpleeghuizen, Verzorgingshuizen", "Huisnummer": "6", "Postcode": "6043CV", "Plaats": "Roermond", "Concept ingeleverd": null }, "geometry": { "type": "Point", "coordinates": [ 5.998835926473115, 51.191815359952024 ] } },
{ "type": "Feature", "properties": { "Naam": "Crescendo", "Organisatie": "De Zorggroep", "Soort zorg": "Verpleeghuizen, Verzorgingshuizen", "Huisnummer": "1", "Postcode": "5912AV", "Plaats": "Venlo", "Concept ingeleverd": null }, "geometry": { "type": "Point", "coordinates": [ 6.162286407884329, 51.365219475944613 ] } },
{ "type": "Feature", "properties": { "Naam": "De Nieuwe Munt", "Organisatie": "De Zorggroep", "Soort zorg": "Verpleeghuizen, Verzorgingshuizen", "Huisnummer": "124", "Postcode": "5931MB", "Plaats": "Tegelen", "Concept ingeleverd": null }, "geometry": { "type": "Point", "coordinates": [ 6.143578910133901, 51.346339583067682 ] } },
{ "type": "Feature", "properties": { "Naam": "Ruijsstraat Helden", "Organisatie": "De Zorggroep", "Soort zorg": "Verpleeghuizen", "Huisnummer": "78", "Postcode": "5988AB", "Plaats": "Helden", "Concept ingeleverd": null }, "geometry": { "type": "Point", "coordinates": [ 5.99015755332729, 51.324915395623904 ] } },
{ "type": "Feature", "properties": { "Naam": "De Groenling", "Organisatie": "De Zorggroep", "Soort zorg": "Verpleeghuizen, Verzorgingshuizen", "Huisnummer": "116", "Postcode": "5981WV", "Plaats": "Panningen", "Concept ingeleverd": null }, "geometry": { "type": "Point", "coordinates": [ 5.971898152982035, 51.328595113211769 ] } },
{ "type": "Feature", "properties": { "Naam": "Groepswoningen Maasbracht", "Organisatie": "De Zorggroep", "Soort zorg": "Verpleeghuizen", "Huisnummer": "27", "Postcode": "6051HL", "Plaats": "Maasbracht", "Concept ingeleverd": null }, "geometry": { "type": "Point", "coordinates": [ 5.895880247295247, 51.143906340776752 ] } },
{ "type": "Feature", "properties": { "Naam": "D'n Horstgraaf", "Organisatie": "De Zorggroep", "Soort zorg": "Verpleeghuizen", "Huisnummer": "33", "Postcode": "5915PN", "Plaats": "Venlo", "Concept ingeleverd": null }, "geometry": { "type": "Point", "coordinates": [ 6.183576148763351, 51.341021083954885 ] } },
{ "type": "Feature", "properties": { "Naam": "Woonzorgcentrum Herte", "Organisatie": "De Zorggroep", "Soort zorg": "Verpleeghuizen, Verzorgingshuizen", "Huisnummer": "81", "Postcode": "6049LB", "Plaats": "Herten", "Concept ingeleverd": null }, "geometry": { "type": "Point", "coordinates": [ 5.964836181870721, 51.17732835581787 ] } },
{ "type": "Feature", "properties": { "Naam": "Sint Jan Baptist", "Organisatie": "De Zorggroep", "Soort zorg": "Verpleeghuizen, Verzorgingshuizen", "Huisnummer": "1", "Postcode": "6071JJ", "Plaats": "Swalmen", "Concept ingeleverd": null }, "geometry": { "type": "Point", "coordinates": [ 6.037738317295315, 51.232629924453846 ] } },
{ "type": "Feature", "properties": { "Naam": "Verpleeghuis Camillus", "Organisatie": "De Zorggroep", "Soort zorg": "Verpleeghuizen", "Huisnummer": "176", "Postcode": "6045CK", "Plaats": "Roermond", "Concept ingeleverd": null }, "geometry": { "type": "Point", "coordinates": [ 5.999021975761743, 51.173584702730132 ] } },
{ "type": "Feature", "properties": { "Naam": "Sevenheijm", "Organisatie": "De Zorggroep", "Soort zorg": "Verpleeghuizen, Verzorgingshuizen", "Huisnummer": "8", "Postcode": "5975BN", "Plaats": "Sevenum", "Concept ingeleverd": null }, "geometry": { "type": "Point", "coordinates": [ 6.036199414062619, 51.408957304914004 ] } },
{ "type": "Feature", "properties": { "Naam": "Groepswoningen Schoutstraat", "Organisatie": "De Zorggroep", "Soort zorg": "Verpleeghuizen", "Huisnummer": "6", "Postcode": "5975BN", "Plaats": "Sevenum", "Concept ingeleverd": null }, "geometry": { "type": "Point", "coordinates": [ 6.036146914931171, 51.409308165779933 ] } },
{ "type": "Feature", "properties": { "Naam": "Amaliahof", "Organisatie": "De Zorggroep", "Soort zorg": "Verpleeghuizen, Verzorgingshuizen", "Huisnummer": "1", "Postcode": "6071DW", "Plaats": "Swalmen", "Concept ingeleverd": null }, "geometry": { "type": "Point", "coordinates": [ 6.036862624342501, 51.228427964750828 ] } },
{ "type": "Feature", "properties": { "Naam": "Sinselhof", "Organisatie": "De Zorggroep", "Soort zorg": "Verpleeghuizen, Verzorgingshuizen", "Huisnummer": "4", "Postcode": "5912XN", "Plaats": "Venlo", "Concept ingeleverd": null }, "geometry": { "type": "Point", "coordinates": [ 6.164201688910339, 51.359633495829513 ] } },
{ "type": "Feature", "properties": { "Naam": "Ruijsstraat", "Organisatie": "De Zorggroep", "Soort zorg": "Verpleeghuizen", "Huisnummer": "6", "Postcode": "5921VK", "Plaats": "Venlo", "Concept ingeleverd": null }, "geometry": { "type": "Point", "coordinates": [ 6.147504513601357, 51.368319227595833 ] } },
{ "type": "Feature", "properties": { "Naam": "Intgr. Expert.centr Psycho. (IEP) Venlo", "Organisatie": "De Zorggroep", "Soort zorg": "Verpleeghuizen", "Huisnummer": "210", "Postcode": "5912BL", "Plaats": "Venlo", "Concept ingeleverd": null }, "geometry": { "type": "Point", "coordinates": [ 6.154016477894504, 51.356743587086342 ] } },
{ "type": "Feature", "properties": { "Naam": "De Witte Steen", "Organisatie": "De Zorggroep", "Soort zorg": "Verpleeghuizen", "Huisnummer": "35f", "Postcode": "5915PN", "Plaats": "Venlo", "Concept ingeleverd": null }, "geometry": { "type": "Point", "coordinates": [ 6.188884043036246, 51.339249769242521 ] } },
{ "type": "Feature", "properties": { "Naam": "Daelzicht, Zonnebloemhof 25", "Organisatie": "Daelzicht", "Soort zorg": "Verpleeghuizen", "Huisnummer": "225", "Postcode": "6097AK", "Plaats": "Heel", "Concept ingeleverd": null }, "geometry": { "type": "Point", "coordinates": [ 5.889202255645564, 51.177491069513884 ] } },
{ "type": "Feature", "properties": { "Naam": "Proteion RCG", "Organisatie": "Stichting Proteion", "Soort zorg": "Verpleeghuizen, Verzorgingshuizen", "Huisnummer": "6", "Postcode": "6041GC", "Plaats": "Roermond", "Concept ingeleverd": null }, "geometry": { "type": "Point", "coordinates": [ 5.989044333800747, 51.194563186451376 ] } },
{ "type": "Feature", "properties": { "Naam": "Proteion Sterrebosch", "Organisatie": "Stichting Proteion", "Soort zorg": "Verpleeghuizen, Verzorgingshuizen", "Huisnummer": "4", "Postcode": "6017AL", "Plaats": "Thorn", "Concept ingeleverd": null }, "geometry": { "type": "Point", "coordinates": [ 5.840957583284992, 51.159235342567229 ] } },
{ "type": "Feature", "properties": { "Naam": "Proteion Libermannhof", "Organisatie": "Stichting Proteion", "Soort zorg": "Verzorgingshuizen", "Huisnummer": "157", "Postcode": "6591GT", "Plaats": "Gennep", "Concept ingeleverd": null }, "geometry": { "type": "Point", "coordinates": [ 5.971838099152579, 51.694656310936509 ] } },
{ "type": "Feature", "properties": { "Naam": "Proteion St. Magdalena", "Organisatie": "Stichting Proteion", "Soort zorg": "Verpleeghuizen, Verzorgingshuizen", "Huisnummer": "1", "Postcode": "6081GP", "Plaats": "Haelen", "Concept ingeleverd": null }, "geometry": { "type": "Point", "coordinates": [ 5.960193974281943, 51.236175105916686 ] } },
{ "type": "Feature", "properties": { "Naam": "Proteion Hornerheide", "Organisatie": "Stichting Proteion", "Soort zorg": "Verpleeghuizen", "Huisnummer": "1", "Postcode": "6085NM", "Plaats": "Horn", "Concept ingeleverd": null }, "geometry": { "type": "Point", "coordinates": [ 5.918287780690693, 51.219340062158111 ] } },
{ "type": "Feature", "properties": { "Naam": "Proteion De Kreppel", "Organisatie": "Stichting Proteion", "Soort zorg": "Verpleeghuizen, Verzorgingshuizen", "Huisnummer": "1", "Postcode": "6093KE", "Plaats": "Heythuysen", "Concept ingeleverd": null }, "geometry": { "type": "Point", "coordinates": [ 5.880591005758443, 51.253079747857647 ] } },
{ "type": "Feature", "properties": { "Naam": "Proteion De Merwijck", "Organisatie": "Stichting Proteion", "Soort zorg": "Verpleeghuizen", "Huisnummer": "2", "Postcode": "5995XP", "Plaats": "Kessel", "Concept ingeleverd": null }, "geometry": { "type": "Point", "coordinates": [ 6.054222045790423, 51.292879765211836 ] } },
{ "type": "Feature", "properties": { "Naam": "Proteion St. Jozef", "Organisatie": "Stichting Proteion", "Soort zorg": "Verpleeghuizen, Verzorgingshuizen", "Huisnummer": "7", "Postcode": "6019AN", "Plaats": "Wessem", "Concept ingeleverd": null }, "geometry": { "type": "Point", "coordinates": [ 5.879274838511715, 51.159888299954304 ] } },
{ "type": "Feature", "properties": { "Naam": "Proteion Roncalli", "Organisatie": "Stichting Proteion", "Soort zorg": "Verpleeghuizen, Verzorgingshuizen", "Huisnummer": "79", "Postcode": "6042BC", "Plaats": "Roermond", "Concept ingeleverd": null }, "geometry": { "type": "Point", "coordinates": [ 6.003975781848397, 51.193199461700544 ] } },
{ "type": "Feature", "properties": { "Naam": "Proteion De Wachtpost", "Organisatie": "Stichting Proteion", "Soort zorg": "Verpleeghuizen", "Huisnummer": "85", "Postcode": "5914AE", "Plaats": "Venlo", "Concept ingeleverd": null }, "geometry": { "type": "Point", "coordinates": [ 6.181553010826095, 51.37488779546301 ] } },
{ "type": "Feature", "properties": { "Naam": "Zorgboerderij De Port", "Organisatie": "Stichting Proteion", "Soort zorg": "Verpleeghuizen", "Huisnummer": "17", "Postcode": "6037NL", "Plaats": "Kelpen-Oler", "Concept ingeleverd": null }, "geometry": { "type": "Point", "coordinates": [ 5.838150884082813, 51.216945977708477 ] } },
{ "type": "Feature", "properties": { "Naam": "Mosae Zorggroep", "Organisatie": "Stichting Sevagram Maastricht", "Soort zorg": "Verzorgingshuizen", "Huisnummer": "1", "Postcode": "6216CE", "Plaats": "Maastricht", "Concept ingeleverd": null }, "geometry": { "type": "Point", "coordinates": [ 5.667392545385845, 50.85013657228653 ] } },
{ "type": "Feature", "properties": { "Naam": "Licht en Liefde", "Organisatie": "Stichting Sevagram Maastricht", "Soort zorg": "Verzorgingshuizen", "Huisnummer": "20", "Postcode": "6211JX", "Plaats": "Maastricht", "Concept ingeleverd": null }, "geometry": { "type": "Point", "coordinates": [ 5.690868528548823, 50.842167106336184 ] } },
{ "type": "Feature", "properties": { "Naam": "Scharwyerveld", "Organisatie": "Stichting Sevagram Maastricht", "Soort zorg": "Verzorgingshuizen", "Huisnummer": "93", "Postcode": "6218EN", "Plaats": "Maastricht", "Concept ingeleverd": null }, "geometry": { "type": "Point", "coordinates": [ 5.663281943196175, 50.863252161874691 ] } },
{ "type": "Feature", "properties": { "Naam": "Daalhof", "Organisatie": "Stichting Sevagram Maastricht", "Soort zorg": "Verzorgingshuizen", "Huisnummer": "22", "Postcode": "6215BM", "Plaats": "Maastricht", "Concept ingeleverd": null }, "geometry": { "type": "Point", "coordinates": [ 5.649426208197402, 50.839356207422092 ] } },
{ "type": "Feature", "properties": { "Naam": "AmaCura B.V.", "Organisatie": "AmaCura B.V.", "Soort zorg": "Verzorgingshuizen", "Huisnummer": "90", "Postcode": "6166GR", "Plaats": "Geleen", "Concept ingeleverd": null }, "geometry": { "type": "Point", "coordinates": [ 5.842210116702364, 50.978256726087544 ] } },
{ "type": "Feature", "properties": { "Naam": "AmaCura B.V.", "Organisatie": "AmaCura B.V.", "Soort zorg": "Verzorgingshuizen", "Huisnummer": "246", "Postcode": "5045NE", "Plaats": "Tilburg", "Concept ingeleverd": null }, "geometry": { "type": "Point", "coordinates": [ 4.993455092412248, 51.575366930455665 ] } },
{ "type": "Feature", "properties": { "Naam": "Cicero Zorggroep Zorgcentrum Elvira", "Organisatie": "Stichting Cicero Zorggroep", "Soort zorg": "Verpleeghuizen", "Huisnummer": "10", "Postcode": "6436AX", "Plaats": "Amstenrade", "Concept ingeleverd": "x" }, "geometry": { "type": "Point", "coordinates": [ 5.917687377555446, 50.939606704762539 ] } },
{ "type": "Feature", "properties": { "Naam": "Cicero Zorggroep Zorgcentrum Ave Maria", "Organisatie": "Stichting Cicero Zorggroep", "Soort zorg": "Verzorgingshuizen", "Huisnummer": "21", "Postcode": "6243AG", "Plaats": "Geulle", "Concept ingeleverd": "x" }, "geometry": { "type": "Point", "coordinates": [ 5.758513028917718, 50.928487327367769 ] } },
{ "type": "Feature", "properties": { "Naam": "Wijksteunpunt De Linde", "Organisatie": "Stichting Cicero Zorggroep", "Soort zorg": "Verzorgingshuizen", "Huisnummer": "23", "Postcode": "6343BJ", "Plaats": "Klimmen", "Concept ingeleverd": "x" }, "geometry": { "type": "Point", "coordinates": [ 5.88310385388648, 50.876163391614377 ] } },
{ "type": "Feature", "properties": { "Naam": "Cicero Zorggroep Zorgcentrum Bronnenhof\/Heemh", "Organisatie": "Stichting Cicero Zorggroep", "Soort zorg": "Verzorgingshuizen", "Huisnummer": "14", "Postcode": "6442BH", "Plaats": "Brunssum", "Concept ingeleverd": "x" }, "geometry": { "type": "Point", "coordinates": [ 5.981416467509963, 50.953382843717314 ] } },
{ "type": "Feature", "properties": { "Naam": "Cicero Zorggroep Zorgcentrum Huize Louise", "Organisatie": "Stichting Cicero Zorggroep", "Soort zorg": "Verzorgingshuizen", "Huisnummer": "5", "Postcode": "6443BA", "Plaats": "Brunssum", "Concept ingeleverd": "x" }, "geometry": { "type": "Point", "coordinates": [ 5.976252408046584, 50.942370754381919 ] } },
{ "type": "Feature", "properties": { "Naam": "Wijksteunpunt Pastorij", "Organisatie": "Stichting Cicero Zorggroep", "Soort zorg": "Verzorgingshuizen", "Huisnummer": "39", "Postcode": "6361AG", "Plaats": "Nuth", "Concept ingeleverd": "x" }, "geometry": { "type": "Point", "coordinates": [ 5.889962626134547, 50.916395180356432 ] } },
{ "type": "Feature", "properties": { "Naam": "Cicero Zorggroep Revalidatie de Eik", "Organisatie": "Stichting Cicero Zorggroep", "Soort zorg": "Verpleeghuizen", "Huisnummer": "111", "Postcode": "6432CC", "Plaats": "Hoensbroek", "Concept ingeleverd": "x" }, "geometry": { "type": "Point", "coordinates": [ 5.910377337470108, 50.920987916122307 ] } },
{ "type": "Feature", "properties": { "Naam": "Stichting Cicero Zorggroep", "Organisatie": "Stichting Cicero Zorggroep", "Soort zorg": "Verzorgingshuizen", "Huisnummer": "3", "Postcode": "6441CR", "Plaats": "Brunssum", "Concept ingeleverd": "x" }, "geometry": { "type": "Point", "coordinates": [ 5.969837912243573, 50.948192123583674 ] } },
{ "type": "Feature", "properties": { "Naam": "Cicero Zorggroep Zorgcentrum Leontine", "Organisatie": "Stichting Cicero Zorggroep", "Soort zorg": "Verzorgingshuizen", "Huisnummer": "10a", "Postcode": "6436AX", "Plaats": "Amstenrade", "Concept ingeleverd": "x" }, "geometry": { "type": "Point", "coordinates": [ 5.916875144523154, 50.939493568050068 ] } },
{ "type": "Feature", "properties": { "Naam": "Wijksteunpunt Distelenveld", "Organisatie": "Stichting Cicero Zorggroep", "Soort zorg": "Verzorgingshuizen", "Huisnummer": "519", "Postcode": "6441XR", "Plaats": "Brunssum", "Concept ingeleverd": "x" }, "geometry": { "type": "Point", "coordinates": [ 5.955961100815125, 50.94795550622306 ] } },
{ "type": "Feature", "properties": { "Naam": "Cicero Zorggroep Zorgcentrum Aan de Bleek", "Organisatie": "Stichting Cicero Zorggroep", "Soort zorg": "Verzorgingshuizen", "Huisnummer": "1", "Postcode": "6451CB", "Plaats": "Schinveld", "Concept ingeleverd": "x" }, "geometry": { "type": "Point", "coordinates": [ 5.980569681566109, 50.968335882077888 ] } },
{ "type": "Feature", "properties": { "Naam": "Cicero Residentie", "Organisatie": "Stichting Cicero Zorggroep", "Soort zorg": "Verzorgingshuizen", "Huisnummer": "110", "Postcode": "6225AR", "Plaats": "Maastricht", "Concept ingeleverd": "x" }, "geometry": { "type": "Point", "coordinates": [ 5.727472250798262, 50.862065292291689 ] } },
{ "type": "Feature", "properties": { "Naam": "Cicero Zorggroep Zorgcentrum Schuttershof", "Organisatie": "Stichting Cicero Zorggroep", "Soort zorg": "Verzorgingshuizen", "Huisnummer": "10", "Postcode": "6442BE", "Plaats": "Brunssum", "Concept ingeleverd": "x" }, "geometry": { "type": "Point", "coordinates": [ 5.980156122448427, 50.952760076021207 ] } },
{ "type": "Feature", "properties": { "Naam": "Cicero Zorggroep Zorgcentrum Op den Toren", "Organisatie": "Stichting Cicero Zorggroep", "Soort zorg": "Verzorgingshuizen", "Huisnummer": "67", "Postcode": "6361EB", "Plaats": "Nuth", "Concept ingeleverd": "x" }, "geometry": { "type": "Point", "coordinates": [ 5.875778305880673, 50.913022174548296 ] } },
{ "type": "Feature", "properties": { "Naam": "Wijksteunpunt De Beemden", "Organisatie": "Stichting Cicero Zorggroep", "Soort zorg": "Verzorgingshuizen", "Huisnummer": "19", "Postcode": "6365BL", "Plaats": "Schinnen", "Concept ingeleverd": "x" }, "geometry": { "type": "Point", "coordinates": [ 5.88586131234775, 50.943523541277223 ] } },
{ "type": "Feature", "properties": { "Naam": "Huize d'Alzon (Dependance Hulsberg)", "Organisatie": "Stichting Cicero Zorggroep", "Soort zorg": "Verzorgingshuizen", "Huisnummer": "5", "Postcode": "6336AN", "Plaats": "Hulsberg", "Concept ingeleverd": "x" }, "geometry": { "type": "Point", "coordinates": [ 5.857683903003641, 50.891254115710474 ] } },
{ "type": "Feature", "properties": { "Naam": "Cicero Zorggroep Gregoriushuis", "Organisatie": "Stichting Cicero Zorggroep", "Soort zorg": "Verzorgingshuizen", "Huisnummer": "30", "Postcode": "6442AG", "Plaats": "Brunssum", "Concept ingeleverd": "x" }, "geometry": { "type": "Point", "coordinates": [ 5.97814685667657, 50.95032534377463 ] } },
{ "type": "Feature", "properties": { "Naam": "Cicero Zorggroep Zorgcentrum Pius", "Organisatie": "Stichting Cicero Zorggroep", "Soort zorg": "Verzorgingshuizen", "Huisnummer": "2", "Postcode": "6431NW", "Plaats": "Hoensbroek", "Concept ingeleverd": "x" }, "geometry": { "type": "Point", "coordinates": [ 5.921914690408064, 50.920099206863625 ] } },
{ "type": "Feature", "properties": { "Naam": "Cicero Zorggroep Zorgcentrum 't Brook", "Organisatie": "Stichting Cicero Zorggroep", "Soort zorg": "Verzorgingshuizen", "Huisnummer": "4", "Postcode": "6367TN", "Plaats": "Voerendaal", "Concept ingeleverd": "x" }, "geometry": { "type": "Point", "coordinates": [ 5.927404236883674, 50.878733528500348 ] } },
{ "type": "Feature", "properties": { "Naam": "Cicero Zorggroep Zorgcentrum Emmastaete", "Organisatie": "Stichting Cicero Zorggroep", "Soort zorg": "Verzorgingshuizen", "Huisnummer": "63", "Postcode": "6446XC", "Plaats": "Brunssum", "Concept ingeleverd": "x" }, "geometry": { "type": "Point", "coordinates": [ 5.937886768548757, 50.929813278313908 ] } },
{ "type": "Feature", "properties": { "Naam": "Wijksteunpunt Gemeinsjapshoes", "Organisatie": "Stichting Cicero Zorggroep", "Soort zorg": "Verzorgingshuizen", "Huisnummer": "10", "Postcode": "6333BD", "Plaats": "Schimmert", "Concept ingeleverd": "x" }, "geometry": { "type": "Point", "coordinates": [ 5.822142130019327, 50.900588864410203 ] } },
{ "type": "Feature", "properties": { "Naam": "'t Puther Höfke", "Organisatie": "'t Puther HÃ¶fke V.O.F.", "Soort zorg": "Verzorgingshuizen", "Huisnummer": "82", "Postcode": "6155KP", "Plaats": "Puth", "Concept ingeleverd": null }, "geometry": { "type": "Point", "coordinates": [ 5.869561637597093, 50.95633890447845 ] } },
{ "type": "Feature", "properties": { "Naam": "Zuyderland Zorgcentra B.V.", "Organisatie": "Zuyderland Zorgcentra B.V.", "Soort zorg": "Verpleeghuizen", "Huisnummer": "10", "Postcode": "6131KG", "Plaats": "Sittard", "Concept ingeleverd": null }, "geometry": { "type": "Point", "coordinates": [ 5.864753648453088, 50.99648538794969 ] } },
{ "type": "Feature", "properties": { "Naam": "de Baenje", "Organisatie": "Zuyderland Zorgcentra B.V.", "Soort zorg": "Verzorgingshuizen", "Huisnummer": "2", "Postcode": "6131JR", "Plaats": "Sittard", "Concept ingeleverd": null }, "geometry": { "type": "Point", "coordinates": [ 5.86764019798669, 50.994630722842473 ] } },
{ "type": "Feature", "properties": { "Naam": "Glana locatie Athos", "Organisatie": "Zuyderland Zorgcentra B.V.", "Soort zorg": "Verzorgingshuizen", "Huisnummer": "5", "Postcode": "6164HK", "Plaats": "Geleen", "Concept ingeleverd": null }, "geometry": { "type": "Point", "coordinates": [ 5.833572509361123, 50.953777594812408 ] } },
{ "type": "Feature", "properties": { "Naam": "Glana locatie Aramis", "Organisatie": "Zuyderland Zorgcentra B.V.", "Soort zorg": "Verzorgingshuizen", "Huisnummer": "119", "Postcode": "6164GH", "Plaats": "Geleen", "Concept ingeleverd": null }, "geometry": { "type": "Point", "coordinates": [ 5.831561828060608, 50.953353862624247 ] } },
{ "type": "Feature", "properties": { "Naam": "Aldenhof", "Organisatie": "Zuyderland Zorgcentra B.V.", "Soort zorg": "Verzorgingshuizen", "Huisnummer": "26", "Postcode": "6121NZ", "Plaats": "Born", "Concept ingeleverd": null }, "geometry": { "type": "Point", "coordinates": [ 5.818666737137205, 51.038455607976637 ] } },
{ "type": "Feature", "properties": { "Naam": "Glana locatie Athos", "Organisatie": "Zuyderland Zorgcentra B.V.", "Soort zorg": "Verzorgingshuizen", "Huisnummer": "3", "Postcode": "6164HK", "Plaats": "Geleen", "Concept ingeleverd": null }, "geometry": { "type": "Point", "coordinates": [ 5.833645487468098, 50.953966080400868 ] } },
{ "type": "Feature", "properties": { "Naam": "Glana locatie Aramis", "Organisatie": "Zuyderland Zorgcentra B.V.", "Soort zorg": "Verzorgingshuizen", "Huisnummer": "115", "Postcode": "6164GH", "Plaats": "Geleen", "Concept ingeleverd": null }, "geometry": { "type": "Point", "coordinates": [ 5.831151387522954, 50.953589148809186 ] } },
{ "type": "Feature", "properties": { "Naam": "Lemborgh", "Organisatie": "Zuyderland Zorgcentra B.V.", "Soort zorg": "Verzorgingshuizen", "Huisnummer": "23", "Postcode": "6135CV", "Plaats": "Sittard", "Concept ingeleverd": null }, "geometry": { "type": "Point", "coordinates": [ 5.848952020657097, 51.008837298398383 ] } },
{ "type": "Feature", "properties": { "Naam": "Aldenhof", "Organisatie": "Zuyderland Zorgcentra B.V.", "Soort zorg": "Verzorgingshuizen", "Huisnummer": "6", "Postcode": "6121NZ", "Plaats": "Born", "Concept ingeleverd": null }, "geometry": { "type": "Point", "coordinates": [ 5.818194747038757, 51.038295563716758 ] } },
{ "type": "Feature", "properties": { "Naam": "Aldenhof", "Organisatie": "Zuyderland Zorgcentra B.V.", "Soort zorg": "Verzorgingshuizen", "Huisnummer": "9", "Postcode": "6121NZ", "Plaats": "Born", "Concept ingeleverd": null }, "geometry": { "type": "Point", "coordinates": [ 5.818181162842508, 51.038367525427255 ] } },
{ "type": "Feature", "properties": { "Naam": "de Baenje dagvoorziening Odapark", "Organisatie": "Zuyderland Zorgcentra B.V.", "Soort zorg": "Verzorgingshuizen", "Huisnummer": "657", "Postcode": "6131GS", "Plaats": "Sittard", "Concept ingeleverd": null }, "geometry": { "type": "Point", "coordinates": [ 5.87193173497495, 51.000446659014862 ] } },
{ "type": "Feature", "properties": { "Naam": "Glana locatie Porthos", "Organisatie": "Zuyderland Zorgcentra B.V.", "Soort zorg": "Verzorgingshuizen", "Huisnummer": "67", "Postcode": "6164HL", "Plaats": "Geleen", "Concept ingeleverd": null }, "geometry": { "type": "Point", "coordinates": [ 5.832007304282723, 50.953801597040417 ] } },
{ "type": "Feature", "properties": { "Naam": "de Egthe locatie 't Pejjerhoes", "Organisatie": "Zuyderland Zorgcentra B.V.", "Soort zorg": "Verzorgingshuizen", "Huisnummer": "20", "Postcode": "6102EG", "Plaats": "Echt", "Concept ingeleverd": null }, "geometry": { "type": "Point", "coordinates": [ 5.889943845212064, 51.10156735887665 ] } },
{ "type": "Feature", "properties": { "Naam": "Aldenhof", "Organisatie": "Zuyderland Zorgcentra B.V.", "Soort zorg": "Verzorgingshuizen", "Huisnummer": "1", "Postcode": "6121NZ", "Plaats": "Born", "Concept ingeleverd": null }, "geometry": { "type": "Point", "coordinates": [ 5.818422687881841, 51.038276738146081 ] } },
{ "type": "Feature", "properties": { "Naam": "Aldenhof", "Organisatie": "Zuyderland Zorgcentra B.V.", "Soort zorg": "Verzorgingshuizen", "Huisnummer": "10", "Postcode": "6121NZ", "Plaats": "Born", "Concept ingeleverd": null }, "geometry": { "type": "Point", "coordinates": [ 5.818665390376458, 51.03831179058276 ] } },
{ "type": "Feature", "properties": { "Naam": "de Kollenberg", "Organisatie": "Zuyderland Zorgcentra B.V.", "Soort zorg": "Verzorgingshuizen", "Huisnummer": "24", "Postcode": "6137AC", "Plaats": "Sittard", "Concept ingeleverd": null }, "geometry": { "type": "Point", "coordinates": [ 5.875385689634741, 50.995677012002268 ] } },
{ "type": "Feature", "properties": { "Naam": "Glana locatie Aramis", "Organisatie": "Zuyderland Zorgcentra B.V.", "Soort zorg": "Verzorgingshuizen", "Huisnummer": "117", "Postcode": "6164GH", "Plaats": "Geleen", "Concept ingeleverd": null }, "geometry": { "type": "Point", "coordinates": [ 5.8313494065689, 50.95346254462455 ] } },
{ "type": "Feature", "properties": { "Naam": "Glana locatie Zilverlinde", "Organisatie": "Zuyderland Zorgcentra B.V.", "Soort zorg": "Verzorgingshuizen", "Huisnummer": "1", "Postcode": "6163GC", "Plaats": "Geleen", "Concept ingeleverd": null }, "geometry": { "type": "Point", "coordinates": [ 5.819869851920104, 50.979816523863605 ] } },
{ "type": "Feature", "properties": { "Naam": "Vastrada", "Organisatie": "Zuyderland Zorgcentra B.V.", "Soort zorg": "Verzorgingshuizen", "Huisnummer": "47", "Postcode": "6114HG", "Plaats": "Susteren", "Concept ingeleverd": null }, "geometry": { "type": "Point", "coordinates": [ 5.851721478785002, 51.061690051476951 ] } },
{ "type": "Feature", "properties": { "Naam": "Glana locatie Porthos", "Organisatie": "Zuyderland Zorgcentra B.V.", "Soort zorg": "Verzorgingshuizen", "Huisnummer": "63", "Postcode": "6164HL", "Plaats": "Geleen", "Concept ingeleverd": null }, "geometry": { "type": "Point", "coordinates": [ 5.83256212893492, 50.953781486152401 ] } },
{ "type": "Feature", "properties": { "Naam": "Glana verpleegunit Beek", "Organisatie": "Zuyderland Zorgcentra B.V.", "Soort zorg": "Verzorgingshuizen", "Huisnummer": "2", "Postcode": "6191KZ", "Plaats": "Beek", "Concept ingeleverd": null }, "geometry": { "type": "Point", "coordinates": [ 5.791620619026522, 50.937724794679205 ] } },
{ "type": "Feature", "properties": { "Naam": "de Egthe", "Organisatie": "Zuyderland Zorgcentra B.V.", "Soort zorg": "Verzorgingshuizen", "Huisnummer": "1", "Postcode": "6101EX", "Plaats": "Echt", "Concept ingeleverd": null }, "geometry": { "type": "Point", "coordinates": [ 5.87349697875997, 51.105637529097358 ] } },
{ "type": "Feature", "properties": { "Naam": "Hoogstaete", "Organisatie": "Zuyderland Zorgcentra B.V.", "Soort zorg": "Verzorgingshuizen", "Huisnummer": "151", "Postcode": "6135JL", "Plaats": "Sittard", "Concept ingeleverd": null }, "geometry": { "type": "Point", "coordinates": [ 5.853009167547355, 51.01130199994823 ] } },
{ "type": "Feature", "properties": { "Naam": "Glana locatie Porthos", "Organisatie": "Zuyderland Zorgcentra B.V.", "Soort zorg": "Verzorgingshuizen", "Huisnummer": "65", "Postcode": "6164HL", "Plaats": "Geleen", "Concept ingeleverd": null }, "geometry": { "type": "Point", "coordinates": [ 5.832320293457943, 50.953791405144493 ] } },
{ "type": "Feature", "properties": { "Naam": "Glana locatie Aramis", "Organisatie": "Zuyderland Zorgcentra B.V.", "Soort zorg": "Verzorgingshuizen", "Huisnummer": "121", "Postcode": "6164GH", "Plaats": "Geleen", "Concept ingeleverd": null }, "geometry": { "type": "Point", "coordinates": [ 5.831844795564515, 50.953181986973 ] } },
{ "type": "Feature", "properties": { "Naam": "Glana verpleegunit Stein", "Organisatie": "Zuyderland Zorgcentra B.V.", "Soort zorg": "Verzorgingshuizen", "Huisnummer": "45", "Postcode": "6171HS", "Plaats": "Stein", "Concept ingeleverd": null }, "geometry": { "type": "Point", "coordinates": [ 5.764415993308716, 50.968594556057901 ] } },
{ "type": "Feature", "properties": { "Naam": "Hospice Mariaveld", "Organisatie": "Zuyderland Zorgcentra B.V.", "Soort zorg": "Verzorgingshuizen", "Huisnummer": "1", "Postcode": "6114EG", "Plaats": "Susteren", "Concept ingeleverd": null }, "geometry": { "type": "Point", "coordinates": [ 5.863039220707688, 51.065023995226895 ] } },
{ "type": "Feature", "properties": { "Naam": "Aldenhof", "Organisatie": "Zuyderland Zorgcentra B.V.", "Soort zorg": "Verzorgingshuizen", "Huisnummer": "48", "Postcode": "6121NZ", "Plaats": "Born", "Concept ingeleverd": null }, "geometry": { "type": "Point", "coordinates": [ 5.818795638328234, 51.038518050395304 ] } },
{ "type": "Feature", "properties": { "Naam": "Glana", "Organisatie": "Zuyderland Zorgcentra B.V.", "Soort zorg": "Verzorgingshuizen", "Huisnummer": "159", "Postcode": "6164GH", "Plaats": "Geleen", "Concept ingeleverd": null }, "geometry": { "type": "Point", "coordinates": [ 5.832594506251126, 50.952711682026226 ] } },
{ "type": "Feature", "properties": { "Naam": "Glana locatie Athos", "Organisatie": "Zuyderland Zorgcentra B.V.", "Soort zorg": "Verzorgingshuizen", "Huisnummer": "1", "Postcode": "6164HK", "Plaats": "Geleen", "Concept ingeleverd": null }, "geometry": { "type": "Point", "coordinates": [ 5.833761593183882, 50.954199344118749 ] } },
{ "type": "Feature", "properties": { "Naam": "Glana locatie Athos", "Organisatie": "Zuyderland Zorgcentra B.V.", "Soort zorg": "Verzorgingshuizen", "Huisnummer": "7", "Postcode": "6164HK", "Plaats": "Geleen", "Concept ingeleverd": null }, "geometry": { "type": "Point", "coordinates": [ 5.833513501929371, 50.953562088607391 ] } },
{ "type": "Feature", "properties": { "Naam": "Glana locatie Porthos", "Organisatie": "Zuyderland Zorgcentra B.V.", "Soort zorg": "Verzorgingshuizen", "Huisnummer": "61", "Postcode": "6164HL", "Plaats": "Geleen", "Concept ingeleverd": null }, "geometry": { "type": "Point", "coordinates": [ 5.832846656430905, 50.953771402321834 ] } },
{ "type": "Feature", "properties": { "Naam": "Aldenhof", "Organisatie": "Zuyderland Zorgcentra B.V.", "Soort zorg": "Verzorgingshuizen", "Huisnummer": "5", "Postcode": "6121NZ", "Plaats": "Born", "Concept ingeleverd": null }, "geometry": { "type": "Point", "coordinates": [ 5.8182087516079, 51.038268544942476 ] } },
{ "type": "Feature", "properties": { "Naam": "Aldenhof", "Organisatie": "Zuyderland Zorgcentra B.V.", "Soort zorg": "Verzorgingshuizen", "Huisnummer": "7", "Postcode": "6121NZ", "Plaats": "Born", "Concept ingeleverd": null }, "geometry": { "type": "Point", "coordinates": [ 5.818194915199683, 51.03831354089187 ] } },
{ "type": "Feature", "properties": { "Naam": "Aldenhof", "Organisatie": "Zuyderland Zorgcentra B.V.", "Soort zorg": "Verzorgingshuizen", "Huisnummer": "8", "Postcode": "6121NZ", "Plaats": "Born", "Concept ingeleverd": null }, "geometry": { "type": "Point", "coordinates": [ 5.818180910608831, 51.038340559664526 ] } },
{ "type": "Feature", "properties": { "Naam": "Stichting Zuyderland Zorg", "Organisatie": "Stichting Zuyderland Zorg", "Soort zorg": "Verzorgingshuizen", "Huisnummer": "1", "Postcode": "6162BG", "Plaats": "Geleen", "Concept ingeleverd": null }, "geometry": { "type": "Point", "coordinates": [ 5.84459409087653, 50.983182248090756 ] } },
{ "type": "Feature", "properties": { "Naam": "Savant Zorg", "Organisatie": "Savant Zorg", "Soort zorg": "Verpleeghuizen", "Huisnummer": "4", "Postcode": "5708HN", "Plaats": "Helmond", "Concept ingeleverd": null }, "geometry": { "type": "Point", "coordinates": [ 5.626807091080237, 51.473753359878167 ] } },
{ "type": "Feature", "properties": { "Naam": "WoonzorgCentrum Akert", "Organisatie": "Stichting St. Anna Zorggroep", "Soort zorg": "Verzorgingshuizen", "Huisnummer": "35", "Postcode": "5664TZ", "Plaats": "Geldrop", "Concept ingeleverd": null }, "geometry": { "type": "Point", "coordinates": [ 5.56209247553069, 51.417068821326765 ] } },
{ "type": "Feature", "properties": { "Naam": "Woonzorgcentrum Nicasius", "Organisatie": "Stichting St. Anna Zorggroep", "Soort zorg": "Verzorgingshuizen", "Huisnummer": "6", "Postcode": "5591GK", "Plaats": "Heeze", "Concept ingeleverd": null }, "geometry": { "type": "Point", "coordinates": [ 5.574117109267443, 51.380169439112997 ] } },
{ "type": "Feature", "properties": { "Naam": "WoonzorgCentrum Berkenheuvel", "Organisatie": "Stichting St. Anna Zorggroep", "Soort zorg": "Verpleeghuizen", "Huisnummer": "6", "Postcode": "5666AZ", "Plaats": "Geldrop", "Concept ingeleverd": null }, "geometry": { "type": "Point", "coordinates": [ 5.576748201634609, 51.425693037532234 ] } },
{ "type": "Feature", "properties": { "Naam": "Woonzorgcentrum Antoniushof", "Organisatie": "Stichting Zorggroep Elde Maasduinen", "Soort zorg": "Verzorgingshuizen", "Huisnummer": "100", "Postcode": "5142RT", "Plaats": "Waalwijk", "Concept ingeleverd": null }, "geometry": { "type": "Point", "coordinates": [ 5.071824771795493, 51.688195729480057 ] } },
{ "type": "Feature", "properties": { "Naam": "Woonzorgcentrum Rosagaerde", "Organisatie": "Stichting Zorggroep Elde Maasduinen", "Soort zorg": "Verzorgingshuizen", "Huisnummer": "4", "Postcode": "5171KR", "Plaats": "Kaatsheuvel", "Concept ingeleverd": null }, "geometry": { "type": "Point", "coordinates": [ 5.047378992680401, 51.654276393279666 ] } },
{ "type": "Feature", "properties": { "Naam": "Stichting Zorggroep Elde Maasduinen", "Organisatie": "Stichting Zorggroep Elde Maasduinen", "Soort zorg": "Verpleeghuizen", "Huisnummer": "12", "Postcode": "5282SM", "Plaats": "Boxtel", "Concept ingeleverd": null }, "geometry": { "type": "Point", "coordinates": [ 5.313102103252401, 51.599088783347767 ] } },
{ "type": "Feature", "properties": { "Naam": "Woonzorgcentrum De Venloene", "Organisatie": "Stichting Zorggroep Elde Maasduinen", "Soort zorg": "Verzorgingshuizen", "Huisnummer": "1", "Postcode": "5175CX", "Plaats": "Loon op Zand", "Concept ingeleverd": null }, "geometry": { "type": "Point", "coordinates": [ 5.071402464175615, 51.628492449189132 ] } },
{ "type": "Feature", "properties": { "Naam": "Buitenhuis", "Organisatie": "Stichting Zorggroep Elde Maasduinen", "Soort zorg": "Verpleeghuizen", "Huisnummer": "2", "Postcode": "5296LB", "Plaats": "Esch", "Concept ingeleverd": null }, "geometry": { "type": "Point", "coordinates": [ 5.293316617750687, 51.611955220683136 ] } },
{ "type": "Feature", "properties": { "Naam": "Woonzorgcentrum Vita", "Organisatie": "Stichting Zorggroep Elde Maasduinen", "Soort zorg": "Verzorgingshuizen", "Huisnummer": "9", "Postcode": "5121CM", "Plaats": "Rijen", "Concept ingeleverd": null }, "geometry": { "type": "Point", "coordinates": [ 4.913696692521992, 51.589066614434842 ] } },
{ "type": "Feature", "properties": { "Naam": "Ontmoetingshuis De Beemden", "Organisatie": "Stichting Zorggroep Elde Maasduinen", "Soort zorg": "Verpleeghuizen", "Huisnummer": "1", "Postcode": "5271BH", "Plaats": "Sint-Michielsgestel", "Concept ingeleverd": null }, "geometry": { "type": "Point", "coordinates": [ 5.355522507213076, 51.63836991463905 ] } },
{ "type": "Feature", "properties": { "Naam": "Woonzorgcentrum De Vossenberg", "Organisatie": "Stichting Zorggroep Elde Maasduinen", "Soort zorg": "Verzorgingshuizen", "Huisnummer": "1", "Postcode": "5171DA", "Plaats": "Kaatsheuvel", "Concept ingeleverd": null }, "geometry": { "type": "Point", "coordinates": [ 5.023724124737664, 51.663149010844144 ] } },
{ "type": "Feature", "properties": { "Naam": "Gezondheidscentrum Reusel", "Organisatie": "Stichting Zuidzorg", "Soort zorg": "Verpleeghuizen", "Huisnummer": "16", "Postcode": "5541RW", "Plaats": "Reusel", "Concept ingeleverd": null }, "geometry": { "type": "Point", "coordinates": [ 5.170608838001185, 51.368028783665515 ] } },
{ "type": "Feature", "properties": { "Naam": "Gezondheidscentrum Vredesplein", "Organisatie": "Stichting Zuidzorg", "Soort zorg": "Verpleeghuizen", "Huisnummer": "42", "Postcode": "5612GE", "Plaats": "Eindhoven", "Concept ingeleverd": null }, "geometry": { "type": "Point", "coordinates": [ 5.467779523462013, 51.451985424414517 ] } },
{ "type": "Feature", "properties": { "Naam": "Gezondheidscentrum Meerhoven", "Organisatie": "Stichting Zuidzorg", "Soort zorg": "Verpleeghuizen", "Huisnummer": "27", "Postcode": "5658LP", "Plaats": "Eindhoven", "Concept ingeleverd": null }, "geometry": { "type": "Point", "coordinates": [ 5.408071143588297, 51.441989094900336 ] } },
{ "type": "Feature", "properties": { "Naam": "Stichting Vivent \/ Maria Oord", "Organisatie": "Stichting Vivent", "Soort zorg": "Verpleeghuizen", "Huisnummer": "369", "Postcode": "5244NJ", "Plaats": "Rosmalen", "Concept ingeleverd": null }, "geometry": { "type": "Point", "coordinates": [ 5.399921000545203, 51.71440721334173 ] } },
{ "type": "Feature", "properties": { "Naam": "Bij Elkaar", "Organisatie": "Stichting Vivent", "Soort zorg": "Verpleeghuizen", "Huisnummer": "5", "Postcode": "5245NB", "Plaats": "Rosmalen", "Concept ingeleverd": null }, "geometry": { "type": "Point", "coordinates": [ 5.344733223129499, 51.729473938427937 ] } },
{ "type": "Feature", "properties": { "Naam": "Vivent", "Organisatie": "Stichting Vivent", "Soort zorg": "Verpleeghuizen", "Huisnummer": "98", "Postcode": "5216GC", "Plaats": "'s-Hertogenbosch", "Concept ingeleverd": null }, "geometry": { "type": "Point", "coordinates": [ 5.325402862768748, 51.681260140619344 ] } },
{ "type": "Feature", "properties": { "Naam": "Zorgcentrum Hof van Bluyssen", "Organisatie": "Stichting Amaliazorg", "Soort zorg": "Verpleeghuizen", "Huisnummer": "29", "Postcode": "5721KG", "Plaats": "Asten", "Concept ingeleverd": null }, "geometry": { "type": "Point", "coordinates": [ 5.742030093505706, 51.400390233804188 ] } },
{ "type": "Feature", "properties": { "Naam": "Zorgcentrum Catharinenberg", "Organisatie": "Stichting Amaliazorg", "Soort zorg": "Verpleeghuizen", "Huisnummer": "3", "Postcode": "5061BG", "Plaats": "Oisterwijk", "Concept ingeleverd": null }, "geometry": { "type": "Point", "coordinates": [ 5.183142203145064, 51.577559509811728 ] } },
{ "type": "Feature", "properties": { "Naam": "Zorgcentrum Van Haarenstaete", "Organisatie": "Stichting Amaliazorg", "Soort zorg": "Verpleeghuizen", "Huisnummer": "44", "Postcode": "5464VH", "Plaats": "Veghel", "Concept ingeleverd": null }, "geometry": { "type": "Point", "coordinates": [ 5.579875747120465, 51.634637814533207 ] } },
{ "type": "Feature", "properties": { "Naam": "Zorgcentrum Amaliazorg", "Organisatie": "Stichting Amaliazorg", "Soort zorg": "Verpleeghuizen", "Huisnummer": "37", "Postcode": "5688AG", "Plaats": "Oirschot", "Concept ingeleverd": null }, "geometry": { "type": "Point", "coordinates": [ 5.303712283630218, 51.501448195283352 ] } },
{ "type": "Feature", "properties": { "Naam": "Zorgcentrum Blijendaal", "Organisatie": "Stichting Amaliazorg", "Soort zorg": "Verpleeghuizen", "Huisnummer": "28", "Postcode": "5688BE", "Plaats": "Oirschot", "Concept ingeleverd": null }, "geometry": { "type": "Point", "coordinates": [ 5.305233229374642, 51.504604283998752 ] } },
{ "type": "Feature", "properties": { "Naam": "Exploitatie Maatschappij Eeckenrhode B.V.", "Organisatie": "Exploitatie Maatschappij Eeckenrhode B.V.", "Soort zorg": "Verzorgingshuizen", "Huisnummer": "9c15", "Postcode": "5583AD", "Plaats": "Waalre", "Concept ingeleverd": null }, "geometry": { "type": "Point", "coordinates": [ 5.47736725363163, 51.389884517430787 ] } },
{ "type": "Feature", "properties": { "Naam": "Catharinahof", "Organisatie": "Stichting BrabantZorg", "Soort zorg": "Verpleeghuizen", "Huisnummer": "252", "Postcode": "5361CR", "Plaats": "Grave", "Concept ingeleverd": null }, "geometry": { "type": "Point", "coordinates": [ 5.736051541160498, 51.762372109109073 ] } },
{ "type": "Feature", "properties": { "Naam": "De Lindeboom", "Organisatie": "Stichting BrabantZorg", "Soort zorg": "Verpleeghuizen", "Huisnummer": "21", "Postcode": "5324EP", "Plaats": "Ammerzoden", "Concept ingeleverd": null }, "geometry": { "type": "Point", "coordinates": [ 5.21588890602835, 51.749850283595443 ] } },
{ "type": "Feature", "properties": { "Naam": "'t Geerke", "Organisatie": "Stichting BrabantZorg", "Soort zorg": "Verpleeghuizen", "Huisnummer": "16", "Postcode": "5235HJ", "Plaats": "'s-Hertogenbosch", "Concept ingeleverd": null }, "geometry": { "type": "Point", "coordinates": [ 5.310977784751124, 51.721115595325941 ] } },
{ "type": "Feature", "properties": { "Naam": "De Pastorie", "Organisatie": "Stichting BrabantZorg", "Soort zorg": "Verpleeghuizen", "Huisnummer": "4", "Postcode": "5408BC", "Plaats": "Volkel", "Concept ingeleverd": null }, "geometry": { "type": "Point", "coordinates": [ 5.656469252794343, 51.643439138344455 ] } },
{ "type": "Feature", "properties": { "Naam": "Loovelt", "Organisatie": "Stichting BrabantZorg", "Soort zorg": "Verpleeghuizen", "Huisnummer": "280", "Postcode": "5345LH", "Plaats": "Oss", "Concept ingeleverd": null }, "geometry": { "type": "Point", "coordinates": [ 5.502819060903476, 51.766285994472724 ] } },
{ "type": "Feature", "properties": { "Naam": "Sint Antonius", "Organisatie": "Stichting BrabantZorg", "Soort zorg": "Verpleeghuizen", "Huisnummer": "60", "Postcode": "5408BK", "Plaats": "Volkel", "Concept ingeleverd": null }, "geometry": { "type": "Point", "coordinates": [ 5.657389735257506, 51.642744895012832 ] } },
{ "type": "Feature", "properties": { "Naam": "Sint Jan", "Organisatie": "Stichting BrabantZorg", "Soort zorg": "Verpleeghuizen", "Huisnummer": "8", "Postcode": "5401BE", "Plaats": "Uden", "Concept ingeleverd": null }, "geometry": { "type": "Point", "coordinates": [ 5.610812849990992, 51.660370915105226 ] } },
{ "type": "Feature", "properties": { "Naam": "Vierhoven", "Organisatie": "Stichting BrabantZorg", "Soort zorg": "Verpleeghuizen", "Huisnummer": "2b", "Postcode": "5374HE", "Plaats": "Schaijk", "Concept ingeleverd": null }, "geometry": { "type": "Point", "coordinates": [ 5.629949158924948, 51.746730374129079 ] } },
{ "type": "Feature", "properties": { "Naam": "Muzerijk", "Organisatie": "Stichting BrabantZorg", "Soort zorg": "Verpleeghuizen", "Huisnummer": "2", "Postcode": "5402BE", "Plaats": "Uden", "Concept ingeleverd": null }, "geometry": { "type": "Point", "coordinates": [ 5.616486719581527, 51.670588895714559 ] } },
{ "type": "Feature", "properties": { "Naam": "Martinushuis", "Organisatie": "Stichting BrabantZorg", "Soort zorg": "Verpleeghuizen", "Huisnummer": "3", "Postcode": "5391AB", "Plaats": "Nuland", "Concept ingeleverd": null }, "geometry": { "type": "Point", "coordinates": [ 5.433970104863667, 51.729750818868574 ] } },
{ "type": "Feature", "properties": { "Naam": "Maasland", "Organisatie": "Stichting BrabantZorg", "Soort zorg": "Verpleeghuizen", "Huisnummer": "5", "Postcode": "5373AD", "Plaats": "Herpen", "Concept ingeleverd": null }, "geometry": { "type": "Point", "coordinates": [ 5.6458765894012, 51.774362780194423 ] } },
{ "type": "Feature", "properties": { "Naam": "Heelwijk", "Organisatie": "Stichting BrabantZorg", "Soort zorg": "Verpleeghuizen", "Huisnummer": "2", "Postcode": "5384CG", "Plaats": "Heesch", "Concept ingeleverd": null }, "geometry": { "type": "Point", "coordinates": [ 5.532919699130883, 51.734172631966381 ] } },
{ "type": "Feature", "properties": { "Naam": "De Wilberthof", "Organisatie": "Stichting BrabantZorg", "Soort zorg": "Verpleeghuizen", "Huisnummer": "4", "Postcode": "5351EV", "Plaats": "Berghem", "Concept ingeleverd": null }, "geometry": { "type": "Point", "coordinates": [ 5.568919951937938, 51.769590727145633 ] } },
{ "type": "Feature", "properties": { "Naam": "Sint Joachim & Anna", "Organisatie": "Stichting BrabantZorg", "Soort zorg": "Verpleeghuizen", "Huisnummer": "26", "Postcode": "5461BL", "Plaats": "Veghel", "Concept ingeleverd": null }, "geometry": { "type": "Point", "coordinates": [ 5.539434052998502, 51.618266386701691 ] } },
{ "type": "Feature", "properties": { "Naam": "Udens Duyn", "Organisatie": "Stichting BrabantZorg", "Soort zorg": "Verpleeghuizen", "Huisnummer": "6", "Postcode": "5406PZ", "Plaats": "Uden", "Concept ingeleverd": null }, "geometry": { "type": "Point", "coordinates": [ 5.6081216805885, 51.674559947853133 ] } },
{ "type": "Feature", "properties": { "Naam": "Simeonshof", "Organisatie": "Stichting BrabantZorg", "Soort zorg": "Verpleeghuizen", "Huisnummer": "1", "Postcode": "5469CK", "Plaats": "Erp", "Concept ingeleverd": null }, "geometry": { "type": "Point", "coordinates": [ 5.607540425294661, 51.599749200406265 ] } },
{ "type": "Feature", "properties": { "Naam": "'t Geerke", "Organisatie": "Stichting BrabantZorg", "Soort zorg": "Verpleeghuizen", "Huisnummer": "17", "Postcode": "5235HH", "Plaats": "'s-Hertogenbosch", "Concept ingeleverd": null }, "geometry": { "type": "Point", "coordinates": [ 5.310369898792474, 51.721151152991709 ] } },
{ "type": "Feature", "properties": { "Naam": "Katwijk", "Organisatie": "Stichting BrabantZorg", "Soort zorg": "Verpleeghuizen", "Huisnummer": "55", "Postcode": "5341HB", "Plaats": "Oss", "Concept ingeleverd": null }, "geometry": { "type": "Point", "coordinates": [ 5.519168801941272, 51.76439012677109 ] } },
{ "type": "Feature", "properties": { "Naam": "Laarstede", "Organisatie": "Stichting BrabantZorg", "Soort zorg": "Verpleeghuizen", "Huisnummer": "40", "Postcode": "5388HH", "Plaats": "Nistelrode", "Concept ingeleverd": null }, "geometry": { "type": "Point", "coordinates": [ 5.560642472564668, 51.700463974550992 ] } },
{ "type": "Feature", "properties": { "Naam": "Noorderkroon", "Organisatie": "Stichting BrabantZorg", "Soort zorg": "Verpleeghuizen", "Huisnummer": "71", "Postcode": "5233BR", "Plaats": "'s-Hertogenbosch", "Concept ingeleverd": null }, "geometry": { "type": "Point", "coordinates": [ 5.325585033583941, 51.717465860909392 ] } },
{ "type": "Feature", "properties": { "Naam": "Compostella", "Organisatie": "Stichting BrabantZorg", "Soort zorg": "Verpleeghuizen", "Huisnummer": "1", "Postcode": "5411BK", "Plaats": "Zeeland", "Concept ingeleverd": null }, "geometry": { "type": "Point", "coordinates": [ 5.674716184636667, 51.695754064527513 ] } },
{ "type": "Feature", "properties": { "Naam": "AAtrium", "Organisatie": "Stichting BrabantZorg", "Soort zorg": "Verpleeghuizen", "Huisnummer": "21", "Postcode": "5463GK", "Plaats": "Veghel", "Concept ingeleverd": null }, "geometry": { "type": "Point", "coordinates": [ 5.546478472773748, 51.609511116090879 ] } },
{ "type": "Feature", "properties": { "Naam": "Dijkstaete", "Organisatie": "Stichting BrabantZorg", "Soort zorg": "Verpleeghuizen", "Huisnummer": "4", "Postcode": "5374RM", "Plaats": "Schaijk", "Concept ingeleverd": null }, "geometry": { "type": "Point", "coordinates": [ 5.633468482139872, 51.73357287859433 ] } },
{ "type": "Feature", "properties": { "Naam": "'t Geerke", "Organisatie": "Stichting BrabantZorg", "Soort zorg": "Verpleeghuizen", "Huisnummer": "26", "Postcode": "5235HJ", "Plaats": "'s-Hertogenbosch", "Concept ingeleverd": null }, "geometry": { "type": "Point", "coordinates": [ 5.310587359414629, 51.720926583392355 ] } },
{ "type": "Feature", "properties": { "Naam": "De Ruwaard", "Organisatie": "Stichting BrabantZorg", "Soort zorg": "Verpleeghuizen", "Huisnummer": "1", "Postcode": "5344BT", "Plaats": "Oss", "Concept ingeleverd": null }, "geometry": { "type": "Point", "coordinates": [ 5.510672013532826, 51.756165987839047 ] } },
{ "type": "Feature", "properties": { "Naam": "De Heegt", "Organisatie": "Stichting BrabantZorg", "Soort zorg": "Verpleeghuizen", "Huisnummer": "1", "Postcode": "5386AW", "Plaats": "Geffen", "Concept ingeleverd": null }, "geometry": { "type": "Point", "coordinates": [ 5.463635563745868, 51.742175202273835 ] } },
{ "type": "Feature", "properties": { "Naam": "Sint Petrus", "Organisatie": "Stichting BrabantZorg", "Soort zorg": "Verpleeghuizen", "Huisnummer": "34", "Postcode": "5427AJ", "Plaats": "Boekel", "Concept ingeleverd": null }, "geometry": { "type": "Point", "coordinates": [ 5.677061803235928, 51.603624351390025 ] } },
{ "type": "Feature", "properties": { "Naam": "Odendael", "Organisatie": "Stichting BrabantZorg", "Soort zorg": "Verpleeghuizen", "Huisnummer": "1", "Postcode": "5492CT", "Plaats": "Sint-Oedenrode", "Concept ingeleverd": null }, "geometry": { "type": "Point", "coordinates": [ 5.458028623569081, 51.564709268868633 ] } },
{ "type": "Feature", "properties": { "Naam": "De Wielewaal", "Organisatie": "Stichting BrabantZorg", "Soort zorg": "Verpleeghuizen", "Huisnummer": "1", "Postcode": "5301GV", "Plaats": "Zaltbommel", "Concept ingeleverd": null }, "geometry": { "type": "Point", "coordinates": [ 5.252204653959923, 51.809131354717351 ] } },
{ "type": "Feature", "properties": { "Naam": "De Leyenstein", "Organisatie": "Stichting BrabantZorg", "Soort zorg": "Verpleeghuizen", "Huisnummer": "2", "Postcode": "5331TA", "Plaats": "Kerkdriel", "Concept ingeleverd": null }, "geometry": { "type": "Point", "coordinates": [ 5.3387985512323, 51.770180281336543 ] } },
{ "type": "Feature", "properties": { "Naam": "Stichting de Riethorst Stromenland", "Organisatie": "Stichting de Riethorst Stromenland", "Soort zorg": "Verpleeghuizen", "Huisnummer": "1c", "Postcode": "4941VX", "Plaats": "Raamsdonksveer", "Concept ingeleverd": null }, "geometry": { "type": "Point", "coordinates": [ 4.871351201875465, 51.707744896399781 ] } },
{ "type": "Feature", "properties": { "Naam": "Woonzorgcentrum Mauritsstaete", "Organisatie": "Stichting de Riethorst Stromenland", "Soort zorg": "Verpleeghuizen", "Huisnummer": "9a01", "Postcode": "4931HV", "Plaats": "Geertruidenberg", "Concept ingeleverd": null }, "geometry": { "type": "Point", "coordinates": [ 4.848057110120092, 51.701725497802954 ] } },
{ "type": "Feature", "properties": { "Naam": "Zorgcomplex De Kloosterhoeve", "Organisatie": "Stichting de Riethorst Stromenland", "Soort zorg": "Verzorgingshuizen", "Huisnummer": "1", "Postcode": "4941EG", "Plaats": "Raamsdonksveer", "Concept ingeleverd": null }, "geometry": { "type": "Point", "coordinates": [ 4.861270825616899, 51.688752014720464 ] } },
{ "type": "Feature", "properties": { "Naam": "Zorgcentrum Antonia", "Organisatie": "Stichting de Riethorst Stromenland", "Soort zorg": "Verzorgingshuizen", "Huisnummer": "29", "Postcode": "4286DE", "Plaats": "Almkerk", "Concept ingeleverd": null }, "geometry": { "type": "Point", "coordinates": [ 4.957207163293291, 51.769806828000434 ] } },
{ "type": "Feature", "properties": { "Naam": "Verpleeghuis De Riethorst", "Organisatie": "Stichting de Riethorst Stromenland", "Soort zorg": "Verzorgingshuizen", "Huisnummer": "17", "Postcode": "4904PX", "Plaats": "Oosterhout", "Concept ingeleverd": null }, "geometry": { "type": "Point", "coordinates": [ 4.853225030086154, 51.627880174501115 ] } },
{ "type": "Feature", "properties": { "Naam": "Zorgcentrum De Lemmenskamp", "Organisatie": "Stichting de Riethorst Stromenland", "Soort zorg": "Verzorgingshuizen", "Huisnummer": "2", "Postcode": "4285CD", "Plaats": "Woudrichem", "Concept ingeleverd": null }, "geometry": { "type": "Point", "coordinates": [ 4.999634258842289, 51.811202838725009 ] } },
{ "type": "Feature", "properties": { "Naam": "Zorgcentrum De Stroming", "Organisatie": "Stichting de Riethorst Stromenland", "Soort zorg": "Verzorgingshuizen", "Huisnummer": "23", "Postcode": "5165CE", "Plaats": "Waspik", "Concept ingeleverd": null }, "geometry": { "type": "Point", "coordinates": [ 4.943771272507242, 51.686279926273627 ] } },
{ "type": "Feature", "properties": { "Naam": "Woonzorgcentrum De Dotter", "Organisatie": "Stichting de Riethorst Stromenland", "Soort zorg": "Verzorgingshuizen", "Huisnummer": "101", "Postcode": "4273CG", "Plaats": "Hank", "Concept ingeleverd": null }, "geometry": { "type": "Point", "coordinates": [ 4.893730539524102, 51.735831802827491 ] } },
{ "type": "Feature", "properties": { "Naam": "Verpleeghuis Altenahove", "Organisatie": "Stichting de Riethorst Stromenland", "Soort zorg": "Verzorgingshuizen", "Huisnummer": "1", "Postcode": "4286DC", "Plaats": "Almkerk", "Concept ingeleverd": null }, "geometry": { "type": "Point", "coordinates": [ 4.95927893471362, 51.76980541614018 ] } },
{ "type": "Feature", "properties": { "Naam": "Zorgcentrum Goezate", "Organisatie": "Stichting de Riethorst Stromenland", "Soort zorg": "Verzorgingshuizen", "Huisnummer": "4", "Postcode": "4251VS", "Plaats": "Werkendam", "Concept ingeleverd": null }, "geometry": { "type": "Point", "coordinates": [ 4.897264788484318, 51.806415783403729 ] } },
{ "type": "Feature", "properties": { "Naam": "Kleinschalig verpleeghuis Aernswaert", "Organisatie": "Stichting de Riethorst Stromenland", "Soort zorg": "Verzorgingshuizen", "Huisnummer": "9a", "Postcode": "4273CD", "Plaats": "Hank", "Concept ingeleverd": null }, "geometry": { "type": "Point", "coordinates": [ 4.896174986097807, 51.7360308277445 ] } },
{ "type": "Feature", "properties": { "Naam": "Slotjesveste", "Organisatie": "Stichting de Riethorst Stromenland", "Soort zorg": "Verpleeghuizen", "Huisnummer": "30", "Postcode": "4902ZC", "Plaats": "Oosterhout", "Concept ingeleverd": null }, "geometry": { "type": "Point", "coordinates": [ 4.859670605380859, 51.637446423184507 ] } },
{ "type": "Feature", "properties": { "Naam": "Zonnehof", "Organisatie": "Stichting Schakelring", "Soort zorg": "Verpleeghuizen", "Huisnummer": "24", "Postcode": "5037EK", "Plaats": "Tilburg", "Concept ingeleverd": "x" }, "geometry": { "type": "Point", "coordinates": [ 5.057365556123649, 51.55881876704521 ] } },
{ "type": "Feature", "properties": { "Naam": "Elzenhoven", "Organisatie": "Stichting Schakelring", "Soort zorg": "Verpleeghuizen, Verzorgingshuizen", "Huisnummer": "15", "Postcode": "5161SB", "Plaats": "Sprang-Capelle", "Concept ingeleverd": "x" }, "geometry": { "type": "Point", "coordinates": [ 5.01594193417208, 51.674477191016095 ] } },
{ "type": "Feature", "properties": { "Naam": "Stichting Schakelring\/Eikendonk", "Organisatie": "Stichting Schakelring", "Soort zorg": "Verpleeghuizen", "Huisnummer": "2", "Postcode": "5143NG", "Plaats": "Waalwijk", "Concept ingeleverd": "x" }, "geometry": { "type": "Point", "coordinates": [ 5.098499798441387, 51.684696041457372 ] } },
{ "type": "Feature", "properties": { "Naam": "Sint Janshof", "Organisatie": "Stichting Schakelring", "Soort zorg": "Verpleeghuizen, Verzorgingshuizen", "Huisnummer": "41", "Postcode": "5251BL", "Plaats": "Vlijmen", "Concept ingeleverd": "x" }, "geometry": { "type": "Point", "coordinates": [ 5.226822066590997, 51.696833722077677 ] } },
{ "type": "Feature", "properties": { "Naam": "Koetshuis", "Organisatie": "Stichting Schakelring", "Soort zorg": "Verpleeghuizen", "Huisnummer": "701", "Postcode": "5146BR", "Plaats": "Waalwijk", "Concept ingeleverd": "x" }, "geometry": { "type": "Point", "coordinates": [ 5.044783866835136, 51.674511125473437 ] } },
{ "type": "Feature", "properties": { "Naam": "Sint Antonius", "Organisatie": "Stichting Schakelring", "Soort zorg": "Verzorgingshuizen", "Huisnummer": "5", "Postcode": "5256AJ", "Plaats": "Heusden", "Concept ingeleverd": "x" }, "geometry": { "type": "Point", "coordinates": [ 5.141294316854419, 51.734158571348935 ] } },
{ "type": "Feature", "properties": { "Naam": "Schakelring-Revalidatie TweeStedenziekenhuis", "Organisatie": "Stichting Schakelring", "Soort zorg": "Verpleeghuizen", "Huisnummer": "2", "Postcode": "5141BM", "Plaats": "Waalwijk", "Concept ingeleverd": "x" }, "geometry": { "type": "Point", "coordinates": [ 5.052302247737907, 51.686155080200614 ] } },
{ "type": "Feature", "properties": { "Naam": "Eekhof", "Organisatie": "Stichting Schakelring", "Soort zorg": "Verpleeghuizen", "Huisnummer": "11", "Postcode": "5171GC", "Plaats": "Kaatsheuvel", "Concept ingeleverd": "x" }, "geometry": { "type": "Point", "coordinates": [ 5.034533703598581, 51.65965853380434 ] } },
{ "type": "Feature", "properties": { "Naam": "Zandley", "Organisatie": "Stichting Schakelring", "Soort zorg": "Verpleeghuizen, Verzorgingshuizen", "Huisnummer": "1", "Postcode": "5151HK", "Plaats": "Drunen", "Concept ingeleverd": "x" }, "geometry": { "type": "Point", "coordinates": [ 5.130803979810867, 51.68988566179646 ] } },
{ "type": "Feature", "properties": { "Naam": "Spoorwiel", "Organisatie": "Stichting Schakelring", "Soort zorg": "Verpleeghuizen", "Huisnummer": "2", "Postcode": "5141BD", "Plaats": "Waalwijk", "Concept ingeleverd": "x" }, "geometry": { "type": "Point", "coordinates": [ 5.054949416301479, 51.688014260814711 ] } },
{ "type": "Feature", "properties": { "Naam": "Stichting Park Zuiderhout", "Organisatie": "Stichting Park Zuiderhout", "Soort zorg": "Verzorgingshuizen", "Huisnummer": "46", "Postcode": "4847DK", "Plaats": "Teteringen", "Concept ingeleverd": null }, "geometry": { "type": "Point", "coordinates": [ 4.831490742932264, 51.617136328590071 ] } },
{ "type": "Feature", "properties": { "Naam": "De Geerhof", "Organisatie": "Stichting Thebe West-Brabant", "Soort zorg": "Verpleeghuizen, Verzorgingshuizen", "Huisnummer": "54", "Postcode": "4861AR", "Plaats": "Chaam", "Concept ingeleverd": null }, "geometry": { "type": "Point", "coordinates": [ 4.860293361581741, 51.509278636028149 ] } },
{ "type": "Feature", "properties": { "Naam": "De Hoogt", "Organisatie": "Stichting Thebe West-Brabant", "Soort zorg": "Verpleeghuizen, Verzorgingshuizen", "Huisnummer": "1", "Postcode": "5131AJ", "Plaats": "Alphen", "Concept ingeleverd": null }, "geometry": { "type": "Point", "coordinates": [ 4.953611052649821, 51.483217353722402 ] } },
{ "type": "Feature", "properties": { "Naam": "De Hillen", "Organisatie": "Stichting Thebe West-Brabant", "Soort zorg": "Verpleeghuizen, Verzorgingshuizen", "Huisnummer": "52", "Postcode": "4823HA", "Plaats": "Breda", "Concept ingeleverd": null }, "geometry": { "type": "Point", "coordinates": [ 4.740327386594796, 51.623831907448796 ] } },
{ "type": "Feature", "properties": { "Naam": "De IJpelaar", "Organisatie": "Stichting Thebe West-Brabant", "Soort zorg": "Verpleeghuizen, Verzorgingshuizen", "Huisnummer": "101", "Postcode": "4834XJ", "Plaats": "Breda", "Concept ingeleverd": null }, "geometry": { "type": "Point", "coordinates": [ 4.799174696848523, 51.570461469723369 ] } },
{ "type": "Feature", "properties": { "Naam": "Liesbosch", "Organisatie": "Stichting Thebe West-Brabant", "Soort zorg": "Verpleeghuizen, Verzorgingshuizen", "Huisnummer": "315", "Postcode": "4838EW", "Plaats": "Breda", "Concept ingeleverd": null }, "geometry": { "type": "Point", "coordinates": [ 4.691834571810062, 51.573836435542013 ] } },
{ "type": "Feature", "properties": { "Naam": "Hagedonk", "Organisatie": "Stichting Thebe West-Brabant", "Soort zorg": "Verpleeghuizen, Verzorgingshuizen", "Huisnummer": "2a1", "Postcode": "4841XD", "Plaats": "Prinsenbeek", "Concept ingeleverd": null }, "geometry": { "type": "Point", "coordinates": [ 4.715685712043736, 51.599773829424798 ] } },
{ "type": "Feature", "properties": { "Naam": "Brabantpark", "Organisatie": "Stichting Thebe West-Brabant", "Soort zorg": "Verpleeghuizen, Verzorgingshuizen", "Huisnummer": "1", "Postcode": "4817GA", "Plaats": "Breda", "Concept ingeleverd": null }, "geometry": { "type": "Point", "coordinates": [ 4.806205303263933, 51.589157327265362 ] } },
{ "type": "Feature", "properties": { "Naam": "Heuvel", "Organisatie": "Stichting Thebe West-Brabant", "Soort zorg": "Verpleeghuizen, Verzorgingshuizen", "Huisnummer": "1", "Postcode": "4812JR", "Plaats": "Breda", "Concept ingeleverd": null }, "geometry": { "type": "Point", "coordinates": [ 4.752880232185518, 51.570947571537502 ] } },
{ "type": "Feature", "properties": { "Naam": "Haga", "Organisatie": "Stichting Thebe West-Brabant", "Soort zorg": "Verpleeghuizen, Verzorgingshuizen", "Huisnummer": "93a1", "Postcode": "4813CX", "Plaats": "Breda", "Concept ingeleverd": null }, "geometry": { "type": "Point", "coordinates": [ 4.733844813749693, 51.579624843618404 ] } },
{ "type": "Feature", "properties": { "Naam": "Aeneas", "Organisatie": "Stichting Thebe West-Brabant", "Soort zorg": "Verpleeghuizen, Verzorgingshuizen", "Huisnummer": "35", "Postcode": "4819ED", "Plaats": "Breda", "Concept ingeleverd": null }, "geometry": { "type": "Point", "coordinates": [ 4.764213462058846, 51.574424257881162 ] } },
{ "type": "Feature", "properties": { "Naam": "Zorgcentrum De Vossemeren", "Organisatie": "Stichting tanteLouise", "Soort zorg": "Verzorgingshuizen", "Huisnummer": "18", "Postcode": "4681AV", "Plaats": "Nieuw-Vossemeer", "Concept ingeleverd": null }, "geometry": { "type": "Point", "coordinates": [ 4.218880509478735, 51.589025248981464 ] } },
{ "type": "Feature", "properties": { "Naam": "Bosgaard", "Organisatie": "Stichting tanteLouise", "Soort zorg": "Verzorgingshuizen", "Huisnummer": "12", "Postcode": "4661AA", "Plaats": "Halsteren", "Concept ingeleverd": null }, "geometry": { "type": "Point", "coordinates": [ 4.301953371104385, 51.514477500526269 ] } },
{ "type": "Feature", "properties": { "Naam": "Woonzorgcentrum Stuijvenburgh", "Organisatie": "Stichting tanteLouise", "Soort zorg": "Verzorgingshuizen", "Huisnummer": "2", "Postcode": "4615KX", "Plaats": "Bergen op Zoom", "Concept ingeleverd": null }, "geometry": { "type": "Point", "coordinates": [ 4.287060650395557, 51.483324927244453 ] } },
{ "type": "Feature", "properties": { "Naam": "Zorgcentrum De Beukenhof", "Organisatie": "Stichting tanteLouise", "Soort zorg": "Verzorgingshuizen", "Huisnummer": "2", "Postcode": "4645HV", "Plaats": "Putte", "Concept ingeleverd": null }, "geometry": { "type": "Point", "coordinates": [ 4.391548234351962, 51.360597503797081 ] } },
{ "type": "Feature", "properties": { "Naam": "Stichting tanteLouise", "Organisatie": "Stichting tanteLouise", "Soort zorg": "Verzorgingshuizen", "Huisnummer": "18", "Postcode": "4613AK", "Plaats": "Bergen op Zoom", "Concept ingeleverd": null }, "geometry": { "type": "Point", "coordinates": [ 4.277218025177783, 51.499637350427236 ] } },
{ "type": "Feature", "properties": { "Naam": "Woonzorgcentrum Avondvrede", "Organisatie": "Stichting tanteLouise", "Soort zorg": "Verzorgingshuizen", "Huisnummer": "172", "Postcode": "4611DX", "Plaats": "Bergen op Zoom", "Concept ingeleverd": null }, "geometry": { "type": "Point", "coordinates": [ 4.290620708894062, 51.499296533977002 ] } },
{ "type": "Feature", "properties": { "Naam": "Zorgcentrum De Nieuwe Haven", "Organisatie": "Stichting tanteLouise", "Soort zorg": "Verzorgingshuizen", "Huisnummer": "2", "Postcode": "4671AW", "Plaats": "Dinteloord", "Concept ingeleverd": null }, "geometry": { "type": "Point", "coordinates": [ 4.36967997282036, 51.634265857474986 ] } },
{ "type": "Feature", "properties": { "Naam": "Zorgcentrum St. Elisabeth", "Organisatie": "Stichting tanteLouise", "Soort zorg": "Verzorgingshuizen", "Huisnummer": "4", "Postcode": "4661JG", "Plaats": "Halsteren", "Concept ingeleverd": null }, "geometry": { "type": "Point", "coordinates": [ 4.269882200284195, 51.529151372107805 ] } },
{ "type": "Feature", "properties": { "Naam": "Kleinschalig wonen Bergen op Zoom", "Organisatie": "Stichting tanteLouise", "Soort zorg": "Verpleeghuizen", "Huisnummer": "15", "Postcode": "4624ES", "Plaats": "Bergen op Zoom", "Concept ingeleverd": null }, "geometry": { "type": "Point", "coordinates": [ 4.300210844087829, 51.487322512120762 ] } },
{ "type": "Feature", "properties": { "Naam": "Kleinschalig wonen Bergen op Zoom", "Organisatie": "Stichting tanteLouise", "Soort zorg": "Verpleeghuizen", "Huisnummer": "101", "Postcode": "4624ES", "Plaats": "Bergen op Zoom", "Concept ingeleverd": null }, "geometry": { "type": "Point", "coordinates": [ 4.302039075981716, 51.487339519108168 ] } },
{ "type": "Feature", "properties": { "Naam": "Het nieuwe ABG", "Organisatie": "Stichting tanteLouise", "Soort zorg": "Verpleeghuizen", "Huisnummer": "13", "Postcode": "4611BD", "Plaats": "Bergen op Zoom", "Concept ingeleverd": null }, "geometry": { "type": "Point", "coordinates": [ 4.290590601984006, 51.49158339335974 ] } },
{ "type": "Feature", "properties": { "Naam": "Zorgcentrum Onze Stede", "Organisatie": "Stichting tanteLouise", "Soort zorg": "Verzorgingshuizen", "Huisnummer": "1", "Postcode": "4651EL", "Plaats": "Steenbergen", "Concept ingeleverd": null }, "geometry": { "type": "Point", "coordinates": [ 4.320863935969291, 51.585990525641257 ] } },
{ "type": "Feature", "properties": { "Naam": "Residentie Moermont", "Organisatie": "Stichting tanteLouise", "Soort zorg": "Verpleeghuizen", "Huisnummer": "6", "Postcode": "4614RX", "Plaats": "Bergen op Zoom", "Concept ingeleverd": null }, "geometry": { "type": "Point", "coordinates": [ 4.300085283255481, 51.509453075722242 ] } },
{ "type": "Feature", "properties": { "Naam": "Zorgcentrum Heideduin", "Organisatie": "Stichting tanteLouise", "Soort zorg": "Verzorgingshuizen", "Huisnummer": "12", "Postcode": "4631KX", "Plaats": "Hoogerheide", "Concept ingeleverd": null }, "geometry": { "type": "Point", "coordinates": [ 4.326419412772561, 51.428503733920373 ] } },
{ "type": "Feature", "properties": { "Naam": "Woonzorgcentrum Jacqueline", "Organisatie": "Stichting tanteLouise", "Soort zorg": "Verzorgingshuizen", "Huisnummer": "20", "Postcode": "4624AK", "Plaats": "Bergen op Zoom", "Concept ingeleverd": null }, "geometry": { "type": "Point", "coordinates": [ 4.308037373697464, 51.483340929359755 ] } },
{ "type": "Feature", "properties": { "Naam": "Hof van Nassau", "Organisatie": "Stichting tanteLouise", "Soort zorg": "Verpleeghuizen, Verzorgingshuizen", "Huisnummer": "7", "Postcode": "4651TM", "Plaats": "Steenbergen", "Concept ingeleverd": null }, "geometry": { "type": "Point", "coordinates": [ 4.313596884669844, 51.588800588498501 ] } },
{ "type": "Feature", "properties": { "Naam": "Verpleeghuis Mariahove", "Organisatie": "Stichting tanteLouise", "Soort zorg": "Verpleeghuizen", "Huisnummer": "1", "Postcode": "4641TL", "Plaats": "Ossendrecht", "Concept ingeleverd": null }, "geometry": { "type": "Point", "coordinates": [ 4.326033886464668, 51.393172091234192 ] } },
{ "type": "Feature", "properties": { "Naam": "Woonzorgcentrum Vissershaven", "Organisatie": "Stichting tanteLouise", "Soort zorg": "Verzorgingshuizen", "Huisnummer": "34", "Postcode": "4611HL", "Plaats": "Bergen op Zoom", "Concept ingeleverd": null }, "geometry": { "type": "Point", "coordinates": [ 4.276090934689265, 51.493891418027296 ] } },
{ "type": "Feature", "properties": { "Naam": "Mitt Hem", "Organisatie": "Stichting Eilandzorg Schouwen-Duiveland", "Soort zorg": "Verzorgingshuizen", "Huisnummer": "4", "Postcode": "4301NW", "Plaats": "Zierikzee", "Concept ingeleverd": null }, "geometry": { "type": "Point", "coordinates": [ 3.926933850324233, 51.656178655836968 ] } },
{ "type": "Feature", "properties": { "Naam": "Stichting Eilandzorg Schouwen-Duiveland", "Organisatie": "Stichting Eilandzorg Schouwen-Duiveland", "Soort zorg": "Verzorgingshuizen", "Huisnummer": "13", "Postcode": "4301KB", "Plaats": "Zierikzee", "Concept ingeleverd": null }, "geometry": { "type": "Point", "coordinates": [ 3.92147620070937, 51.650644646564523 ] } },
{ "type": "Feature", "properties": { "Naam": "De Stelle", "Organisatie": "Stichting Warmande", "Soort zorg": "Verpleeghuizen", "Huisnummer": "7", "Postcode": "4501AE", "Plaats": "Oostburg", "Concept ingeleverd": null }, "geometry": { "type": "Point", "coordinates": [ 3.480571052942892, 51.325505774485407 ] } },
{ "type": "Feature", "properties": { "Naam": "Woonzorgcentrum Rozenoord", "Organisatie": "Stichting Warmande", "Soort zorg": "Verzorgingshuizen", "Huisnummer": "58", "Postcode": "4524AD", "Plaats": "Sluis", "Concept ingeleverd": null }, "geometry": { "type": "Point", "coordinates": [ 3.388447656608141, 51.312928770877051 ] } },
{ "type": "Feature", "properties": { "Naam": "Woonzorgcentrum Hooge Platen", "Organisatie": "Stichting Warmande", "Soort zorg": "Verzorgingshuizen", "Huisnummer": "21", "Postcode": "4511AA", "Plaats": "Breskens", "Concept ingeleverd": null }, "geometry": { "type": "Point", "coordinates": [ 3.555065729517769, 51.397692064750181 ] } },
{ "type": "Feature", "properties": { "Naam": "Burght", "Organisatie": "Stichting Warmande", "Soort zorg": "Verzorgingshuizen", "Huisnummer": "2a", "Postcode": "4501BP", "Plaats": "Oostburg", "Concept ingeleverd": null }, "geometry": { "type": "Point", "coordinates": [ 3.488817657632084, 51.325271894004523 ] } },
{ "type": "Feature", "properties": { "Naam": "Zorg- en verpleegcentrum Nieuw-Sandenburgh", "Organisatie": "Zorgstroom", "Soort zorg": "Verpleeghuizen, Verzorgingshuizen", "Huisnummer": "2", "Postcode": "4351RL", "Plaats": "Veere", "Concept ingeleverd": null }, "geometry": { "type": "Point", "coordinates": [ 3.662681258949076, 51.541426933584056 ] } },
{ "type": "Feature", "properties": { "Naam": "Binnenhaven", "Organisatie": "Zorgstroom", "Soort zorg": "Verpleeghuizen", "Huisnummer": "1", "Postcode": "4339BV", "Plaats": "Nieuw- en Sint Joosland", "Concept ingeleverd": null }, "geometry": { "type": "Point", "coordinates": [ 3.661093292790934, 51.483415579529478 ] } },
{ "type": "Feature", "properties": { "Naam": "Woonzorgcentrum Hof 't Seijs", "Organisatie": "Zorgstroom", "Soort zorg": "Verzorgingshuizen", "Huisnummer": "40", "Postcode": "4334BK", "Plaats": "Middelburg", "Concept ingeleverd": null }, "geometry": { "type": "Point", "coordinates": [ 3.596437976471376, 51.502139754360101 ] } },
{ "type": "Feature", "properties": { "Naam": "Hof Mondriaan", "Organisatie": "Zorgstroom", "Soort zorg": "Verzorgingshuizen", "Huisnummer": "28", "Postcode": "4337EE", "Plaats": "Middelburg", "Concept ingeleverd": null }, "geometry": { "type": "Point", "coordinates": [ 3.622308615484035, 51.49103488641348 ] } },
{ "type": "Feature", "properties": { "Naam": "Hervormde Stichting \"Sonneburgh\"", "Organisatie": "Hervormde Stichting \"Sonneburgh\"", "Soort zorg": "Verzorgingshuizen", "Huisnummer": "381", "Postcode": "3084LM", "Plaats": "Rotterdam", "Concept ingeleverd": null }, "geometry": { "type": "Point", "coordinates": [ 4.457028364021379, 51.874116502839996 ] } },
{ "type": "Feature", "properties": { "Naam": "Herv St Sonneburgh, locatie Groene Kruisweg", "Organisatie": "Hervormde Stichting \"Sonneburgh\"", "Soort zorg": "Verzorgingshuizen", "Huisnummer": "269", "Postcode": "3084LM", "Plaats": "Rotterdam", "Concept ingeleverd": null }, "geometry": { "type": "Point", "coordinates": [ 4.457393990757518, 51.874694681924524 ] } },
{ "type": "Feature", "properties": { "Naam": "Sonneburgh, locatie Ravenswaard", "Organisatie": "Hervormde Stichting \"Sonneburgh\"", "Soort zorg": "Verzorgingshuizen", "Huisnummer": "5", "Postcode": "3078PG", "Plaats": "Rotterdam", "Concept ingeleverd": null }, "geometry": { "type": "Point", "coordinates": [ 4.544343780116784, 51.88834848087739 ] } },
{ "type": "Feature", "properties": { "Naam": "Sonneburgh, locatie Het Havenlicht", "Organisatie": "Hervormde Stichting \"Sonneburgh\"", "Soort zorg": "Verzorgingshuizen", "Huisnummer": "4", "Postcode": "3195RP", "Plaats": "Pernis Rotterdam", "Concept ingeleverd": null }, "geometry": { "type": "Point", "coordinates": [ 4.391961251491792, 51.888271011235808 ] } },
{ "type": "Feature", "properties": { "Naam": "Het Polderwiel", "Organisatie": "Stichting Het Spectrum", "Soort zorg": "Verzorgingshuizen", "Huisnummer": "58", "Postcode": "3315KA", "Plaats": "Dordrecht", "Concept ingeleverd": null }, "geometry": { "type": "Point", "coordinates": [ 4.71901942095635, 51.80251603578332 ] } },
{ "type": "Feature", "properties": { "Naam": "Verpleeghuis De Sterrenlanden", "Organisatie": "Stichting Het Spectrum", "Soort zorg": "Verpleeghuizen", "Huisnummer": "4", "Postcode": "3328HN", "Plaats": "Dordrecht", "Concept ingeleverd": null }, "geometry": { "type": "Point", "coordinates": [ 4.685788707295266, 51.782933503331591 ] } },