{"type":"FeatureCollection","features":[{"type":"Feature","properties":{"Naam":"Woonzorgvoorziening \"de Meerenburgh\"","Organisatie":"CV Woonzorgvoorziening \"de Meerenburgh\"","Soort zorg":"Verzorgingshuizen","Huisnummer":"10","Postcode":"6615AA","Plaats":"Leur","Routekaart":"Niet ingeleverd"},"geometry":{"type":"Point","coordinates":[5.69921,51.82659]}},{"type":"Feature","properties":{"Naam":"Stichting Kalorama","Organisatie":"Stichting Kalorama","Soort zorg":"Verpleeghuizen","Huisnummer":"12","Postcode":"6573DX","Plaats":"Beek","Routekaart":"Wordt aan gewerkt","Ambitie":"EM ingepland"},"geometry":{"type":"Point","coordinates":[5.92151,51.82739]}},{"type":"Feature","properties":{"Naam":"Zorgcentrum 't Slot","Organisatie":"Stichting Zorgcentrum 't Slot","Soort zorg":"Verpleeghuizen, Verzorgingshuizen","Huisnummer":"1","Postcode":"5311CM","Plaats":"Gameren","Routekaart":"Actueel en vastgesteld","Ambitie":"EM ingepland"},"geometry":{"type":"Point","coordinates":[5.20164,51.80207]}},{"type":"Feature","properties":{"Naam":"Zorgcentra De Betuwe/De Valentijn","Organisatie":"Zorgcentra De Betuwe","Soort zorg":"Verzorgingshuizen","Huisnummer":"84","Postcode":"4021HN","Plaats":"Maurik","Routekaart":"Niet ingeleverd"},"geometry":{"type":"Point","coordinates":[5.42935,51.96276]}},{"type":"Feature","properties":{"Naam":"Stg. Rivas Zorggroep","Organisatie":"Stichting Rivas Zorggroep","Soort zorg":"Verpleeghuizen, verzorging en thuiszorg","Huisnummer":"57","Postcode":"4204AA","Plaats":"Gorinchem","Routekaart":"Actueel en vastgesteld","Ambitie":"EM ingepland"},"geometry":{"type":"Point","coordinates":[4.95768,51.83863]}},{"type":"Feature","properties":{"Naam":"Stichting Zorgcentra Rivierenland","Organisatie":"Stichting Zorgcentra Rivierenland","Soort zorg":"Verpleeghuizen, Verzorgingshuizen","Huisnummer":"49","Postcode":"4003CA","Plaats":"Tiel","Routekaart":"Wordt aan gewerkt","Ambitie":"EM ingepland"},"geometry":{"type":"Point","coordinates":[5.41194,51.891]}},{"type":"Feature","properties":{"Naam":"Verpleeghuis st. Elisabeth","Organisatie":"Stichting zorggroep Maas & Waal","Soort zorg":"Verpleeghuizen","Huisnummer":"10","Postcode":"6658WX","Plaats":"Beneden-Leeuwen","Routekaart":"Niet ingeleverd"},"geometry":{"type":"Point","coordinates":[5.51871,51.88143]}},{"type":"Feature","properties":{"Naam":"De Wilgenhoeve B.V.","Organisatie":"De Wilgenhoeve B.V.","Soort zorg":"Verzorgingshuizen","Huisnummer":"68","Postcode":"4126RK","Plaats":"Hei- en Boeicop","Routekaart":"Niet ingeleverd"},"geometry":{"type":"Point","coordinates":[5.07728,51.94578]}},{"type":"Feature","properties":{"Naam":"Vincent van Gogh voor Geestelijke Gezondheid","Organisatie":"Stichting Vincent van Gogh","Soort zorg":"Verpleeghuizen, verzorging en thuiszorg","Huisnummer":"46","Postcode":"5803AC","Plaats":"Venray","Routekaart":"Wordt aan gewerkt","Ambitie":"EM ingepland"},"geometry":{"type":"Point","coordinates":[5.98731,51.52739]}},{"type":"Feature","properties":{"Naam":"Hospice Mariaweide","Organisatie":"Stichting Hospice Venlo","Soort zorg":"Verzorgingshuizen","Huisnummer":"41","Postcode":"5911JS","Plaats":"Venlo","Routekaart":"Niet ingeleverd"},"geometry":{"type":"Point","coordinates":[6.16908,51.36774]}},{"type":"Feature","properties":{"Naam":"Stichting Zorggroep Noord- en Midden-Limburg","Organisatie":"De Zorggroep","Soort zorg":"Verpleeghuizen, Verzorgingshuizen","Huisnummer":"31","Postcode":"5915PN","Plaats":"Venlo","Routekaart":"Wordt aan gewerkt","Ambitie":"Route tot 2040"},"geometry":{"type":"Point","coordinates":[6.18603,51.3416]}},{"type":"Feature","properties":{"Naam":"Huys Waerenberg","Organisatie":"Woon-Zorg ANJO","Soort zorg":"Verzorgingshuizen","Huisnummer":"40","Postcode":"6085NH","Plaats":"Horn","Routekaart":"Niet ingeleverd"},"geometry":{"type":"Point","coordinates":[5.91971,51.2251]}},{"type":"Feature","properties":{"Naam":"Proteion Thuiszorg","Organisatie":"Stichting Proteion","Soort zorg":"Verpleeghuizen, verzorging en thuiszorg","Huisnummer":"21","Postcode":"6085NH","Plaats":"Horn","Routekaart":"Actueel en vastgesteld","Ambitie":"Route tot 2030"},"geometry":{"type":"Point","coordinates":[5.9203,51.22131]}},{"type":"Feature","properties":{"Naam":"Stichting Sevagram Zorgcentra","Organisatie":"Stichting Sevagram","Soort zorg":"Verzorgingshuizen","Huisnummer":"1","Postcode":"6216CE","Plaats":"Maastricht","Routekaart":"Actueel en vastgesteld","Ambitie":"Route tot 2030"},"geometry":{"type":"Point","coordinates":[5.66739,50.85014]}},{"type":"Feature","properties":{"Naam":"Stichting Cicero Zorggroep","Organisatie":"Stichting Cicero Zorggroep","Soort zorg":"Verzorgingshuizen","Huisnummer":"3","Postcode":"6441CR","Plaats":"Brunssum","Routekaart":"Actueel en vastgesteld","Ambitie":"Route tot 2030"},"geometry":{"type":"Point","coordinates":[5.96984,50.94819]}},{"type":"Feature","properties":{"Naam":"'t Puther Höfke","Organisatie":"'t Puther Höfke V.O.F.","Soort zorg":"Verzorgingshuizen","Huisnummer":"82","Postcode":"6155KP","Plaats":"Puth","Routekaart":"Niet ingeleverd"},"geometry":{"type":"Point","coordinates":[5.86956,50.95634]}},{"type":"Feature","properties":{"Naam":"Eur. Care Residence/Hotel Domaine Cauberg BV","Organisatie":"Eur. Care Residence/Hotel Domaine Cauberg BV","Soort zorg":"Verpleeghuizen, Verzorgingshuizen","Huisnummer":"54","Postcode":"3436ZZ","Plaats":"Nieuwegein","Routekaart":"Niet ingeleverd"},"geometry":{"type":"Point","coordinates":[5.06477,52.02697]}},{"type":"Feature","properties":{"Naam":"Zorggroep Triade B.V.","Organisatie":"Zorggroep Triade B.V.","Soort zorg":"Verpleeghuizen, verzorging en thuiszorg","Huisnummer":"44","Postcode":"6445PA","Plaats":"Brunssum","Routekaart":"Actueel en vastgesteld","Ambitie":"EM ingepland"},"geometry":{"type":"Point","coordinates":[5.99219,50.93784]}},{"type":"Feature","properties":{"Naam":"Zuyderland Zorgcentra B.V.","Organisatie":"Zuyderland Zorgcentra B.V.","Soort zorg":"Verpleeghuizen","Huisnummer":"10","Postcode":"6131KG","Plaats":"Sittard","Routekaart":"Niet ingeleverd"},"geometry":{"type":"Point","coordinates":[5.86475,50.99649]}},{"type":"Feature","properties":{"Naam":"Stichting Zuyderland Zorg","Organisatie":"Stichting Zuyderland Zorg","Soort zorg":"Verzorgingshuizen","Huisnummer":"1","Postcode":"6162BG","Plaats":"Geleen","Routekaart":"Wordt aan gewerkt","Ambitie":"Route tot 2030"},"geometry":{"type":"Point","coordinates":[5.84459,50.98318]}},{"type":"Feature","properties":{"Naam":"Savant Zorg","Organisatie":"Savant Zorg","Soort zorg":"Verpleeghuizen","Huisnummer":"4","Postcode":"5708HN","Plaats":"Helmond","Routekaart":"Wordt aan gewerkt","Ambitie":"Onbekend"},"geometry":{"type":"Point","coordinates":[5.62681,51.47375]}},{"type":"Feature","properties":{"Naam":"St. Anna Ziekenhuis","Organisatie":"Stichting St. Anna Zorggroep","Soort zorg":"Verpleeghuizen, verzorging en thuiszorg","Huisnummer":"2","Postcode":"5664EH","Plaats":"Geldrop","Routekaart":"Actueel en vastgesteld","Ambitie":"Route tot 2050"},"geometry":{"type":"Point","coordinates":[5.55855,51.41984]}},{"type":"Feature","properties":{"Naam":"Stichting Zorggroep Elde Maasduinen","Organisatie":"Stichting Zorggroep Elde Maasduinen","Soort zorg":"Verpleeghuizen","Huisnummer":"12","Postcode":"5282SM","Plaats":"Boxtel","Routekaart":"Actueel en vastgesteld","Ambitie":"Route tot 2030"},"geometry":{"type":"Point","coordinates":[5.3131,51.59909]}},{"type":"Feature","properties":{"Naam":"Breederzorg B.V.","Organisatie":"Breederzorg B.V.","Soort zorg":"Verpleeghuizen, verzorging en thuiszorg","Huisnummer":"11","Postcode":"5406NT","Plaats":"Uden","Routekaart":"Actueel en vastgesteld","Ambitie":"EM ingepland"},"geometry":{"type":"Point","coordinates":[5.62387,51.64684]}},{"type":"Feature","properties":{"Naam":"Stichting Vivent / Maria Oord","Organisatie":"Stichting Vivent","Soort zorg":"Verpleeghuizen","Huisnummer":"369","Postcode":"5244NJ","Plaats":"Rosmalen","Routekaart":"Wordt aan gewerkt","Ambitie":"EM ingepland"},"geometry":{"type":"Point","coordinates":[5.39992,51.71441]}},{"type":"Feature","properties":{"Naam":"Vincent Dekkers Zorg","Organisatie":"Vincent Dekkers Zorg","Soort zorg":"Verpleeghuizen","Huisnummer":"78c","Postcode":"3061SV","Plaats":"Rotterdam","Routekaart":"Niet ingeleverd"},"geometry":{"type":"Point","coordinates":[4.50068,51.92366]}},{"type":"Feature","properties":{"Naam":"Zorgcentrum Amaliazorg","Organisatie":"Stichting Amaliazorg","Soort zorg":"Verpleeghuizen","Huisnummer":"37","Postcode":"5688AG","Plaats":"Oirschot","Routekaart":"Actueel en vastgesteld","Ambitie":"Route tot 2050"},"geometry":{"type":"Point","coordinates":[5.30371,51.50145]}},{"type":"Feature","properties":{"Naam":"Wooninitiatief Schneiders B.V.","Organisatie":"Wooninitiatief Schneiders B.V.","Soort zorg":"Verpleeghuizen","Huisnummer":"9","Postcode":"5707EJ","Plaats":"Helmond","Routekaart":"Niet ingeleverd"},"geometry":{"type":"Point","coordinates":[5.63938,51.47774]}},{"type":"Feature","properties":{"Naam":"Stichting Mariënstede","Organisatie":"Stichting Mariënstede","Soort zorg":"Verpleeghuizen, verzorging en thuiszorg","Huisnummer":"48","Postcode":"5262TN","Plaats":"Vught","Routekaart":"Wordt aan gewerkt","Ambitie":"EM ingepland"},"geometry":{"type":"Point","coordinates":[5.27906,51.64594]}},{"type":"Feature","properties":{"Naam":"Stichting BrabantZorg","Organisatie":"Stichting BrabantZorg","Soort zorg":"Verzorgingshuizen","Huisnummer":"20","Postcode":"5349AA","Plaats":"Oss","Routekaart":"Wordt aan gewerkt","Ambitie":"EM ingepland"},"geometry":{"type":"Point","coordinates":[5.52877,51.76421]}},{"type":"Feature","properties":{"Naam":"Meike Smits Coaching","Organisatie":"Meike Smits Coaching","Soort zorg":"Verpleeghuizen","Huisnummer":"56","Postcode":"5673BC","Plaats":"Nuenen","Routekaart":"Niet ingeleverd"},"geometry":{"type":"Point","coordinates":[5.56809,51.47693]}},{"type":"Feature","properties":{"Naam":"Stichting Sterk Huis","Organisatie":"Stichting Sterk Huis","Soort zorg":"Verpleeghuizen, verzorging en thuiszorg","Huisnummer":"75","Postcode":"5053EA","Plaats":"Goirle","Routekaart":"Wordt aan gewerkt","Ambitie":"EM ingepland"},"geometry":{"type":"Point","coordinates":[5.06851,51.53]}},{"type":"Feature","properties":{"Naam":"Stichting Combinatie Jeugdzorg","Organisatie":"Stichting Combinatie Jeugdzorg","Soort zorg":"Verpleeghuizen, verzorging en thuiszorg","Huisnummer":"4","Postcode":"5631KB","Plaats":"Eindhoven","Routekaart":"Wordt aan gewerkt","Ambitie":"EM ingepland"},"geometry":{"type":"Point","coordinates":[5.50285,51.46643]}},{"type":"Feature","properties":{"Naam":"Stichting de Riethorst Stromenland","Organisatie":"Stichting de Riethorst Stromenland","Soort zorg":"Verpleeghuizen","Huisnummer":"1c","Postcode":"4941VX","Plaats":"Raamsdonksveer","Routekaart":"Niet ingeleverd"},"geometry":{"type":"Point","coordinates":[4.87135,51.70774]}},{"type":"Feature","properties":{"Naam":"Stichting Schakelring/Eikendonk","Organisatie":"Stichting Schakelring","Soort zorg":"Verpleeghuizen","Huisnummer":"2","Postcode":"5143NG","Plaats":"Waalwijk","Routekaart":"Niet ingeleverd"},"geometry":{"type":"Point","coordinates":[5.0985,51.6847]}},{"type":"Feature","properties":{"Naam":"Stichting Park Zuiderhout","Organisatie":"Stichting Park Zuiderhout","Soort zorg":"Verzorgingshuizen","Huisnummer":"46","Postcode":"4847DK","Plaats":"Teteringen","Routekaart":"Actueel en vastgesteld","Ambitie":"Route tot +-2025"},"geometry":{"type":"Point","coordinates":[4.83149,51.61714]}},{"type":"Feature","properties":{"Naam":"Stichting tanteLouise","Organisatie":"Stichting tanteLouise","Soort zorg":"Verzorgingshuizen","Huisnummer":"18","Postcode":"4613AK","Plaats":"Bergen op Zoom","Routekaart":"Actueel en vastgesteld","Ambitie":"Route tot 2050"},"geometry":{"type":"Point","coordinates":[4.27722,51.49964]}},{"type":"Feature","properties":{"Naam":"M. Jansen-Boschitsch","Organisatie":"M. Jansen-Boschitsch","Soort zorg":"Verpleeghuizen","Huisnummer":"33","Postcode":"4386GB","Plaats":"Vlissingen","Routekaart":"Niet ingeleverd"},"geometry":{"type":"Point","coordinates":[3.56281,51.46462]}},{"type":"Feature","properties":{"Naam":"Hart in de Zorg","Organisatie":"Hart in de Zorg","Soort zorg":"Verpleeghuizen","Huisnummer":"24","Postcode":"4871KL","Plaats":"Etten-Leur","Routekaart":"Niet ingeleverd"},"geometry":{"type":"Point","coordinates":[4.66245,51.58992]}},{"type":"Feature","properties":{"Naam":"Bureau Gerda Felius","Organisatie":"Bureau Gerda Felius","Soort zorg":"Verpleeghuizen","Huisnummer":"18","Postcode":"4461TW","Plaats":"Goes","Routekaart":"Niet ingeleverd"},"geometry":{"type":"Point","coordinates":[3.90434,51.50975]}},{"type":"Feature","properties":{"Naam":"Zorg voor Vastgoed B.V.","Organisatie":"Zorg voor Vastgoed B.V.","Soort zorg":"Verzorgingshuizen","Huisnummer":"6","Postcode":"4811VP","Plaats":"Breda","Routekaart":"Niet ingeleverd"},"geometry":{"type":"Point","coordinates":[4.76565,51.58758]}},{"type":"Feature","properties":{"Naam":"Stichting Eilandzorg Schouwen-Duiveland","Organisatie":"Stichting Eilandzorg Schouwen-Duiveland","Soort zorg":"Verzorgingshuizen","Huisnummer":"13","Postcode":"4301KB","Plaats":"Zierikzee","Routekaart":"Niet ingeleverd"},"geometry":{"type":"Point","coordinates":[3.92148,51.65064]}},{"type":"Feature","properties":{"Naam":"De Stelle","Organisatie":"Stichting Warmande","Soort zorg":"Verpleeghuizen","Huisnummer":"7","Postcode":"4501AE","Plaats":"Oostburg","Routekaart":"Niet ingeleverd"},"geometry":{"type":"Point","coordinates":[3.48057,51.32551]}},{"type":"Feature","properties":{"Naam":"Stichting Hospice Zeeuwsch Vlaanderen","Organisatie":"Stichting Hospice Zeeuwsch Vlaanderen","Soort zorg":"Verpleeghuizen","Huisnummer":"40","Postcode":"4532AG","Plaats":"Terneuzen","Routekaart":"Niet ingeleverd"},"geometry":{"type":"Point","coordinates":[3.83711,51.33324]}},{"type":"Feature","properties":{"Naam":"Stichting Wonen Met Zorg en Ondersteuning","Organisatie":"St. Wonen Met Zorg en Ondersteuning","Soort zorg":"Verzorgingshuizen","Huisnummer":"71","Postcode":"4335HT","Plaats":"Middelburg","Routekaart":"Niet ingeleverd"},"geometry":{"type":"Point","coordinates":[3.60368,51.49233]}},{"type":"Feature","properties":{"Naam":"Hervormde Stichting \"Sonneburgh\"","Organisatie":"Hervormde Stichting \"Sonneburgh\"","Soort zorg":"Verzorgingshuizen","Huisnummer":"381","Postcode":"3084LM","Plaats":"Rotterdam","Routekaart":"Wordt aan gewerkt","Ambitie":"Route tot 2030"},"geometry":{"type":"Point","coordinates":[4.45703,51.87412]}},{"type":"Feature","properties":{"Naam":"Verpleeghuis De Sterrenlanden","Organisatie":"Stichting Het Spectrum","Soort zorg":"Verpleeghuizen","Huisnummer":"4","Postcode":"3328HN","Plaats":"Dordrecht","Routekaart":"Niet ingeleverd"},"geometry":{"type":"Point","coordinates":[4.68579,51.78293]}},{"type":"Feature","properties":{"Naam":"Stichting Hospice Midden-Holland","Organisatie":"Steun. als sterven nabij is","Soort zorg":"Verpleeghuizen","Huisnummer":"67","Postcode":"2803NA","Plaats":"Gouda","Routekaart":"Niet ingeleverd"},"geometry":{"type":"Point","coordinates":[4.70784,52.02219]}},{"type":"Feature","properties":{"Naam":"Catharina Stichting","Organisatie":"Catharina Stichting","Soort zorg":"Verzorgingshuizen","Huisnummer":"7","Postcode":"3235AE","Plaats":"Rockanje","Routekaart":"Niet ingeleverd"},"geometry":{"type":"Point","coordinates":[4.06834,51.87454]}},{"type":"Feature","properties":{"Naam":"De Ronsseveste","Organisatie":"SZMH","Soort zorg":"Verpleeghuizen, Verzorgingshuizen","Huisnummer":"242","Postcode":"2803ZX","Plaats":"Gouda","Routekaart":"Wordt aan gewerkt","Ambitie":"Route tot 2040"},"geometry":{"type":"Point","coordinates":[4.70724,52.01926]}},{"type":"Feature","properties":{"Naam":"Het Zonnehuis","Organisatie":"Het Zonnehuis","Soort zorg":"Verpleeghuizen","Huisnummer":"5","Postcode":"3136EA","Plaats":"Vlaardingen","Routekaart":"Actueel en vastgesteld","Ambitie":"Route tot 2030"},"geometry":{"type":"Point","coordinates":[4.35069,51.92489]}},{"type":"Feature","properties":{"Naam":"De Buitensluis","Organisatie":"Stichting Alerimus","Soort zorg":"Verpleeghuizen, Verzorgingshuizen","Huisnummer":"25","Postcode":"3281BC","Plaats":"Numansdorp","Routekaart":"Niet ingeleverd"},"geometry":{"type":"Point","coordinates":[4.43385,51.73013]}},{"type":"Feature","properties":{"Naam":"Stg ZVGO","Organisatie":"Stg ZVGO","Soort zorg":"Verzorgingshuizen","Huisnummer":"22","Postcode":"3247BW","Plaats":"Dirksland","Routekaart":"Niet ingeleverd"},"geometry":{"type":"Point","coordinates":[4.10199,51.75039]}},{"type":"Feature","properties":{"Naam":"Stichting Argos Zorggroep","Organisatie":"Stichting Argos Zorggroep","Soort zorg":"Verpleeghuizen","Huisnummer":"35","Postcode":"3123AX","Plaats":"Schiedam","Routekaart":"Wordt aan gewerkt","Ambitie":"EM ingepland"},"geometry":{"type":"Point","coordinates":[4.36507,51.93931]}},{"type":"Feature","properties":{"Naam":"Stichting Aafje Thuiszorg Huizen Zorghotels","Organisatie":"Aafje","Soort zorg":"Verpleeghuizen, verzorging en thuiszorg","Huisnummer":"222","Postcode":"3069BV","Plaats":"Rotterdam","Routekaart":"Wordt aan gewerkt","Ambitie":"Route tot 2030"},"geometry":{"type":"Point","coordinates":[4.55211,51.9636]}},{"type":"Feature","properties":{"Naam":"Swinhove","Organisatie":"Stichting Swinhove Groep","Soort zorg":"Verzorgingshuizen","Huisnummer":"3","Postcode":"3333GZ","Plaats":"Zwijndrecht","Routekaart":"Actueel en vastgesteld","Ambitie":"Route tot 2050"},"geometry":{"type":"Point","coordinates":[4.63064,51.81494]}},{"type":"Feature","properties":{"Naam":"Lea Vogel","Organisatie":"Lea Vogel","Soort zorg":"Verzorgingshuizen","Huisnummer":"27","Postcode":"3317RK","Plaats":"Dordrecht","Routekaart":"Niet ingeleverd"},"geometry":{"type":"Point","coordinates":[4.66209,51.78763]}},{"type":"Feature","properties":{"Naam":"Justyna Care and Advice","Organisatie":"Justyna Care and Advice","Soort zorg":"Verpleeghuizen, Verzorgingshuizen","Huisnummer":"160","Postcode":"3132VH","Plaats":"Vlaardingen","Routekaart":"Niet ingeleverd"},"geometry":{"type":"Point","coordinates":[4.31812,51.91693]}},{"type":"Feature","properties":{"Naam":"Stichting Yulius","Organisatie":"Stichting Yulius","Soort zorg":"Verpleeghuizen, verzorging en thuiszorg","Huisnummer":"93c","Postcode":"3311JG","Plaats":"Dordrecht","Routekaart":"Wordt aan gewerkt","Ambitie":"EM ingepland"},"geometry":{"type":"Point","coordinates":[4.66396,51.8083]}},{"type":"Feature","properties":{"Naam":"D-J Baan Invest B.V.","Organisatie":"D-J Baan Invest B.V.","Soort zorg":"Verzorgingshuizen","Huisnummer":"57","Postcode":"3381KT","Plaats":"Giessenburg","Routekaart":"Niet ingeleverd"},"geometry":{"type":"Point","coordinates":[4.89225,51.85415]}},{"type":"Feature","properties":{"Naam":"Lelie Zorggroep","Organisatie":"Stichting Lelie Zorggroep","Soort zorg":"Verpleeghuizen, verzorging en thuiszorg","Huisnummer":"222","Postcode":"3067GJ","Plaats":"Rotterdam","Routekaart":"Actueel en vastgesteld","Ambitie":"EM ingepland"},"geometry":{"type":"Point","coordinates":[4.54724,51.94795]}},{"type":"Feature","properties":{"Naam":"Thuiszorg ZusterNorma","Organisatie":"Thuiszorg ZusterNorma","Soort zorg":"Verpleeghuizen","Huisnummer":"913","Postcode":"3331SM","Plaats":"Zwijndrecht","Routekaart":"Niet ingeleverd"},"geometry":{"type":"Point","coordinates":[4.63416,51.82127]}},{"type":"Feature","properties":{"Naam":"Vivere Wonen B.V.","Organisatie":"Vivere Wonen B.V.","Soort zorg":"Verzorgingshuizen","Huisnummer":"1","Postcode":"2841BN","Plaats":"Moordrecht","Routekaart":"Niet ingeleverd"},"geometry":{"type":"Point","coordinates":[4.66891,51.98457]}},{"type":"Feature","properties":{"Naam":"\"Kessler Stichting\"","Organisatie":"\"Kessler Stichting\"","Soort zorg":"Verpleeghuizen","Huisnummer":"530","Postcode":"2571GN","Plaats":"'s-Gravenhage","Routekaart":"Niet ingeleverd"},"geometry":{"type":"Point","coordinates":[4.29098,52.06227]}},{"type":"Feature","properties":{"Naam":"Het Hospice Zoetermeer","Organisatie":"Hospice Zoetermeer","Soort zorg":"Verpleeghuizen","Huisnummer":"1","Postcode":"2712VC","Plaats":"Zoetermeer","Routekaart":"Niet ingeleverd"},"geometry":{"type":"Point","coordinates":[4.50235,52.053]}},{"type":"Feature","properties":{"Naam":"Zorginstellingen Pieter van Foreest","Organisatie":"Stichting Zorginstellingen Pieter van Foreest","Soort zorg":"Verpleeghuizen, verzorging en thuiszorg","Huisnummer":"2","Postcode":"2623AA","Plaats":"Delft","Routekaart":"Actueel en vastgesteld","Ambitie":"Route tot 2030"},"geometry":{"type":"Point","coordinates":[4.36081,51.98829]}},{"type":"Feature","properties":{"Naam":"Kruseman Aretz B.V.","Organisatie":"Kruseman Aretz B.V.","Soort zorg":"Verzorgingshuizen","Huisnummer":"671","Postcode":"2245CB","Plaats":"Wassenaar","Routekaart":"Niet ingeleverd"},"geometry":{"type":"Point","coordinates":[4.3766,52.11521]}},{"type":"Feature","properties":{"Naam":"Huize Royal","Organisatie":"Stichting Saffier - De Residentie Groep","Soort zorg":"Verpleeghuizen","Huisnummer":"38","Postcode":"2584CV","Plaats":"'s-Gravenhage","Routekaart":"Wordt aan gewerkt","Ambitie":"Onbekend"},"geometry":{"type":"Point","coordinates":[4.28133,52.10183]}},{"type":"Feature","properties":{"Naam":"Stichting Zorggroep Florence","Organisatie":"Stichting Zorggroep Florence","Soort zorg":"Verpleeghuizen, verzorging en thuiszorg","Huisnummer":"1","Postcode":"2289DA","Plaats":"Rijswijk","Routekaart":"Wordt aan gewerkt","Ambitie":"Onbekend"},"geometry":{"type":"Point","coordinates":[4.34491,52.05189]}},{"type":"Feature","properties":{"Naam":"Woonzorgcentrum Oldeslo","Organisatie":"Stichting Zorggroep Oldael","Soort zorg":"Verzorgingshuizen","Huisnummer":"18","Postcode":"2597KE","Plaats":"'s-Gravenhage","Routekaart":"Niet ingeleverd"},"geometry":{"type":"Point","coordinates":[4.30634,52.10676]}},{"type":"Feature","properties":{"Naam":"Stg Hospice en Vrijwilligers VPTZ Delft","Organisatie":"Stg Hospice en Vrijwilligers VPTZ Delft","Soort zorg":"Verpleeghuizen","Huisnummer":"602","Postcode":"2624DZ","Plaats":"Delft","Routekaart":"Niet ingeleverd"},"geometry":{"type":"Point","coordinates":[4.35277,52.00124]}},{"type":"Feature","properties":{"Naam":"SWZ Sophieke / SWZ Thuiszorg","Organisatie":"Stichting Wassenaarse Zorgverlening","Soort zorg":"Verpleeghuizen, Verzorgingshuizen","Huisnummer":"313","Postcode":"2242LJ","Plaats":"Wassenaar","Routekaart":"Niet ingeleverd"},"geometry":{"type":"Point","coordinates":[4.39135,52.14785]}},{"type":"Feature","properties":{"Naam":"Stichting Careyn","Organisatie":"Stichting Careyn","Soort zorg":"Verpleeghuizen, verzorging en thuiszorg","Huisnummer":"300","Postcode":"3125BK","Plaats":"Schiedam","Routekaart":"Wordt aan gewerkt","Ambitie":"EM ingepland"},"geometry":{"type":"Point","coordinates":[4.40094,51.93242]}},{"type":"Feature","properties":{"Naam":"Respect Zorggroep Scheveningen","Organisatie":"Stichting Respect Wonen Zorg Welzijn","Soort zorg":"Verzorgingshuizen","Huisnummer":"76","Postcode":"2517KZ","Plaats":"'s-Gravenhage","Routekaart":"Wordt aan gewerkt","Ambitie":"Route tot 2030"},"geometry":{"type":"Point","coordinates":[4.28255,52.09847]}},{"type":"Feature","properties":{"Naam":"Woonzorgcentrum Landscheiding","Organisatie":"Stichting Cardia","Soort zorg":"Verpleeghuizen, Verzorgingshuizen","Huisnummer":"150","Postcode":"2591SL","Plaats":"'s-Gravenhage","Routekaart":"Actueel en vastgesteld","Ambitie":"Route tot +-2025"},"geometry":{"type":"Point","coordinates":[4.36345,52.1003]}},{"type":"Feature","properties":{"Naam":"Gezondheidscentrum Sanitas West","Organisatie":"Stichting Zorg Nederland","Soort zorg":"Verpleeghuizen","Huisnummer":"540","Postcode":"3023HL","Plaats":"Rotterdam","Routekaart":"Niet ingeleverd"},"geometry":{"type":"Point","coordinates":[4.44596,51.91635]}},{"type":"Feature","properties":{"Naam":"Stichting ActiVite","Organisatie":"Stichting ActiVite","Soort zorg":"Verzorgingshuizen","Huisnummer":"8","Postcode":"2353GA","Plaats":"Leiderdorp","Routekaart":"Wordt aan gewerkt","Ambitie":"EM ingepland"},"geometry":{"type":"Point","coordinates":[4.5423,52.15556]}},{"type":"Feature","properties":{"Naam":"Middin","Organisatie":"Stichting Middin","Soort zorg":"Verpleeghuizen, verzorging en thuiszorg","Huisnummer":"170","Postcode":"2288BH","Plaats":"Rijswijk","Routekaart":"Wordt aan gewerkt","Ambitie":"Route tot 2030"},"geometry":{"type":"Point","coordinates":[4.33844,52.0416]}},{"type":"Feature","properties":{"Naam":"Stichting Wijdezorg, Centraal Kantoor","Organisatie":"Stichting Wijdezorg","Soort zorg":"Verpleeghuizen, verzorging en thuiszorg","Huisnummer":"24b","Postcode":"2382NW","Plaats":"Zoeterwoude","Routekaart":"Wordt aan gewerkt","Ambitie":"Route tot 2030"},"geometry":{"type":"Point","coordinates":[4.52278,52.13932]}},{"type":"Feature","properties":{"Naam":"Stichting Hospice Lansingerland","Organisatie":"Stichting Hospice Lansingerland","Soort zorg":"Verpleeghuizen","Huisnummer":"10","Postcode":"2661HN","Plaats":"Bergschenhoek","Routekaart":"Niet ingeleverd"},"geometry":{"type":"Point","coordinates":[4.50141,51.98511]}},{"type":"Feature","properties":{"Naam":"Stichting DSV","Organisatie":"Stichting DSV","Soort zorg":"Verpleeghuizen, verzorging en thuiszorg","Huisnummer":"157","Postcode":"2225JT","Plaats":"Katwijk","Routekaart":"Wordt aan gewerkt","Ambitie":"Route tot 2030"},"geometry":{"type":"Point","coordinates":[4.40364,52.20495]}},{"type":"Feature","properties":{"Naam":"Hospice Issoria","Organisatie":"Stichting Hospice Issoria","Soort zorg":"Verpleeghuizen","Huisnummer":"11","Postcode":"2313HM","Plaats":"Leiden","Routekaart":"Niet ingeleverd"},"geometry":{"type":"Point","coordinates":[4.50656,52.15354]}},{"type":"Feature","properties":{"Naam":"Zorgcentrum Nieuw Boschzicht","Organisatie":"Woon- en Zorgcentrum Nieuw-Boschzicht B.V.","Soort zorg":"Verzorgingshuizen","Huisnummer":"65","Postcode":"3956CJ","Plaats":"Leersum","Routekaart":"Niet ingeleverd"},"geometry":{"type":"Point","coordinates":[5.43754,52.00815]}},{"type":"Feature","properties":{"Naam":"Sparrenheuvel","Organisatie":"Sparrenheuvel B.V.","Soort zorg":"Verzorgingshuizen","Huisnummer":"18a","Postcode":"3735MG","Plaats":"Bosch en Duin","Routekaart":"Niet ingeleverd"},"geometry":{"type":"Point","coordinates":[5.24207,52.12298]}},{"type":"Feature","properties":{"Naam":"Stichting Bartiméus Sonneheerdt","Organisatie":"Stichting Bartiméus Sonneheerdt","Soort zorg":"Verpleeghuizen, verzorging en thuiszorg","Huisnummer":"30a","Postcode":"3703AJ","Plaats":"Zeist","Routekaart":"Actueel en vastgesteld","Ambitie":"Route tot 2050"},"geometry":{"type":"Point","coordinates":[5.23278,52.08382]}},{"type":"Feature","properties":{"Naam":"Woongroep Gagelstaete","Organisatie":"Woongroep Gagelstaete","Soort zorg":"Verzorgingshuizen","Huisnummer":"11","Postcode":"3564EV","Plaats":"Utrecht","Routekaart":"Niet ingeleverd"},"geometry":{"type":"Point","coordinates":[5.1078,52.12136]}},{"type":"Feature","properties":{"Naam":"AC groep","Organisatie":"AC groep","Soort zorg":"Verzorgingshuizen","Huisnummer":"922","Postcode":"3526KJ","Plaats":"Utrecht","Routekaart":"Wordt aan gewerkt","Ambitie":"Route tot +-2025"},"geometry":{"type":"Point","coordinates":[5.10347,52.06835]}},{"type":"Feature","properties":{"Naam":"Hospice Nieuwegein","Organisatie":"Stichting Proxima Terminale Zorg","Soort zorg":"Verpleeghuizen","Huisnummer":"1","Postcode":"3438LL","Plaats":"Nieuwegein","Routekaart":"Niet ingeleverd"},"geometry":{"type":"Point","coordinates":[5.09595,52.05091]}},{"type":"Feature","properties":{"Naam":"Het Behouden Huis B.V.","Organisatie":"Het Behouden Huis B.V.","Soort zorg":"Verzorgingshuizen","Huisnummer":"45","Postcode":"3701AK","Plaats":"Zeist","Routekaart":"Niet ingeleverd"},"geometry":{"type":"Point","coordinates":[5.24893,52.08208]}},{"type":"Feature","properties":{"Naam":"Zorgvilla Viken B.V.","Organisatie":"Zorgvilla Viken B.V.","Soort zorg":"Verzorgingshuizen","Huisnummer":"261","Postcode":"3721AE","Plaats":"Bilthoven","Routekaart":"Niet ingeleverd"},"geometry":{"type":"Point","coordinates":[5.20306,52.12811]}},{"type":"Feature","properties":{"Naam":"Stichting Huize Het Oosten","Organisatie":"Stichting Huize Het Oosten","Soort zorg":"Verzorgingshuizen","Huisnummer":"1","Postcode":"3723BM","Plaats":"Bilthoven","Routekaart":"Niet ingeleverd"},"geometry":{"type":"Point","coordinates":[5.20032,52.1315]}},{"type":"Feature","properties":{"Naam":"Klein Buitenhof","Organisatie":"Klein Buitenhof","Soort zorg":"Verzorgingshuizen","Huisnummer":"2","Postcode":"3911AC","Plaats":"Rhenen","Routekaart":"Niet ingeleverd"},"geometry":{"type":"Point","coordinates":[5.56988,51.95684]}},{"type":"Feature","properties":{"Naam":"Zorggroep Charim, Centraal Kantoor","Organisatie":"Stichting Zorggroep Charim","Soort zorg":"Verpleeghuizen, verzorging en thuiszorg","Huisnummer":"42","Postcode":"3905KW","Plaats":"Veenendaal","Routekaart":"Actueel en vastgesteld","Ambitie":"EM ingepland"},"geometry":{"type":"Point","coordinates":[5.56333,52.0406]}},{"type":"Feature","properties":{"Naam":"Senaida Zorg","Organisatie":"Senaida Zorg","Soort zorg":"Verzorgingshuizen","Huisnummer":"79","Postcode":"3432BK","Plaats":"Nieuwegein","Routekaart":"Niet ingeleverd"},"geometry":{"type":"Point","coordinates":[5.09158,52.02278]}},{"type":"Feature","properties":{"Naam":"Woonzorgcentrum De Aa","Organisatie":"Stichting Zorggroep De Vechtstreek","Soort zorg":"Verzorgingshuizen","Huisnummer":"50","Postcode":"3621VV","Plaats":"Breukelen","Routekaart":"Niet ingeleverd"},"geometry":{"type":"Point","coordinates":[4.99638,52.17665]}},{"type":"Feature","properties":{"Naam":"Zorgcentrum Catherine B.V.","Organisatie":"Zorgcentrum Catherine B.V.","Soort zorg":"Verpleeghuizen","Huisnummer":"22","Postcode":"3512CT","Plaats":"Utrecht","Routekaart":"Niet ingeleverd"},"geometry":{"type":"Point","coordinates":[5.12449,52.09518]}},{"type":"Feature","properties":{"Naam":"Linge's Zorglandgoed locatie Rumpt","Organisatie":"Stichting Linge's Zorglandgoed","Soort zorg":"Verzorgingshuizen","Huisnummer":"2","Postcode":"4156AV","Plaats":"Rumpt","Routekaart":"Niet ingeleverd"},"geometry":{"type":"Point","coordinates":[5.16818,51.88359]}},{"type":"Feature","properties":{"Naam":"Woon-Zorgvoorziening Bloemendael B.V.","Organisatie":"Woon-Zorgvoorziening Bloemendael B.V.","Soort zorg":"Verzorgingshuizen","Huisnummer":"80","Postcode":"3743CE","Plaats":"Baarn","Routekaart":"Niet ingeleverd"},"geometry":{"type":"Point","coordinates":[5.27459,52.21231]}},{"type":"Feature","properties":{"Naam":"Stichting Amaris Zorggroep","Organisatie":"Stichting Amaris Zorggroep","Soort zorg":"Verpleeghuizen","Huisnummer":"1","Postcode":"1251CM","Plaats":"Laren","Routekaart":"Wordt aan gewerkt","Ambitie":"EM ingepland"},"geometry":{"type":"Point","coordinates":[5.21625,52.25765]}},{"type":"Feature","properties":{"Naam":"1. Eleos 2. christelijke ggz","Organisatie":"Stichting Eleos, christelijke ggz","Soort zorg":"Verpleeghuizen, verzorging en thuiszorg","Huisnummer":"21","Postcode":"3821AP","Plaats":"Amersfoort","Routekaart":"Actueel en vastgesteld","Ambitie":"Route tot 2030"},"geometry":{"type":"Point","coordinates":[5.40976,52.17612]}},{"type":"Feature","properties":{"Naam":"Hospice Dôme","Organisatie":"Stichting Dôme Exploitatie","Soort zorg":"Verpleeghuizen","Huisnummer":"49","Postcode":"3818NN","Plaats":"Amersfoort","Routekaart":"Niet ingeleverd"},"geometry":{"type":"Point","coordinates":[5.37673,52.14662]}},{"type":"Feature","properties":{"Naam":"Huize Westerheide B.V.","Organisatie":"Huize Westerheide B.V.","Soort zorg":"Verzorgingshuizen","Huisnummer":"102","Postcode":"1213LS","Plaats":"Hilversum","Routekaart":"Niet ingeleverd"},"geometry":{"type":"Point","coordinates":[5.17543,52.21015]}},{"type":"Feature","properties":{"Naam":"Hospice De Luwte & De Luwte Thuis","Organisatie":"Stichting Hospice De Luwte","Soort zorg":"Verpleeghuizen","Huisnummer":"88","Postcode":"3761DH","Plaats":"Soest","Routekaart":"Niet ingeleverd"},"geometry":{"type":"Point","coordinates":[5.29081,52.18132]}},{"type":"Feature","properties":{"Naam":"Cordialis B.V.","Organisatie":"Cordialis B.V.","Soort zorg":"Verzorgingshuizen","Huisnummer":"99a","Postcode":"1217EP","Plaats":"Hilversum","Routekaart":"Niet ingeleverd"},"geometry":{"type":"Point","coordinates":[5.15696,52.23232]}},{"type":"Feature","properties":{"Naam":"Diapriva Buitenveldert B.V.","Organisatie":"Diapriva Buitenveldert B.V.","Soort zorg":"Verzorgingshuizen","Huisnummer":"73-75","Postcode":"1081GJ","Plaats":"Amsterdam","Routekaart":"Niet ingeleverd"},"geometry":{"type":"Point","coordinates":[4.86281,52.3282]}},{"type":"Feature","properties":{"Naam":"Verpleeghuis Schokkerbrink","Organisatie":"Verpleeghuis Schokkerbrink B.V.","Soort zorg":"Verpleeghuizen","Huisnummer":"5","Postcode":"8301XG","Plaats":"Emmeloord","Routekaart":"Niet ingeleverd"},"geometry":{"type":"Point","coordinates":[5.75244,52.70839]}},{"type":"Feature","properties":{"Naam":"TOP-HUIZEN","Organisatie":"Stichting TOP-HUIZEN","Soort zorg":"Verzorgingshuizen","Huisnummer":"91","Postcode":"1355KG","Plaats":"Almere","Routekaart":"Niet ingeleverd"},"geometry":{"type":"Point","coordinates":[5.23155,52.34411]}},{"type":"Feature","properties":{"Naam":"Beweging 3.0","Organisatie":"Stichting Beweging 3.0","Soort zorg":"Verpleeghuizen","Huisnummer":"6","Postcode":"3821AB","Plaats":"Amersfoort","Routekaart":"Actueel en vastgesteld","Ambitie":"Route tot 2050"},"geometry":{"type":"Point","coordinates":[5.40584,52.17483]}},{"type":"Feature","properties":{"Naam":"Bergman Zorghotel Naarden B.V.","Organisatie":"Bergman Zorghotel Naarden B.V.","Soort zorg":"Verzorgingshuizen","Huisnummer":"69","Postcode":"1411GE","Plaats":"Naarden","Routekaart":"Niet ingeleverd"},"geometry":{"type":"Point","coordinates":[5.13964,52.30394]}},{"type":"Feature","properties":{"Naam":"12 Zorg","Organisatie":"12 Zorg","Soort zorg":"Verpleeghuizen","Huisnummer":"25","Postcode":"1403VP","Plaats":"Bussum","Routekaart":"Niet ingeleverd"},"geometry":{"type":"Point","coordinates":[5.17627,52.26385]}},{"type":"Feature","properties":{"Naam":"Stichting Eendracht-Anslo","Organisatie":"Stichting Eendracht-Anslo","Soort zorg":"Verzorgingshuizen","Huisnummer":"295g","Postcode":"1054HW","Plaats":"Amsterdam","Routekaart":"Niet ingeleverd"},"geometry":{"type":"Point","coordinates":[4.86594,52.36018]}},{"type":"Feature","properties":{"Naam":"Amstelring Groep, Amstelring / Leo Polak","Organisatie":"Stichting Amstelring Groep","Soort zorg":"Verzorgingshuizen","Huisnummer":"8","Postcode":"1069BW","Plaats":"Amsterdam","Routekaart":"Wordt aan gewerkt","Ambitie":"Route tot 2030"},"geometry":{"type":"Point","coordinates":[4.78904,52.3627]}},{"type":"Feature","properties":{"Naam":"Stichting Hospice Amsterdam","Organisatie":"Stichting Hospice Amsterdam","Soort zorg":"Verpleeghuizen","Huisnummer":"3","Postcode":"1072KJ","Plaats":"Amsterdam","Routekaart":"Niet ingeleverd"},"geometry":{"type":"Point","coordinates":[4.88744,52.34931]}},{"type":"Feature","properties":{"Naam":"Fleurage Residence Bloemendaal B.V.","Organisatie":"Fleurage Residence Bloemendaal B.V.","Soort zorg":"Verzorgingshuizen","Huisnummer":"24","Postcode":"2061JH","Plaats":"Bloemendaal","Routekaart":"Niet ingeleverd"},"geometry":{"type":"Point","coordinates":[4.62468,52.4074]}},{"type":"Feature","properties":{"Naam":"Zorgcentrum De Meerwende","Organisatie":"R.K. Stichting Zorgcentra Meerlanden","Soort zorg":"Verzorgingshuizen","Huisnummer":"131","Postcode":"1171AE","Plaats":"Badhoevedorp","Routekaart":"Niet ingeleverd"},"geometry":{"type":"Point","coordinates":[4.77231,52.33924]}},{"type":"Feature","properties":{"Naam":"Woonzorgvoorziening Huize Plantage B.V.","Organisatie":"Woonzorgvoorziening Huize Plantage B.V.","Soort zorg":"Verzorgingshuizen","Huisnummer":"11a","Postcode":"1018CP","Plaats":"Amsterdam","Routekaart":"Niet ingeleverd"},"geometry":{"type":"Point","coordinates":[4.91119,52.36788]}},{"type":"Feature","properties":{"Naam":"Stichting Zonnehuisgroep Amstelland","Organisatie":"Stichting Zonnehuisgroep Amstelland","Soort zorg":"Verpleeghuizen","Huisnummer":"7","Postcode":"1186AA","Plaats":"Amstelveen","Routekaart":"Niet ingeleverd"},"geometry":{"type":"Point","coordinates":[4.8714,52.29452]}},{"type":"Feature","properties":{"Naam":"Woongroep Stadskruid","Organisatie":"Woongroep Stadskruid","Soort zorg":"Verzorgingshuizen","Huisnummer":"14f","Postcode":"1054CT","Plaats":"Amsterdam","Routekaart":"Niet ingeleverd"},"geometry":{"type":"Point","coordinates":[4.87234,52.36388]}},{"type":"Feature","properties":{"Naam":"ViVa! Zorggroep, locatie Grote Hout","Organisatie":"Stichting ViVa! Zorggroep","Soort zorg":"Verzorgingshuizen","Huisnummer":"23","Postcode":"1951AR","Plaats":"Velsen-Noord","Routekaart":"Actueel en vastgesteld","Ambitie":"Route tot 2030"},"geometry":{"type":"Point","coordinates":[4.63849,52.47033]}},{"type":"Feature","properties":{"Naam":"PCSOH Huisvesting","Organisatie":"PCSOH Huisvesting","Soort zorg":"Verzorgingshuizen","Huisnummer":"54","Postcode":"2131WE","Plaats":"Hoofddorp","Routekaart":"Niet ingeleverd"},"geometry":{"type":"Point","coordinates":[4.68825,52.30673]}},{"type":"Feature","properties":{"Naam":"Stichting Joodse Hospice Immanuël","Organisatie":"Stichting Joodse Hospice Immanuël","Soort zorg":"Verpleeghuizen","Huisnummer":"665","Postcode":"1081JD","Plaats":"Amsterdam","Routekaart":"Niet ingeleverd"},"geometry":{"type":"Point","coordinates":[4.85776,52.33114]}},{"type":"Feature","properties":{"Naam":"Stichting Cordaan","Organisatie":"Stichting Cordaan","Soort zorg":"Verpleeghuizen","Huisnummer":"7","Postcode":"1013AA","Plaats":"Amsterdam","Routekaart":"Wordt aan gewerkt","Ambitie":"Route tot 2050"},"geometry":{"type":"Point","coordinates":[4.89558,52.38146]}},{"type":"Feature","properties":{"Naam":"Herbergier De Ehze","Organisatie":"Zuster Floor De Ehze V.O.F.","Soort zorg":"Verzorgingshuizen","Huisnummer":"2","Postcode":"7218BT","Plaats":"Almen","Routekaart":"Niet ingeleverd"},"geometry":{"type":"Point","coordinates":[6.32207,52.16176]}},{"type":"Feature","properties":{"Naam":"Zorgbalans Thuiszorg","Organisatie":"Stichting Zorgbalans","Soort zorg":"Verzorgingshuizen","Huisnummer":"588","Postcode":"2014HT","Plaats":"Haarlem","Routekaart":"Wordt aan gewerkt","Ambitie":"Route tot +-2025"},"geometry":{"type":"Point","coordinates":[4.61029,52.36395]}},{"type":"Feature","properties":{"Naam":"Stichting Amsta / Dr. Sarphatihuis","Organisatie":"Stichting Amsta","Soort zorg":"Verpleeghuizen, Verzorgingshuizen","Huisnummer":"2","Postcode":"1018WC","Plaats":"Amsterdam","Routekaart":"Niet ingeleverd"},"geometry":{"type":"Point","coordinates":[4.91055,52.3647]}},{"type":"Feature","properties":{"Naam":"Delano Holding","Organisatie":"Delano Holding B.V.","Soort zorg":"Verpleeghuizen","Huisnummer":"180","Postcode":"1075HM","Plaats":"Amsterdam","Routekaart":"Niet ingeleverd"},"geometry":{"type":"Point","coordinates":[4.86535,52.35209]}},{"type":"Feature","properties":{"Naam":"De Uylenburgh B.V.","Organisatie":"De Uylenburgh B.V.","Soort zorg":"Verzorgingshuizen","Huisnummer":"49","Postcode":"1016RG","Plaats":"Amsterdam","Routekaart":"Niet ingeleverd"},"geometry":{"type":"Point","coordinates":[4.88031,52.37111]}},{"type":"Feature","properties":{"Naam":"Flevohuis","Organisatie":"Stichting Zorggroep Amsterdam-Oost","Soort zorg":"Verzorgingshuizen","Huisnummer":"263","Postcode":"1095LD","Plaats":"Amsterdam","Routekaart":"Wordt aan gewerkt","Ambitie":"Route tot +-2025"},"geometry":{"type":"Point","coordinates":[4.94587,52.36555]}},{"type":"Feature","properties":{"Naam":"Stichting Arkin","Organisatie":"Stichting Arkin","Soort zorg":"Verpleeghuizen, verzorging en thuiszorg","Huisnummer":"111","Postcode":"1033NN","Plaats":"Amsterdam","Routekaart":"Actueel en vastgesteld","Ambitie":"Route tot 2030"},"geometry":{"type":"Point","coordinates":[4.89166,52.40621]}},{"type":"Feature","properties":{"Naam":"Sassen t.h.o.d.n. Herbergier Dussen","Organisatie":"V.O.F. Sassen","Soort zorg":"Verzorgingshuizen","Huisnummer":"19","Postcode":"4271AA","Plaats":"Dussen","Routekaart":"Niet ingeleverd"},"geometry":{"type":"Point","coordinates":[4.96094,51.73]}},{"type":"Feature","properties":{"Naam":"De Rusthoeve","Organisatie":"Stichting Wonen en Zorg Purmerend","Soort zorg":"Verzorgingshuizen","Huisnummer":"1","Postcode":"1441DN","Plaats":"Purmerend","Routekaart":"Wordt aan gewerkt","Ambitie":"EM ingepland"},"geometry":{"type":"Point","coordinates":[4.95187,52.50731]}},{"type":"Feature","properties":{"Naam":"Stichting Hospice Dignitas","Organisatie":"Stichting Hospice Dignitas","Soort zorg":"Verpleeghuizen","Huisnummer":"4","Postcode":"1623MA","Plaats":"Hoorn","Routekaart":"Niet ingeleverd"},"geometry":{"type":"Point","coordinates":[5.06737,52.64532]}},{"type":"Feature","properties":{"Naam":"Stichting Exploitatie Hospice Alkmaar","Organisatie":"Stichting Exploitatie Hospice Alkmaar","Soort zorg":"Verpleeghuizen","Huisnummer":"13","Postcode":"1816HG","Plaats":"Alkmaar","Routekaart":"Niet ingeleverd"},"geometry":{"type":"Point","coordinates":[4.72328,52.63411]}},{"type":"Feature","properties":{"Naam":"Stichting Geriant","Organisatie":"Stichting Geriant","Soort zorg":"Verzorgingshuizen","Huisnummer":"15a","Postcode":"1702AZ","Plaats":"Heerhugowaard","Routekaart":"Niet ingeleverd"},"geometry":{"type":"Point","coordinates":[4.83179,52.67226]}},{"type":"Feature","properties":{"Naam":"Zorgcentrum De Lichtboei","Organisatie":"Stichting Zorggroep Tellus","Soort zorg":"Verzorgingshuizen","Huisnummer":"2","Postcode":"1784MA","Plaats":"Den Helder","Routekaart":"Wordt aan gewerkt","Ambitie":"Route tot 2030"},"geometry":{"type":"Point","coordinates":[4.74379,52.93792]}},{"type":"Feature","properties":{"Naam":"kids2care kinderthuiszorg B.V.","Organisatie":"kids2care kinderthuiszorg B.V.","Soort zorg":"Verpleeghuizen","Huisnummer":"36","Postcode":"1781AD","Plaats":"Den Helder","Routekaart":"Niet ingeleverd"},"geometry":{"type":"Point","coordinates":[4.78189,52.95235]}},{"type":"Feature","properties":{"Naam":"Respijthuis","Organisatie":"Stichting Respijtzorg Alkmaar","Soort zorg":"Verpleeghuizen","Huisnummer":"972","Postcode":"1816PZ","Plaats":"Alkmaar","Routekaart":"Niet ingeleverd"},"geometry":{"type":"Point","coordinates":[4.71687,52.62931]}},{"type":"Feature","properties":{"Naam":"Stichting JonkersZorg","Organisatie":"Stichting JonkersZorg","Soort zorg":"Verpleeghuizen","Huisnummer":"105","Postcode":"1718AD","Plaats":"Hoogwoud","Routekaart":"Niet ingeleverd"},"geometry":{"type":"Point","coordinates":[4.9438,52.73464]}},{"type":"Feature","properties":{"Naam":"Stichting MagentaZorg","Organisatie":"Magentazorg","Soort zorg":"Verpleeghuizen","Huisnummer":"15","Postcode":"1702AZ","Plaats":"Heerhugowaard","Routekaart":"Actueel en vastgesteld","Ambitie":"Route tot 2050"},"geometry":{"type":"Point","coordinates":[4.83166,52.67217]}},{"type":"Feature","properties":{"Naam":"Huize Anna B.V.","Organisatie":"Huize Anna B.V.","Soort zorg":"Verzorgingshuizen","Huisnummer":"126","Postcode":"1462HK","Plaats":"Middenbeemster","Routekaart":"Niet ingeleverd"},"geometry":{"type":"Point","coordinates":[4.91402,52.54964]}},{"type":"Feature","properties":{"Naam":"Stichting Reigershoeve","Organisatie":"Stichting Reigershoeve","Soort zorg":"Verpleeghuizen","Huisnummer":"5c","Postcode":"1968KM","Plaats":"Heemskerk","Routekaart":"Niet ingeleverd"},"geometry":{"type":"Point","coordinates":[4.6597,52.51821]}},{"type":"Feature","properties":{"Naam":"Ceelie & Ceelie Sierkstra thodn Herbergier","Organisatie":"Ceelie & Ceelie-Sierkstra thodn Herbergier","Soort zorg":"Verzorgingshuizen","Huisnummer":"13","Postcode":"1566PH","Plaats":"Assendelft","Routekaart":"Niet ingeleverd"},"geometry":{"type":"Point","coordinates":[4.74757,52.46423]}},{"type":"Feature","properties":{"Naam":"Van Hollant Zorg B.V.","Organisatie":"Van Hollant Zorg B.V.","Soort zorg":"Verzorgingshuizen","Huisnummer":"38","Postcode":"1852CK","Plaats":"Heiloo","Routekaart":"Niet ingeleverd"},"geometry":{"type":"Point","coordinates":[4.70043,52.60288]}},{"type":"Feature","properties":{"Naam":"Coloriet","Organisatie":"Stichting Coloriet","Soort zorg":"Verzorgingshuizen","Huisnummer":"5","Postcode":"8232JT","Plaats":"Lelystad","Routekaart":"Niet ingeleverd"},"geometry":{"type":"Point","coordinates":[5.47425,52.50659]}},{"type":"Feature","properties":{"Naam":"Hoeve Marant","Organisatie":"Hoeve Marant","Soort zorg":"Verzorgingshuizen","Huisnummer":"25a","Postcode":"8317PA","Plaats":"Kraggenburg","Routekaart":"Niet ingeleverd"},"geometry":{"type":"Point","coordinates":[5.94875,52.64749]}},{"type":"Feature","properties":{"Naam":"Hospice Almere","Organisatie":"Stichting Hospice Almere","Soort zorg":"Verpleeghuizen","Huisnummer":"69a","Postcode":"1315GV","Plaats":"Almere","Routekaart":"Niet ingeleverd"},"geometry":{"type":"Point","coordinates":[5.21311,52.37125]}},{"type":"Feature","properties":{"Naam":"Stichting Rendant","Organisatie":"Stichting Rendant","Soort zorg":"Verzorgingshuizen","Huisnummer":"2","Postcode":"8935AA","Plaats":"Leeuwarden","Routekaart":"Niet ingeleverd"},"geometry":{"type":"Point","coordinates":[5.80283,53.1846]}},{"type":"Feature","properties":{"Naam":"Mienskipssintrum Leppehiem","Organisatie":"Stichting Leppehiem","Soort zorg":"Verpleeghuizen, Verzorgingshuizen","Huisnummer":"37","Postcode":"8491GJ","Plaats":"Akkrum","Routekaart":"Niet ingeleverd"},"geometry":{"type":"Point","coordinates":[5.83518,53.05131]}},{"type":"Feature","properties":{"Naam":"Woonzorgcentrum Talma-Borgh","Organisatie":"Woonzorgcentrum Talma-Borgh","Soort zorg":"Verzorgingshuizen","Huisnummer":"47","Postcode":"7325ZE","Plaats":"Apeldoorn","Routekaart":"Niet ingeleverd"},"geometry":{"type":"Point","coordinates":[6.00767,52.21407]}},{"type":"Feature","properties":{"Naam":"Fier","Organisatie":"Fier","Soort zorg":"Verpleeghuizen, verzorging en thuiszorg","Huisnummer":"1","Postcode":"8936AS","Plaats":"Leeuwarden","Routekaart":"Wordt aan gewerkt","Ambitie":"Route tot 2050"},"geometry":{"type":"Point","coordinates":[5.82468,53.19161]}},{"type":"Feature","properties":{"Naam":"WoonZorgCentrum Foswert","Organisatie":"Prot. Chr. Stichting Woonzorgcentrum Foswert","Soort zorg":"Verpleeghuizen, Verzorgingshuizen","Huisnummer":"71","Postcode":"9172PS","Plaats":"Ferwert","Routekaart":"Niet ingeleverd"},"geometry":{"type":"Point","coordinates":[5.8189,53.3363]}},{"type":"Feature","properties":{"Naam":"WRS","Organisatie":"WRS","Soort zorg":"Verzorgingshuizen","Huisnummer":"1n","Postcode":"9251MP","Plaats":"Burgum","Routekaart":"Niet ingeleverd"},"geometry":{"type":"Point","coordinates":[5.98532,53.2043]}},{"type":"Feature","properties":{"Naam":"Stichting Zorggroep Hof en Hiem","Organisatie":"Stichting Zorggroep Hof en Hiem","Soort zorg":"Verzorgingshuizen","Huisnummer":"2","Postcode":"8521GA","Plaats":"Sint Nicolaasga","Routekaart":"Niet ingeleverd"},"geometry":{"type":"Point","coordinates":[5.74418,52.92192]}},{"type":"Feature","properties":{"Naam":"Stichting Zorgcentrum het Bildt","Organisatie":"Stichting Zorgcentrum het Bildt","Soort zorg":"Verzorgingshuizen","Huisnummer":"25","Postcode":"9076DA","Plaats":"St.-Annaparochie","Routekaart":"Wordt aan gewerkt","Ambitie":"Route tot 2050"},"geometry":{"type":"Point","coordinates":[5.66051,53.27522]}},{"type":"Feature","properties":{"Naam":"Stichting Zorggroep Liante","Organisatie":"Stichting Zorggroep Liante","Soort zorg":"Verzorgingshuizen","Huisnummer":"1-103","Postcode":"8431LD","Plaats":"Oosterwolde","Routekaart":"Wordt aan gewerkt","Ambitie":"EM ingepland"},"geometry":{"type":"Point","coordinates":[6.29459,52.99302]}},{"type":"Feature","properties":{"Naam":"Stichting GGZ Friesland","Organisatie":"Stichting GGZ Friesland","Soort zorg":"Verpleeghuizen, verzorging en thuiszorg","Huisnummer":"9","Postcode":"8912AC","Plaats":"Leeuwarden","Routekaart":"Actueel en vastgesteld","Ambitie":"Route tot 2030"},"geometry":{"type":"Point","coordinates":[5.77766,53.19516]}},{"type":"Feature","properties":{"Naam":"Stichting Vredewold","Organisatie":"Stichting Vredewold","Soort zorg":"Verpleeghuizen, Verzorgingshuizen","Huisnummer":"1","Postcode":"9351BP","Plaats":"Leek","Routekaart":"Actueel en vastgesteld","Ambitie":"Route tot 2030"},"geometry":{"type":"Point","coordinates":[6.38744,53.16268]}},{"type":"Feature","properties":{"Naam":"Heymanscentrum","Organisatie":"Stichting Dignis","Soort zorg":"Verzorgingshuizen","Huisnummer":"20","Postcode":"9728HD","Plaats":"Groningen","Routekaart":"Wordt aan gewerkt","Ambitie":"EM ingepland"},"geometry":{"type":"Point","coordinates":[6.5601,53.19423]}},{"type":"Feature","properties":{"Naam":"Stichting Woon/Zorgcentrum Het Hooge Heem","Organisatie":"Stichting Woon/Zorgcentrum Het Hooge Heem","Soort zorg":"Verpleeghuizen, Verzorgingshuizen","Huisnummer":"4","Postcode":"9861BM","Plaats":"Grootegast","Routekaart":"Niet ingeleverd"},"geometry":{"type":"Point","coordinates":[6.28028,53.21135]}},{"type":"Feature","properties":{"Naam":"Woonzorgcentrum Westerholm","Organisatie":"Stichting Westerholm/Rikkers-Lubbers","Soort zorg":"Verzorgingshuizen","Huisnummer":"1","Postcode":"9752LS","Plaats":"Haren Gn","Routekaart":"Niet ingeleverd"},"geometry":{"type":"Point","coordinates":[6.60457,53.16851]}},{"type":"Feature","properties":{"Naam":"De Dilgt/ Stichting Zinn","Organisatie":"Stichting Zinn (Zorgorganisatie in Noord Ned)","Soort zorg":"Verpleeghuizen","Huisnummer":"3","Postcode":"9751ND","Plaats":"Haren Gn","Routekaart":"Niet ingeleverd"},"geometry":{"type":"Point","coordinates":[6.59528,53.182]}},{"type":"Feature","properties":{"Naam":"Gasthuis Groningen","Organisatie":"Stichting Exploitatie Gasthuis Groningen","Soort zorg":"Verpleeghuizen","Huisnummer":"19","Postcode":"9718BB","Plaats":"Groningen","Routekaart":"Niet ingeleverd"},"geometry":{"type":"Point","coordinates":[6.55348,53.2145]}},{"type":"Feature","properties":{"Naam":"De Blanckenborg","Organisatie":"Stichting Zorgcentrum 'de Blanckenborg'","Soort zorg":"Verpleeghuizen","Huisnummer":"34","Postcode":"9697RW","Plaats":"Blijham","Routekaart":"Niet ingeleverd"},"geometry":{"type":"Point","coordinates":[7.08252,53.1091]}},{"type":"Feature","properties":{"Naam":"Stichting BCM Zorg","Organisatie":"Stichting BCM Zorg","Soort zorg":"Verzorgingshuizen","Huisnummer":"2","Postcode":"9501EA","Plaats":"Stadskanaal","Routekaart":"Niet ingeleverd"},"geometry":{"type":"Point","coordinates":[6.95085,52.9922]}},{"type":"Feature","properties":{"Naam":"Nieuw Woelwijck","Organisatie":"Stichting Nieuw Woelwijck","Soort zorg":"Verpleeghuizen, verzorging en thuiszorg","Huisnummer":"10","Postcode":"9611KR","Plaats":"Sappemeer","Routekaart":"Wordt aan gewerkt","Ambitie":"EM ingepland"},"geometry":{"type":"Point","coordinates":[6.78916,53.15204]}},{"type":"Feature","properties":{"Naam":"Wijkverpleging Oosterlengte","Organisatie":"Stichting Oosterlengte","Soort zorg":"Verpleeghuizen","Huisnummer":"2","Postcode":"9672BN","Plaats":"Winschoten","Routekaart":"Wordt aan gewerkt","Ambitie":"Route tot 2030"},"geometry":{"type":"Point","coordinates":[7.05225,53.15183]}},{"type":"Feature","properties":{"Naam":"Woon- en zorgcentrum de Westerkim","Organisatie":"Woon- en zorgcentrum de Westerkim","Soort zorg":"Verpleeghuizen, Verzorgingshuizen","Huisnummer":"11","Postcode":"7901EB","Plaats":"Hoogeveen","Routekaart":"Actueel en vastgesteld","Ambitie":"EM ingepland"},"geometry":{"type":"Point","coordinates":[6.46834,52.72627]}},{"type":"Feature","properties":{"Naam":"Het Derkshoes","Organisatie":"STICHTING DERKSHOES ZORG EN DIENSTVERLENING","Soort zorg":"Verpleeghuizen","Huisnummer":"1","Postcode":"9431LE","Plaats":"Westerbork","Routekaart":"Niet ingeleverd"},"geometry":{"type":"Point","coordinates":[6.608,52.84714]}},{"type":"Feature","properties":{"Naam":"Stichting Zorggroep Noorderboog","Organisatie":"Stichting Zorggroep Noorderboog","Soort zorg":"Verpleeghuizen","Huisnummer":"36","Postcode":"7944AV","Plaats":"Meppel","Routekaart":"Wordt aan gewerkt","Ambitie":"Route tot 2030"},"geometry":{"type":"Point","coordinates":[6.19072,52.68663]}},{"type":"Feature","properties":{"Naam":"De Weijert / Thuiszorg Zuidwest-Drenthe","Organisatie":"Stichting Zorgcollectief Zuidwest-Drenthe","Soort zorg":"Verzorgingshuizen","Huisnummer":"1a","Postcode":"7991BN","Plaats":"Dwingeloo","Routekaart":"Niet ingeleverd"},"geometry":{"type":"Point","coordinates":[6.36976,52.8349]}},{"type":"Feature","properties":{"Naam":"Verpleeghuis Myosotis","Organisatie":"St. IJsselheem","Soort zorg":"Verpleeghuizen","Huisnummer":"3","Postcode":"8266AB","Plaats":"Kampen","Routekaart":"Niet ingeleverd"},"geometry":{"type":"Point","coordinates":[5.92084,52.55103]}},{"type":"Feature","properties":{"Naam":"Carintreggeland","Organisatie":"Carintreggeland","Soort zorg":"Verzorgingshuizen","Huisnummer":"20","Postcode":"7554RS","Plaats":"Hengelo","Routekaart":"Actueel en vastgesteld","Ambitie":"Route tot 2030"},"geometry":{"type":"Point","coordinates":[6.79255,52.24445]}},{"type":"Feature","properties":{"Naam":"De Vriezenhof","Organisatie":"De Vriezenhof","Soort zorg":"Verzorgingshuizen","Huisnummer":"5","Postcode":"7671GM","Plaats":"Vriezenveen","Routekaart":"Niet ingeleverd"},"geometry":{"type":"Point","coordinates":[6.62525,52.41021]}},{"type":"Feature","properties":{"Naam":"Huize Den Oostenborgh / Welstee","Organisatie":"Stichting Zorgvilla's Twente","Soort zorg":"Verpleeghuizen","Huisnummer":"9","Postcode":"7631GB","Plaats":"Ootmarsum","Routekaart":"Niet ingeleverd"},"geometry":{"type":"Point","coordinates":[6.89827,52.4084]}},{"type":"Feature","properties":{"Naam":"Stichting Woon- en Zorgcentrum Herfstzon","Organisatie":"Stichting Woon- en Zorgcentrum Herfstzon","Soort zorg":"Verzorgingshuizen","Huisnummer":"2","Postcode":"7471RG","Plaats":"Goor","Routekaart":"Actueel en vastgesteld","Ambitie":"EM ingepland"},"geometry":{"type":"Point","coordinates":[6.58499,52.23659]}},{"type":"Feature","properties":{"Naam":"Scholtenhof","Organisatie":"Stichting Zorgfederatie Oldenzaal","Soort zorg":"Verpleeghuizen","Huisnummer":"55","Postcode":"7573CG","Plaats":"Oldenzaal","Routekaart":"Actueel en vastgesteld","Ambitie":"EM ingepland"},"geometry":{"type":"Point","coordinates":[6.93827,52.314]}},{"type":"Feature","properties":{"Naam":"Stichting Vrienden van Het Baken","Organisatie":"Stichting Vrienden van Het Baken","Soort zorg":"Verpleeghuizen","Huisnummer":"25","Postcode":"8081DL","Plaats":"Elburg","Routekaart":"Niet ingeleverd"},"geometry":{"type":"Point","coordinates":[5.85823,52.44615]}},{"type":"Feature","properties":{"Naam":"Stichting Zorg-Wooncentrum den Bouw Warnsveld","Organisatie":"Stichting Zorg-Wooncentrum den Bouw Warnsveld","Soort zorg":"Verzorgingshuizen","Huisnummer":"9","Postcode":"7231CR","Plaats":"Warnsveld","Routekaart":"Niet ingeleverd"},"geometry":{"type":"Point","coordinates":[6.2296,52.14011]}},{"type":"Feature","properties":{"Naam":"Stichting Trimenzo","Organisatie":"Stichting Trimenzo","Soort zorg":"Verzorgingshuizen","Huisnummer":"85","Postcode":"7391AG","Plaats":"Twello","Routekaart":"Niet ingeleverd"},"geometry":{"type":"Point","coordinates":[6.09328,52.229]}},{"type":"Feature","properties":{"Naam":"Stichting Serviceflat \"De IJssel\"","Organisatie":"Serviceflat De IJssel","Soort zorg":"Verzorgingshuizen","Huisnummer":"252","Postcode":"7206DE","Plaats":"Zutphen","Routekaart":"Niet ingeleverd"},"geometry":{"type":"Point","coordinates":[6.19898,52.12658]}},{"type":"Feature","properties":{"Naam":"Stichting De Hezenberg","Organisatie":"Stichting De Hezenberg","Soort zorg":"Verzorgingshuizen","Huisnummer":"6","Postcode":"8051CB","Plaats":"Hattem","Routekaart":"Niet ingeleverd"},"geometry":{"type":"Point","coordinates":[6.08109,52.46091]}},{"type":"Feature","properties":{"Naam":"Stichting Estinea","Organisatie":"Stichting Estinea","Soort zorg":"Verpleeghuizen, verzorging en thuiszorg","Huisnummer":"21","Postcode":"7121DA","Plaats":"Aalten","Routekaart":"Wordt aan gewerkt","Ambitie":"Route tot 2030"},"geometry":{"type":"Point","coordinates":[6.584,51.92665]}},{"type":"Feature","properties":{"Naam":"Bethanië","Organisatie":"Stichting Bethanië","Soort zorg":"Verzorgingshuizen","Huisnummer":"3","Postcode":"6711JK","Plaats":"Ede","Routekaart":"Actueel en vastgesteld","Ambitie":"Route tot 2030"},"geometry":{"type":"Point","coordinates":[5.67452,52.04029]}},{"type":"Feature","properties":{"Naam":"Stichting Samen Zorgen","Organisatie":"Stichting Samen Zorgen","Soort zorg":"Verzorgingshuizen","Huisnummer":"1","Postcode":"6674BR","Plaats":"Herveld","Routekaart":"Wordt aan gewerkt","Ambitie":"Route tot 2030"},"geometry":{"type":"Point","coordinates":[5.73523,51.90877]}},{"type":"Feature","properties":{"Naam":"Het Maanderzand","Organisatie":"Het Maanderzand","Soort zorg":"Verzorgingshuizen","Huisnummer":"17","Postcode":"6713MG","Plaats":"Ede","Routekaart":"Niet ingeleverd"},"geometry":{"type":"Point","coordinates":[5.66567,52.03249]}},{"type":"Feature","properties":{"Naam":"De Pelgromstichting","Organisatie":"De Pelgromstichting","Soort zorg":"Verzorgingshuizen","Huisnummer":"7","Postcode":"6901CB","Plaats":"Zevenaar","Routekaart":"Niet ingeleverd"},"geometry":{"type":"Point","coordinates":[6.07282,51.92792]}},{"type":"Feature","properties":{"Naam":"Stichting De Keerderberg","Organisatie":"Stichting De Keerderberg","Soort zorg":"Verpleeghuizen, Verzorgingshuizen","Huisnummer":"16","Postcode":"6267AJ","Plaats":"Cadier en Keer","Routekaart":"Niet ingeleverd"},"geometry":{"type":"Point","coordinates":[5.75444,50.8366]}},{"type":"Feature","properties":{"Naam":"Centraal bureau (hoofdvestiging) St. Adullam","Organisatie":"Stichting Adullam voor Gehandicaptenzorg","Soort zorg":"Verpleeghuizen, verzorging en thuiszorg","Huisnummer":"5","Postcode":"3772KX","Plaats":"Barneveld","Routekaart":"Actueel en vastgesteld","Ambitie":"Route tot 2050"},"geometry":{"type":"Point","coordinates":[5.58692,52.13628]}},{"type":"Feature","properties":{"Naam":"St. Christelijke Zorgorganisatie Norschoten","Organisatie":"Zorgorganisatie Norschoten","Soort zorg":"Verpleeghuizen","Huisnummer":"1","Postcode":"3773AW","Plaats":"Barneveld","Routekaart":"Niet ingeleverd"},"geometry":{"type":"Point","coordinates":[5.59865,52.14011]}},{"type":"Feature","properties":{"Naam":"Stichting RST Zorgverleners","Organisatie":"RST Zorgverleners","Soort zorg":"Verpleeghuizen, verzorging en thuiszorg","Huisnummer":"91","Postcode":"3771ED","Plaats":"Barneveld","Routekaart":"Actueel en vastgesteld","Ambitie":"Route tot 2050"},"geometry":{"type":"Point","coordinates":[5.57267,52.14656]}},{"type":"Feature","properties":{"Naam":"Stichting Catharina","Organisatie":"Stichting Catharina","Soort zorg":"Verpleeghuizen, verzorging en thuiszorg","Huisnummer":"71","Postcode":"6811EZ","Plaats":"Arnhem","Routekaart":"Wordt aan gewerkt","Ambitie":"EM ingepland"},"geometry":{"type":"Point","coordinates":[5.90432,51.98141]}},{"type":"Feature","properties":{"Naam":"De Gelderhorst","Organisatie":"Stichting De Gelderhorst","Soort zorg":"Verpleeghuizen","Huisnummer":"40","Postcode":"6716RK","Plaats":"Ede","Routekaart":"Niet ingeleverd"},"geometry":{"type":"Point","coordinates":[5.64656,52.01698]}},{"type":"Feature","properties":{"Naam":"SVRO","Organisatie":"SVRO","Soort zorg":"Verpleeghuizen, Verzorgingshuizen","Huisnummer":"120","Postcode":"2984AB","Plaats":"Ridderkerk","Routekaart":"Niet ingeleverd"},"geometry":{"type":"Point","coordinates":[4.60547,51.87103]}},{"type":"Feature","properties":{"Naam":"Rumah Saya","Organisatie":"Stichting Nusantara Zorg","Soort zorg":"Verzorgingshuizen","Huisnummer":"34","Postcode":"7339HJ","Plaats":"Ugchelen","Routekaart":"Niet ingeleverd"},"geometry":{"type":"Point","coordinates":[5.94586,52.18932]}},{"type":"Feature","properties":{"Naam":"Stg Markenheem, centra v zorg en dienstverl.","Organisatie":"Stg Markenheem, centra v zorg en dienstverl.","Soort zorg":"Verpleeghuizen, verzorging en thuiszorg","Huisnummer":"9","Postcode":"7001CR","Plaats":"Doetinchem","Routekaart":"Wordt aan gewerkt","Ambitie":"EM ingepland"},"geometry":{"type":"Point","coordinates":[6.28522,51.96699]}},{"type":"Feature","properties":{"Naam":"Stichting LuciVer","Organisatie":"Stichting LuciVer","Soort zorg":"Verpleeghuizen","Huisnummer":"134","Postcode":"6603AM","Plaats":"Wijchen","Routekaart":"Niet ingeleverd"},"geometry":{"type":"Point","coordinates":[5.7538,51.80362]}},{"type":"Feature","properties":{"Naam":"Stichting Gasthuis Sint Jan de Deo","Organisatie":"Stichting Gasthuis Sint Jan de Deo","Soort zorg":"Verzorgingshuizen","Huisnummer":"1","Postcode":"6566DD","Plaats":"Millingen aan de Rijn","Routekaart":"Actueel en vastgesteld","Ambitie":"Route tot 2030"},"geometry":{"type":"Point","coordinates":[6.04612,51.86331]}},{"type":"Feature","properties":{"Naam":"Zorgcentrum Huize Rosa","Organisatie":"Stichting Zorgcentrum Huize Rosa","Soort zorg":"Verzorgingshuizen","Huisnummer":"10","Postcode":"6543JG","Plaats":"Nijmegen","Routekaart":"Niet ingeleverd"},"geometry":{"type":"Point","coordinates":[5.82178,51.8335]}},{"type":"Feature","properties":{"Naam":"Stichting Malderburch, welzijn, wonen en zorg","Organisatie":"Stichting Malderburch, welzijn, wonen en zorg","Soort zorg":"Verzorgingshuizen","Huisnummer":"16","Postcode":"6581AE","Plaats":"Malden","Routekaart":"Niet ingeleverd"},"geometry":{"type":"Point","coordinates":[5.84951,51.7813]}},{"type":"Feature","properties":{"Naam":"Zorgcentrum Anker","Organisatie":"St. Pr-Christelijk Zorgcentrum Anker","Soort zorg":"Verpleeghuizen","Huisnummer":"11","Postcode":"4041CA","Plaats":"Kesteren","Routekaart":"Actueel en vastgesteld","Ambitie":"Route tot 2030"},"geometry":{"type":"Point","coordinates":[5.57834,51.93333]}},{"type":"Feature","properties":{"Naam":"Wittenbergzorg","Organisatie":"Stichting Wittenbergzorg","Soort zorg":"Verzorgingshuizen","Huisnummer":"4","Postcode":"4175EE","Plaats":"Haaften","Routekaart":"Actueel en vastgesteld","Ambitie":"EM ingepland"},"geometry":{"type":"Point","coordinates":[5.21206,51.81899]}},{"type":"Feature","properties":{"Naam":"Stichting Woon- en Zorgcentrum Avondlicht","Organisatie":"Stichting Woon- en Zorgcentrum Avondlicht","Soort zorg":"Verzorgingshuizen","Huisnummer":"18","Postcode":"4171BR","Plaats":"Herwijnen","Routekaart":"Niet ingeleverd"},"geometry":{"type":"Point","coordinates":[5.13312,51.82572]}},{"type":"Feature","properties":{"Naam":"Sint Annaklooster","Organisatie":"Stichting Sint Annaklooster","Soort zorg":"Verpleeghuizen","Huisnummer":"285c","Postcode":"5644RE","Plaats":"Eindhoven","Routekaart":"Niet ingeleverd"},"geometry":{"type":"Point","coordinates":[5.48479,51.40797]}},{"type":"Feature","properties":{"Naam":"zorgcentrum Vincent Depaul","Organisatie":"St. Bejaardenz Lazaristen/Dochters der Liefde","Soort zorg":"Verpleeghuizen","Huisnummer":"15","Postcode":"5981AH","Plaats":"Panningen","Routekaart":"Niet ingeleverd"},"geometry":{"type":"Point","coordinates":[5.97783,51.32901]}},{"type":"Feature","properties":{"Naam":"Stichting LA PROVIDENCE","Organisatie":"Stichting LA PROVIDENCE","Soort zorg":"Verpleeghuizen","Huisnummer":"5","Postcode":"5971ED","Plaats":"Grubbenvorst","Routekaart":"Niet ingeleverd"},"geometry":{"type":"Point","coordinates":[6.13869,51.4233]}},{"type":"Feature","properties":{"Naam":"Zorgcentrum Beek en Bos","Organisatie":"Zorgcentrum Beek en Bos","Soort zorg":"Verzorgingshuizen","Huisnummer":"1","Postcode":"6093GE","Plaats":"Heythuysen","Routekaart":"Actueel en vastgesteld","Ambitie":"Route tot 2030"},"geometry":{"type":"Point","coordinates":[5.90384,51.24965]}},{"type":"Feature","properties":{"Naam":"Sint Jozef Wonen en Zorg","Organisatie":"Stichting Sint Jozef wonen en zorg","Soort zorg":"Verpleeghuizen","Huisnummer":"1","Postcode":"5768AW","Plaats":"Meijel","Routekaart":"Actueel en vastgesteld","Ambitie":"Route tot 2050"},"geometry":{"type":"Point","coordinates":[5.89358,51.34341]}},{"type":"Feature","properties":{"Naam":"Stichting Land van Horne","Organisatie":"Land van Horne","Soort zorg":"Verpleeghuizen, Verzorgingshuizen","Huisnummer":"3","Postcode":"6001HZ","Plaats":"Weert","Routekaart":"Actueel en vastgesteld","Ambitie":"Route tot 2030"},"geometry":{"type":"Point","coordinates":[5.70287,51.25717]}},{"type":"Feature","properties":{"Naam":"Verpleeghuis Bergweide","Organisatie":"Stichting Verpleeghuis Bergweide","Soort zorg":"Verpleeghuizen","Huisnummer":"12","Postcode":"6416AK","Plaats":"Heerlen","Routekaart":"Wordt aan gewerkt","Ambitie":"EM ingepland"},"geometry":{"type":"Point","coordinates":[5.99034,50.88906]}},{"type":"Feature","properties":{"Naam":"Stichting Sevagram Zorgcentra","Organisatie":"Stichting Sevagram","Soort zorg":"Verpleeghuizen","Huisnummer":"3","Postcode":"6419PB","Plaats":"Heerlen","Routekaart":"Actueel en vastgesteld","Ambitie":"Route tot 2030"},"geometry":{"type":"Point","coordinates":[5.97529,50.87128]}},{"type":"Feature","properties":{"Naam":"WZC Bunderhof/Thuiszorg Vivantes","Organisatie":"Stichting Vivantes Zorggroep","Soort zorg":"Verzorgingshuizen","Huisnummer":"1","Postcode":"6164EM","Plaats":"Geleen","Routekaart":"Niet ingeleverd"},"geometry":{"type":"Point","coordinates":[5.82774,50.95263]}},{"type":"Feature","properties":{"Naam":"Stichting Envida","Organisatie":"Stichting Envida","Soort zorg":"Verpleeghuizen","Huisnummer":"2a","Postcode":"6211LS","Plaats":"Maastricht","Routekaart":"Niet ingeleverd"},"geometry":{"type":"Point","coordinates":[5.68382,50.8472]}},{"type":"Feature","properties":{"Naam":"Stg. Kloosterverz. Zusters Onder de Bogen","Organisatie":"Stg. Kloosterverz. Zusters Onder de Bogen","Soort zorg":"Verzorgingshuizen","Huisnummer":"25","Postcode":"6211NX","Plaats":"Maastricht","Routekaart":"Niet ingeleverd"},"geometry":{"type":"Point","coordinates":[5.68463,50.8482]}},{"type":"Feature","properties":{"Naam":"Huize Reginald","Organisatie":"Stichting Zonnewende","Soort zorg":"Verzorgingshuizen","Huisnummer":"38","Postcode":"6301BK","Plaats":"Valkenburg","Routekaart":"Niet ingeleverd"},"geometry":{"type":"Point","coordinates":[5.83008,50.86088]}},{"type":"Feature","properties":{"Naam":"Stichting Ouderenzorg Annenborch","Organisatie":"Stichting Ouderenzorg Annenborch","Soort zorg":"Verpleeghuizen","Huisnummer":"100","Postcode":"5242CN","Plaats":"Rosmalen","Routekaart":"Niet ingeleverd"},"geometry":{"type":"Point","coordinates":[5.36995,51.71402]}},{"type":"Feature","properties":{"Naam":"Van Neynsel Eemwijk","Organisatie":"Van Neynsel","Soort zorg":"Verpleeghuizen, Verzorgingshuizen","Huisnummer":"114","Postcode":"5215HR","Plaats":"'s-Hertogenbosch","Routekaart":"Wordt aan gewerkt","Ambitie":"Route tot 2030"},"geometry":{"type":"Point","coordinates":[5.33719,51.69262]}},{"type":"Feature","properties":{"Naam":"Stichting Sint Anna","Organisatie":"Stichting Sint Anna","Soort zorg":"Verpleeghuizen","Huisnummer":"49","Postcode":"5831JM","Plaats":"Boxmeer","Routekaart":"Actueel en vastgesteld","Ambitie":"Route tot 2030"},"geometry":{"type":"Point","coordinates":[5.9585,51.65212]}},{"type":"Feature","properties":{"Naam":"Jozefoord","Organisatie":"Stg. St. Jozefoord","Soort zorg":"Verpleeghuizen","Huisnummer":"15","Postcode":"5391EC","Plaats":"Nuland","Routekaart":"Niet ingeleverd"},"geometry":{"type":"Point","coordinates":[5.42638,51.72296]}},{"type":"Feature","properties":{"Naam":"Thuiszorg en Zorgcentra Pantein B.V.","Organisatie":"Thuiszorg en Zorgcentra Pantein B.V.","Soort zorg":"Verpleeghuizen","Huisnummer":"2","Postcode":"5835DV","Plaats":"Beugen","Routekaart":"Niet ingeleverd"},"geometry":{"type":"Point","coordinates":[5.94134,51.66318]}},{"type":"Feature","properties":{"Naam":"Epilepsiecentr. Kempenhaeghe/De Berkenschutse","Organisatie":"St. Kempenhaeghe","Soort zorg":"Verpleeghuizen, verzorging en thuiszorg","Huisnummer":"65","Postcode":"5591VE","Plaats":"Heeze","Routekaart":"Wordt aan gewerkt","Ambitie":"Route tot 2040"},"geometry":{"type":"Point","coordinates":[5.59451,51.3636]}},{"type":"Feature","properties":{"Naam":"Stichting Vitalis WoonZorg Groep","Organisatie":"Stichting Vitalis WoonZorg Groep","Soort zorg":"Verpleeghuizen, verzorging en thuiszorg","Huisnummer":"300","Postcode":"5644SR","Plaats":"Eindhoven","Routekaart":"Wordt aan gewerkt","Ambitie":"EM ingepland"},"geometry":{"type":"Point","coordinates":[5.48033,51.4175]}},{"type":"Feature","properties":{"Naam":"Stichting Severinus","Organisatie":"Stichting Severinus","Soort zorg":"Verpleeghuizen, verzorging en thuiszorg","Huisnummer":"28","Postcode":"5507MD","Plaats":"Veldhoven","Routekaart":"Wordt aan gewerkt","Ambitie":"EM ingepland"},"geometry":{"type":"Point","coordinates":[5.37629,51.42088]}},{"type":"Feature","properties":{"Naam":"Archipel","Organisatie":"Stichting Archipel","Soort zorg":"Verpleeghuizen","Huisnummer":"415","Postcode":"5654NN","Plaats":"Eindhoven","Routekaart":"Wordt aan gewerkt","Ambitie":"Route tot 2030"},"geometry":{"type":"Point","coordinates":[5.44901,51.42088]}},{"type":"Feature","properties":{"Naam":"Stichting Zorg & Wonen Glorieux","Organisatie":"Stichting Zorg & Wonen Glorieux","Soort zorg":"Verzorgingshuizen","Huisnummer":"170","Postcode":"5613LN","Plaats":"Eindhoven","Routekaart":"Niet ingeleverd"},"geometry":{"type":"Point","coordinates":[5.498,51.43093]}},{"type":"Feature","properties":{"Naam":"Zorgcentrum Kempenhof","Organisatie":"Stichting Valkenhof","Soort zorg":"Verpleeghuizen, Verzorgingshuizen","Huisnummer":"3","Postcode":"5554JV","Plaats":"Valkenswaard","Routekaart":"Actueel en vastgesteld","Ambitie":"Route tot 2050"},"geometry":{"type":"Point","coordinates":[5.45519,51.34706]}},{"type":"Feature","properties":{"Naam":"Stichting de Zorgboog","Organisatie":"Stichting de Zorgboog","Soort zorg":"Verpleeghuizen","Huisnummer":"23","Postcode":"5753SV","Plaats":"Deurne","Routekaart":"Actueel en vastgesteld","Ambitie":"Route tot 2050"},"geometry":{"type":"Point","coordinates":[5.76581,51.45504]}},{"type":"Feature","properties":{"Naam":"Stichting Oktober","Organisatie":"Stichting Oktober","Soort zorg":"Verpleeghuizen, Verzorgingshuizen","Huisnummer":"10","Postcode":"5531LJ","Plaats":"Bladel","Routekaart":"Wordt aan gewerkt","Ambitie":"Route tot 2050"},"geometry":{"type":"Point","coordinates":[5.21471,51.36279]}},{"type":"Feature","properties":{"Naam":"Stichting Thebe / Elisabeth","Organisatie":"Stichting Thebe Midden-Brabant","Soort zorg":"Verpleeghuizen","Huisnummer":"6","Postcode":"5051HC","Plaats":"Goirle","Routekaart":"Niet ingeleverd"},"geometry":{"type":"Point","coordinates":[5.06706,51.51773]}},{"type":"Feature","properties":{"Naam":"Het Laar","Organisatie":"Stichting Het Laar","Soort zorg":"Verpleeghuizen, Verzorgingshuizen","Huisnummer":"175","Postcode":"5025XG","Plaats":"Tilburg","Routekaart":"Actueel en vastgesteld","Ambitie":"Route tot 2030"},"geometry":{"type":"Point","coordinates":[5.05897,51.5449]}},{"type":"Feature","properties":{"Naam":"Stichting De Wever","Organisatie":"Stichting De Wever","Soort zorg":"Verpleeghuizen","Huisnummer":"6","Postcode":"5042AD","Plaats":"Tilburg","Routekaart":"Actueel en vastgesteld","Ambitie":"EM ingepland"},"geometry":{"type":"Point","coordinates":[5.06428,51.57823]}},{"type":"Feature","properties":{"Naam":"Joris Zorg","Organisatie":"Joris Zorg","Soort zorg":"Verzorgingshuizen","Huisnummer":"1","Postcode":"5688AS","Plaats":"Oirschot","Routekaart":"Actueel en vastgesteld","Ambitie":"EM ingepland"},"geometry":{"type":"Point","coordinates":[5.31095,51.50462]}},{"type":"Feature","properties":{"Naam":"Zorgcentrum Sint Franciscus","Organisatie":"Stichting Verzorging St. Franciscus","Soort zorg":"Verzorgingshuizen","Huisnummer":"20","Postcode":"5126GC","Plaats":"Gilze","Routekaart":"Niet ingeleverd"},"geometry":{"type":"Point","coordinates":[4.94187,51.53892]}},{"type":"Feature","properties":{"Naam":"Zorgstichting 't Heem","Organisatie":"Zorgstichting 't Heem","Soort zorg":"Verzorgingshuizen","Huisnummer":"2a","Postcode":"5071EJ","Plaats":"Udenhout","Routekaart":"Niet ingeleverd"},"geometry":{"type":"Point","coordinates":[5.1405,51.61195]}},{"type":"Feature","properties":{"Naam":"Stichting \"De Wijngaerd\"","Organisatie":"Stichting \"De Wijngaerd\"","Soort zorg":"Verzorgingshuizen","Huisnummer":"2a","Postcode":"4921JC","Plaats":"Made","Routekaart":"Wordt aan gewerkt","Ambitie":"EM ingepland"},"geometry":{"type":"Point","coordinates":[4.78562,51.67581]}},{"type":"Feature","properties":{"Naam":"Stichting Residentie Molenwijck","Organisatie":"Stichting Residentie Molenwijck","Soort zorg":"Verzorgingshuizen","Huisnummer":"1","Postcode":"5175WB","Plaats":"Loon op Zand","Routekaart":"Wordt aan gewerkt","Ambitie":"Route tot 2030"},"geometry":{"type":"Point","coordinates":[5.07888,51.62409]}},{"type":"Feature","properties":{"Naam":"Wijkestein","Organisatie":"Stichting Zorgplein Maaswaarden","Soort zorg":"Verpleeghuizen","Huisnummer":"26","Postcode":"4261CW","Plaats":"Wijk en Aalburg","Routekaart":"Niet ingeleverd"},"geometry":{"type":"Point","coordinates":[5.12701,51.75838]}},{"type":"Feature","properties":{"Naam":"Stichting Zorgorganisatie Het Hoge Veer","Organisatie":"Stichting Zorgorganisatie Het Hoge Veer","Soort zorg":"Verpleeghuizen","Huisnummer":"1","Postcode":"4941KH","Plaats":"Raamsdonksveer","Routekaart":"Niet ingeleverd"},"geometry":{"type":"Point","coordinates":[4.87872,51.69411]}},{"type":"Feature","properties":{"Naam":"Stichting Maria-Oord","Organisatie":"Maria-oord","Soort zorg":"Verpleeghuizen","Huisnummer":"25","Postcode":"5104JA","Plaats":"Dongen","Routekaart":"Niet ingeleverd"},"geometry":{"type":"Point","coordinates":[4.9363,51.63093]}},{"type":"Feature","properties":{"Naam":"Ruitersbos","Organisatie":"Ruitersbos","Soort zorg":"Verpleeghuizen, Verzorgingshuizen","Huisnummer":"2","Postcode":"4837AM","Plaats":"Breda","Routekaart":"Niet ingeleverd"},"geometry":{"type":"Point","coordinates":[4.77236,51.5705]}},{"type":"Feature","properties":{"Naam":"Avoord","Organisatie":"Avoord","Soort zorg":"Verzorgingshuizen","Huisnummer":"1","Postcode":"4876CV","Plaats":"Etten-Leur","Routekaart":"Wordt aan gewerkt","Ambitie":"Onbekend"},"geometry":{"type":"Point","coordinates":[4.64097,51.56154]}},{"type":"Feature","properties":{"Naam":"St. Elisabeth Roosendaal","Organisatie":"Stichting St. Elisabeth","Soort zorg":"Verzorgingshuizen","Huisnummer":"21","Postcode":"4703BL","Plaats":"Roosendaal","Routekaart":"Niet ingeleverd"},"geometry":{"type":"Point","coordinates":[4.4439,51.53132]}},{"type":"Feature","properties":{"Naam":"Stichting Groenhuysen","Organisatie":"Stichting Groenhuysen","Soort zorg":"Verpleeghuizen","Huisnummer":"29","Postcode":"4707ZH","Plaats":"Roosendaal","Routekaart":"Actueel en vastgesteld","Ambitie":"EM ingepland"},"geometry":{"type":"Point","coordinates":[4.47278,51.52493]}},{"type":"Feature","properties":{"Naam":"Stichting S & L zorg","Organisatie":"Stichting S & L zorg","Soort zorg":"Verpleeghuizen, verzorging en thuiszorg","Huisnummer":"161a","Postcode":"4706LL","Plaats":"Roosendaal","Routekaart":"Wordt aan gewerkt","Ambitie":"Route tot +-2025"},"geometry":{"type":"Point","coordinates":[4.49311,51.51822]}},{"type":"Feature","properties":{"Naam":"Woonzorgcentrum Raffy","Organisatie":"Stichting Woonzorgcentrum Raffy-Leystroom","Soort zorg":"Verzorgingshuizen","Huisnummer":"400","Postcode":"4827EG","Plaats":"Breda","Routekaart":"Wordt aan gewerkt","Ambitie":"EM ingepland"},"geometry":{"type":"Point","coordinates":[4.7978,51.60823]}},{"type":"Feature","properties":{"Naam":"Surplus Zorg","Organisatie":"Stichting Surplus Zorg","Soort zorg":"Verpleeghuizen, Verzorgingshuizen","Huisnummer":"93","Postcode":"4811VJ","Plaats":"Breda","Routekaart":"Actueel en vastgesteld","Ambitie":"Route tot 2050"},"geometry":{"type":"Point","coordinates":[4.76745,51.58875]}},{"type":"Feature","properties":{"Naam":"SVRZ","Organisatie":"SVRZ","Soort zorg":"Verpleeghuizen, Verzorgingshuizen","Huisnummer":"143","Postcode":"4335SM","Plaats":"Middelburg","Routekaart":"Actueel en vastgesteld","Ambitie":"Route tot 2030"},"geometry":{"type":"Point","coordinates":[3.59533,51.48979]}},{"type":"Feature","properties":{"Naam":"Viersprong,spec in pers.gedrag&gezin","Organisatie":"de Viersprong","Soort zorg":"Verpleeghuizen, verzorging en thuiszorg","Huisnummer":"2","Postcode":"4661EP","Plaats":"Halsteren","Routekaart":"Wordt aan gewerkt","Ambitie":"Route tot 2030"},"geometry":{"type":"Point","coordinates":[4.27098,51.53038]}},{"type":"Feature","properties":{"Naam":"St. Ouderenzorg Kapelle","Organisatie":"St. Ouderenzorg Kapelle","Soort zorg":"Verpleeghuizen","Huisnummer":"9","Postcode":"4421BZ","Plaats":"Kapelle","Routekaart":"Niet ingeleverd"},"geometry":{"type":"Point","coordinates":[3.96231,51.48128]}},{"type":"Feature","properties":{"Naam":"De Schutse Zorgcentrum","Organisatie":"Stichting Schutse Zorg Tholen","Soort zorg":"Verzorgingshuizen","Huisnummer":"10","Postcode":"4697GM","Plaats":"Sint-Annaland","Routekaart":"Niet ingeleverd"},"geometry":{"type":"Point","coordinates":[4.09759,51.60007]}},{"type":"Feature","properties":{"Naam":"WVO Zorg","Organisatie":"WVO Zorg","Soort zorg":"Verpleeghuizen","Huisnummer":"370","Postcode":"4382CJ","Plaats":"Vlissingen","Routekaart":"Wordt aan gewerkt","Ambitie":"EM ingepland"},"geometry":{"type":"Point","coordinates":[3.56034,51.45367]}},{"type":"Feature","properties":{"Naam":"Zorgcentrum Ter Weel","Organisatie":"STICHTING ZORGGROEP TER WEEL","Soort zorg":"Verpleeghuizen","Huisnummer":"1","Postcode":"4462AV","Plaats":"Goes","Routekaart":"Wordt aan gewerkt","Ambitie":"Route tot 2030"},"geometry":{"type":"Point","coordinates":[3.9039,51.49493]}},{"type":"Feature","properties":{"Naam":"Hospice het Clarahofje","Organisatie":"St. Het Clarahofje","Soort zorg":"Verpleeghuizen","Huisnummer":"100","Postcode":"4461EC","Plaats":"Goes","Routekaart":"Niet ingeleverd"},"geometry":{"type":"Point","coordinates":[3.87651,51.50428]}},{"type":"Feature","properties":{"Naam":"Emergis","Organisatie":"Emergis","Soort zorg":"Verpleeghuizen, verzorging en thuiszorg","Huisnummer":"101","Postcode":"4481PM","Plaats":"Kloetinge","Routekaart":"Wordt aan gewerkt","Ambitie":"Onbekend"},"geometry":{"type":"Point","coordinates":[3.90952,51.48769]}},{"type":"Feature","properties":{"Naam":"Stichting De Hoop","Organisatie":"St. De Hoop","Soort zorg":"Verpleeghuizen, verzorging en thuiszorg","Huisnummer":"70","Postcode":"3329KP","Plaats":"Dordrecht","Routekaart":"Actueel en vastgesteld","Ambitie":"EM ingepland"},"geometry":{"type":"Point","coordinates":[4.72011,51.79429]}},{"type":"Feature","properties":{"Naam":"PZC Dordrecht - Crabbehoven","Organisatie":"Stichting Protestantse Zorggroep Crabbehoff","Soort zorg":"Verpleeghuizen","Huisnummer":"38","Postcode":"3317SP","Plaats":"Dordrecht","Routekaart":"Niet ingeleverd"},"geometry":{"type":"Point","coordinates":[4.66574,51.79078]}},{"type":"Feature","properties":{"Naam":"Hof van Sliedrecht","Organisatie":"Stichting Senioren Residenties Drechtstreek","Soort zorg":"Verzorgingshuizen","Huisnummer":"31","Postcode":"3362BB","Plaats":"Sliedrecht","Routekaart":"Niet ingeleverd"},"geometry":{"type":"Point","coordinates":[4.78585,51.82377]}},{"type":"Feature","properties":{"Naam":"De Blije Borgh","Organisatie":"Prot Interk Stg Zorgverlening H.I.Ambacht","Soort zorg":"Verpleeghuizen, Verzorgingshuizen","Huisnummer":"18","Postcode":"3341GD","Plaats":"Hendrik-Ido-Ambacht","Routekaart":"Actueel en vastgesteld","Ambitie":"Route tot 2050"},"geometry":{"type":"Point","coordinates":[4.64428,51.84214]}},{"type":"Feature","properties":{"Naam":"De Lange Wei","Organisatie":"Burgemeester De Boer-Stichting","Soort zorg":"Verzorgingshuizen","Huisnummer":"85","Postcode":"3372XV","Plaats":"Hardinxveld-Giessendam","Routekaart":"Wordt aan gewerkt","Ambitie":"Route tot 2030"},"geometry":{"type":"Point","coordinates":[4.88453,51.82396]}},{"type":"Feature","properties":{"Naam":"Stichting Het Parkhuis","Organisatie":"Stichting Het Parkhuis","Soort zorg":"Verpleeghuizen","Huisnummer":"69a","Postcode":"3319GB","Plaats":"Dordrecht","Routekaart":"Wordt aan gewerkt","Ambitie":"EM ingepland"},"geometry":{"type":"Point","coordinates":[4.71368,51.7952]}},{"type":"Feature","properties":{"Naam":"Huize Matthijs Marijke","Organisatie":"Stichting \"Huize Matthijs Marijke\"","Soort zorg":"Verzorgingshuizen","Huisnummer":"15","Postcode":"4201CV","Plaats":"Gorinchem","Routekaart":"Niet ingeleverd"},"geometry":{"type":"Point","coordinates":[4.97494,51.82905]}},{"type":"Feature","properties":{"Naam":"Woonzorgcentrum Heemzicht","Organisatie":"St. Woongemeenschap voor Ouderen","Soort zorg":"Verzorgingshuizen","Huisnummer":"26","Postcode":"3265BV","Plaats":"Piershil","Routekaart":"Actueel en vastgesteld","Ambitie":"Route tot 2040"},"geometry":{"type":"Point","coordinates":[4.31587,51.79315]}},{"type":"Feature","properties":{"Naam":"'t Achterdorp (wooncomplex)","Organisatie":"St. Huisvesting Ouderen","Soort zorg":"Verzorgingshuizen","Huisnummer":"87","Postcode":"3772BZ","Plaats":"Barneveld","Routekaart":"Niet ingeleverd"},"geometry":{"type":"Point","coordinates":[5.58575,52.13706]}},{"type":"Feature","properties":{"Naam":"Huis ter Leede","Organisatie":"Huis ter Leede","Soort zorg":"Verzorgingshuizen","Huisnummer":"1","Postcode":"4143EN","Plaats":"Leerdam","Routekaart":"Actueel en vastgesteld","Ambitie":"EM ingepland"},"geometry":{"type":"Point","coordinates":[5.0901,51.89747]}},{"type":"Feature","properties":{"Naam":"Stichting Syndion","Organisatie":"Stichting Syndion","Soort zorg":"Verpleeghuizen, verzorging en thuiszorg","Huisnummer":"4","Postcode":"4205AX","Plaats":"Gorinchem","Routekaart":"Actueel en vastgesteld","Ambitie":"Route tot 2050"},"geometry":{"type":"Point","coordinates":[4.96523,51.83253]}},{"type":"Feature","properties":{"Naam":"Akropolis","Organisatie":"Stichting Humanitas","Soort zorg":"Verpleeghuizen","Huisnummer":"290","Postcode":"3054RL","Plaats":"Rotterdam","Routekaart":"Wordt aan gewerkt","Ambitie":"EM ingepland"},"geometry":{"type":"Point","coordinates":[4.48621,51.96434]}},{"type":"Feature","properties":{"Naam":"De Vijverhof","Organisatie":"De Vijverhof","Soort zorg":"Verpleeghuizen","Huisnummer":"251","Postcode":"2903LJ","Plaats":"Capelle aan den IJssel","Routekaart":"Niet ingeleverd"},"geometry":{"type":"Point","coordinates":[4.59179,51.92951]}},{"type":"Feature","properties":{"Naam":"Riederborgh","Organisatie":"Stg PC zorgorganisatie Riederborgh","Soort zorg":"Verpleeghuizen, Verzorgingshuizen","Huisnummer":"2","Postcode":"2982BC","Plaats":"Ridderkerk","Routekaart":"Niet ingeleverd"},"geometry":{"type":"Point","coordinates":[4.58693,51.8724]}},{"type":"Feature","properties":{"Naam":"Rosa Spier Stichting","Organisatie":"Rosa Spier Stichting","Soort zorg":"Verzorgingshuizen","Huisnummer":"97","Postcode":"1251CG","Plaats":"Laren","Routekaart":"Niet ingeleverd"},"geometry":{"type":"Point","coordinates":[5.20977,52.26267]}},{"type":"Feature","properties":{"Naam":"Stichting Laurens","Organisatie":"Stichting Laurens","Soort zorg":"Verpleeghuizen","Huisnummer":"29a","Postcode":"3014GB","Plaats":"Rotterdam","Routekaart":"Wordt aan gewerkt","Ambitie":"Route tot 2030"},"geometry":{"type":"Point","coordinates":[4.47113,51.91678]}},{"type":"Feature","properties":{"Naam":"Salem","Organisatie":"Stichting Salem","Soort zorg":"Verpleeghuizen","Huisnummer":"2","Postcode":"2986AZ","Plaats":"Ridderkerk","Routekaart":"Actueel en vastgesteld","Ambitie":"Route tot 2030"},"geometry":{"type":"Point","coordinates":[4.62681,51.86411]}},{"type":"Feature","properties":{"Naam":"Harg-Spaland centrum voor zorg en wonen","Organisatie":"Harg-Spaland centrum voor zorg en wonen","Soort zorg":"Verpleeghuizen, Verzorgingshuizen","Huisnummer":"2","Postcode":"3122JT","Plaats":"Schiedam","Routekaart":"Niet ingeleverd"},"geometry":{"type":"Point","coordinates":[4.3739,51.92954]}},{"type":"Feature","properties":{"Naam":"Stichting Cedrah","Organisatie":"Cedrah","Soort zorg":"Verzorgingshuizen","Huisnummer":"40","Postcode":"2992XC","Plaats":"Barendrecht","Routekaart":"Wordt aan gewerkt","Ambitie":"Route tot 2050"},"geometry":{"type":"Point","coordinates":[4.53503,51.8664]}},{"type":"Feature","properties":{"Naam":"De Zellingen/Verpleeghuis Rijckehove","Organisatie":"De Zellingen","Soort zorg":"Verpleeghuizen","Huisnummer":"1","Postcode":"2901HM","Plaats":"Capelle aan den IJssel","Routekaart":"Actueel en vastgesteld","Ambitie":"EM ingepland"},"geometry":{"type":"Point","coordinates":[4.55829,51.91806]}},{"type":"Feature","properties":{"Naam":"Vaartland Service en Zorgcentrum","Organisatie":"Vaartland Service en Zorgcentrum","Soort zorg":"Verzorgingshuizen","Huisnummer":"9","Postcode":"3136EA","Plaats":"Vlaardingen","Routekaart":"Niet ingeleverd"},"geometry":{"type":"Point","coordinates":[4.34739,51.92401]}},{"type":"Feature","properties":{"Naam":"Frankeland - Sint Liduinastichting","Organisatie":"Frankeland - Sint Liduinastichting","Soort zorg":"Verpleeghuizen, Verzorgingshuizen","Huisnummer":"10","Postcode":"3117CS","Plaats":"Schiedam","Routekaart":"Niet ingeleverd"},"geometry":{"type":"Point","coordinates":[4.39406,51.91416]}},{"type":"Feature","properties":{"Naam":"Stg Zorgverlening voor Ouderen Schiewaegh","Organisatie":"Stg Zorgverlening voor Ouderen Schiewaegh","Soort zorg":"Verpleeghuizen, Verzorgingshuizen","Huisnummer":"759","Postcode":"3119AT","Plaats":"Schiedam","Routekaart":"Niet ingeleverd"},"geometry":{"type":"Point","coordinates":[4.38851,51.91937]}},{"type":"Feature","properties":{"Naam":"Jacobs Gasthuis centrum voor verzorgd wonen","Organisatie":"Jacobs Gasthuis centrum voor verzorgd wonen","Soort zorg":"Verzorgingshuizen","Huisnummer":"59","Postcode":"3116BC","Plaats":"Schiedam","Routekaart":"Niet ingeleverd"},"geometry":{"type":"Point","coordinates":[4.38823,51.91088]}},{"type":"Feature","properties":{"Naam":"Wilhelmina Alida Stichting","Organisatie":"Wilhelmina Alida Stichting","Soort zorg":"Verpleeghuizen","Huisnummer":"200","Postcode":"2243EX","Plaats":"Wassenaar","Routekaart":"Niet ingeleverd"},"geometry":{"type":"Point","coordinates":[4.382,52.12534]}},{"type":"Feature","properties":{"Naam":"Beukenhof","Organisatie":"Stichting Inovum","Soort zorg":"Verpleeghuizen","Huisnummer":"24","Postcode":"1231KX","Plaats":"Loosdrecht","Routekaart":"Actueel en vastgesteld","Ambitie":"Route tot 2030"},"geometry":{"type":"Point","coordinates":[5.1327,52.20119]}},{"type":"Feature","properties":{"Naam":"Huize Eykenburg","Organisatie":"Stichting Eykenburg","Soort zorg":"Verpleeghuizen, Verzorgingshuizen","Huisnummer":"12","Postcode":"2564VD","Plaats":"'s-Gravenhage","Routekaart":"Niet ingeleverd"},"geometry":{"type":"Point","coordinates":[4.26153,52.07191]}},{"type":"Feature","properties":{"Naam":"Stichting Lindenhof","Organisatie":"Stichting Lindenhof","Soort zorg":"Verzorgingshuizen","Huisnummer":"79","Postcode":"2242HE","Plaats":"Wassenaar","Routekaart":"Niet ingeleverd"},"geometry":{"type":"Point","coordinates":[4.39058,52.13966]}},{"type":"Feature","properties":{"Naam":"WZH Stafbureau","Organisatie":"Stichting WoonZorgcentra Haaglanden","Soort zorg":"Verpleeghuizen","Huisnummer":"497","Postcode":"2548MP","Plaats":"'s-Gravenhage","Routekaart":"Niet ingeleverd"},"geometry":{"type":"Point","coordinates":[4.28943,52.04257]}},{"type":"Feature","properties":{"Naam":"mr L.E. Visserhuis","Organisatie":"Stichting Joods Bejaardencentrum Den Haag","Soort zorg":"Verpleeghuizen","Huisnummer":"75","Postcode":"2597GV","Plaats":"'s-Gravenhage","Routekaart":"Niet ingeleverd"},"geometry":{"type":"Point","coordinates":[4.32656,52.10581]}},{"type":"Feature","properties":{"Naam":"Zorgcentrum Groot Hoogwaak","Organisatie":"Stg. Zorg en Welzijn Groot Hoogwaak","Soort zorg":"Verzorgingshuizen","Huisnummer":"1","Postcode":"2202TG","Plaats":"Noordwijk","Routekaart":"Niet ingeleverd"},"geometry":{"type":"Point","coordinates":[4.44118,52.25166]}},{"type":"Feature","properties":{"Naam":"R.K. Zorgcentrum Roomburgh","Organisatie":"Stichting R.K. Zorgcentrum Roomburgh","Soort zorg":"Verzorgingshuizen","Huisnummer":"46","Postcode":"2314ZC","Plaats":"Leiden","Routekaart":"Actueel en vastgesteld","Ambitie":"Route tot +-2025"},"geometry":{"type":"Point","coordinates":[4.51331,52.15096]}},{"type":"Feature","properties":{"Naam":"Woonzorgcentrum Bloemswaard","Organisatie":"Stichting HOZO","Soort zorg":"Verpleeghuizen","Huisnummer":"3","Postcode":"2182LA","Plaats":"Hillegom","Routekaart":"Actueel en vastgesteld","Ambitie":"EM ingepland"},"geometry":{"type":"Point","coordinates":[4.57776,52.2856]}},{"type":"Feature","properties":{"Naam":"De Zevenster","Organisatie":"De Zevenster","Soort zorg":"Verpleeghuizen","Huisnummer":"3","Postcode":"2761HD","Plaats":"Zevenhuizen","Routekaart":"Niet ingeleverd"},"geometry":{"type":"Point","coordinates":[4.58584,52.01325]}},{"type":"Feature","properties":{"Naam":"Gemiva-SVG Groep","Organisatie":"Stichting Gemiva-SVG","Soort zorg":"Verpleeghuizen, verzorging en thuiszorg","Huisnummer":"1b","Postcode":"2803HG","Plaats":"Gouda","Routekaart":"Wordt aan gewerkt","Ambitie":"Route tot 2030"},"geometry":{"type":"Point","coordinates":[4.70372,52.01987]}},{"type":"Feature","properties":{"Naam":"Stichting De Opbouw","Organisatie":"Stichting De Opbouw","Soort zorg":"Verpleeghuizen, verzorging en thuiszorg","Huisnummer":"267","Postcode":"3584AA","Plaats":"Utrecht","Routekaart":"Wordt aan gewerkt","Ambitie":"EM ingepland"},"geometry":{"type":"Point","coordinates":[5.14734,52.07856]}},{"type":"Feature","properties":{"Naam":"Woon- en Zorgcentrum de Wulverhorst","Organisatie":"Stichting Ouderenzorg Oudewater","Soort zorg":"Verzorgingshuizen","Huisnummer":"2","Postcode":"3421JD","Routekaart":"Actueel en vastgesteld","Ambitie":"Route tot 2050"},"geometry":{"type":"Point","coordinates":[4.8683,52.02843]}},{"type":"Feature","properties":{"Naam":"Woonzorgcentrum Maria Dommer","Organisatie":"Maria Dommer Stichting","Soort zorg":"Verzorgingshuizen","Huisnummer":"1","Postcode":"3601EX","Routekaart":"Niet ingeleverd"},"geometry":{"type":"Point","coordinates":[5.03949,52.14411]}},{"type":"Feature","properties":{"Naam":"Coöperatieve Vereniging Park Rodichem U.A.","Organisatie":"Coöperatieve Vereniging Park Rodichem U.A.","Soort zorg":"Verzorgingshuizen","Huisnummer":"42","Postcode":"3712CC","Routekaart":"Niet ingeleverd"},"geometry":{"type":"Point","coordinates":[5.25084,52.12128]}},{"type":"Feature","properties":{"Naam":"Bartholomeus Gasthuis","Organisatie":"Stichting Bartholomeus Gasthuis","Soort zorg":"Verzorgingshuizen","Huisnummer":"40","Postcode":"3511PZ","Plaats":"Utrecht","Routekaart":"Wordt aan gewerkt","Ambitie":"Route tot 2030"},"geometry":{"type":"Point","coordinates":[5.1196,52.08545]}},{"type":"Feature","properties":{"Naam":"Accolade Zorggroep","Organisatie":"stichting Accolade Zorg","Soort zorg":"Verpleeghuizen","Huisnummer":"2","Postcode":"3735MR","Plaats":"Bosch en Duin","Routekaart":"Wordt aan gewerkt","Ambitie":"EM ingepland"},"geometry":{"type":"Point","coordinates":[5.24436,52.11495]}},{"type":"Feature","properties":{"Naam":"Wooncentrum Heerewegen","Organisatie":"Warande","Soort zorg":"Verpleeghuizen","Huisnummer":"80","Postcode":"3708AH","Plaats":"Zeist","Routekaart":"Actueel en vastgesteld","Ambitie":"EM ingepland"},"geometry":{"type":"Point","coordinates":[5.2571,52.07324]}},{"type":"Feature","properties":{"Naam":"St. Inventaris Park Boswijk","Organisatie":"St. Inventaris Park Boswijk","Soort zorg":"Verzorgingshuizen","Huisnummer":"200","Postcode":"3941AA","Plaats":"Doorn","Routekaart":"Niet ingeleverd"},"geometry":{"type":"Point","coordinates":[5.30296,52.04109]}},{"type":"Feature","properties":{"Naam":"Stichting Zorgspectrum","Organisatie":"Stichting Zorgspectrum","Soort zorg":"Verpleeghuizen, verzorging en thuiszorg","Huisnummer":"14","Postcode":"3439MN","Plaats":"Nieuwegein","Routekaart":"Actueel en vastgesteld","Ambitie":"Route tot +-2025"},"geometry":{"type":"Point","coordinates":[5.097,52.03564]}},{"type":"Feature","properties":{"Naam":"Zorg- en Wooncentrum De Haven","Organisatie":"Stichting Zorg- en Wooncentrum De Haven","Soort zorg":"Verzorgingshuizen","Huisnummer":"161","Postcode":"3752GM","Plaats":"Bunschoten-Spakenburg","Routekaart":"Actueel en vastgesteld","Ambitie":"Route tot 2030"},"geometry":{"type":"Point","coordinates":[5.37307,52.25089]}},{"type":"Feature","properties":{"Naam":"Agnietenhove","Organisatie":"Julia Stichting Agnietenhove","Soort zorg":"Verzorgingshuizen","Huisnummer":"38","Postcode":"3811HC","Plaats":"Amersfoort","Routekaart":"Niet ingeleverd"},"geometry":{"type":"Point","coordinates":[5.39207,52.15421]}},{"type":"Feature","properties":{"Naam":"Stichting Zorg Voorziening Bloemendal","Organisatie":"Stichting Zorgvoorziening Bloemendael","Soort zorg":"Verzorgingshuizen","Huisnummer":"6a","Postcode":"3768GM","Plaats":"Soest","Routekaart":"Niet ingeleverd"},"geometry":{"type":"Point","coordinates":[5.31146,52.16166]}},{"type":"Feature","properties":{"Naam":"Stichting St. Pieters en Bloklands Gasthuis","Organisatie":"Stichting St. Pieters en Bloklands Gasthuis","Soort zorg":"Verzorgingshuizen","Huisnummer":"157","Postcode":"3826EM","Plaats":"Amersfoort","Routekaart":"Niet ingeleverd"},"geometry":{"type":"Point","coordinates":[5.42233,52.20267]}},{"type":"Feature","properties":{"Naam":"Vivium Zorggroep","Organisatie":"Vivium Zorggroep","Soort zorg":"Verpleeghuizen, verzorging en thuiszorg","Huisnummer":"51","Postcode":"1271XL","Plaats":"Huizen","Routekaart":"Wordt aan gewerkt","Ambitie":"Onbekend"},"geometry":{"type":"Point","coordinates":[5.23814,52.30366]}},{"type":"Feature","properties":{"Naam":"HilverPoint / HilverZorg Thuis","Organisatie":"HilverZorg","Soort zorg":"Verzorgingshuizen","Huisnummer":"10d","Postcode":"1216SK","Plaats":"Hilversum","Routekaart":"Wordt aan gewerkt","Ambitie":"Route tot 2050"},"geometry":{"type":"Point","coordinates":[5.14252,52.21356]}},{"type":"Feature","properties":{"Naam":"Hospice Kajan","Organisatie":"Stichting Hospice Gooi & Vechtstreek","Soort zorg":"Verpleeghuizen","Huisnummer":"18","Postcode":"1217HA","Plaats":"Hilversum","Routekaart":"Niet ingeleverd"},"geometry":{"type":"Point","coordinates":[5.17037,52.23268]}},{"type":"Feature","properties":{"Naam":"Stichting Pro Senectute","Organisatie":"Stichting Pro Senectute (voor de Ouderdom)","Soort zorg":"Verpleeghuizen, verzorging en thuiszorg","Huisnummer":"75","Postcode":"1081GM","Plaats":"Amsterdam","Routekaart":"Wordt aan gewerkt","Ambitie":"EM ingepland"},"geometry":{"type":"Point","coordinates":[4.86046,52.32828]}},{"type":"Feature","properties":{"Naam":"'t Huis a/d Poel/Thuiszorg BrentanoAmstelveen","Organisatie":"Stichting Brentano Amstelveen","Soort zorg":"Verpleeghuizen","Huisnummer":"21","Postcode":"1185SE","Plaats":"Amstelveen","Routekaart":"Niet ingeleverd"},"geometry":{"type":"Point","coordinates":[4.84563,52.29557]}},{"type":"Feature","properties":{"Naam":"Stichting Humanitas DMH","Organisatie":"Stichting Humanitas DMH","Soort zorg":"Verpleeghuizen, verzorging en thuiszorg","Huisnummer":"5","Postcode":"3439NK","Plaats":"Nieuwegein","Routekaart":"Wordt aan gewerkt","Ambitie":"EM ingepland"},"geometry":{"type":"Point","coordinates":[5.10153,52.04019]}},{"type":"Feature","properties":{"Naam":"Leger des Heils Welzijns- en Gezondheidszorg","Organisatie":"St Leger des Heils Welzyns-en Gezondheidszorg","Soort zorg":"Verpleeghuizen, verzorging en thuiszorg","Huisnummer":"10","Postcode":"1315GN","Plaats":"Almere","Routekaart":"Actueel en vastgesteld","Ambitie":"Route tot 2030"},"geometry":{"type":"Point","coordinates":[5.21491,52.37407]}},{"type":"Feature","properties":{"Naam":"Stichting Levvel","Organisatie":"Stichting Levvel","Soort zorg":"Verpleeghuizen, verzorging en thuiszorg","Huisnummer":"73","Postcode":"1076EC","Plaats":"Amsterdam","Routekaart":"Wordt aan gewerkt","Ambitie":"Route tot +-2025"},"geometry":{"type":"Point","coordinates":[4.86584,52.34117]}},{"type":"Feature","properties":{"Naam":"Reinaldahuis","Organisatie":"Zorggroep Reinalda","Soort zorg":"Verpleeghuizen, Verzorgingshuizen","Huisnummer":"1","Postcode":"2033TA","Plaats":"Haarlem","Routekaart":"Niet ingeleverd"},"geometry":{"type":"Point","coordinates":[4.65985,52.37557]}},{"type":"Feature","properties":{"Naam":"Stichting Epilepsie Instellingen Nederland","Organisatie":"Stichting Epilepsie Instellingen Nederland","Soort zorg":"Verpleeghuizen, verzorging en thuiszorg","Huisnummer":"5","Postcode":"2103SW","Plaats":"Heemstede","Routekaart":"Wordt aan gewerkt","Ambitie":"Route tot 2030"},"geometry":{"type":"Point","coordinates":[4.62324,52.34147]}},{"type":"Feature","properties":{"Naam":"Stichting KennemerHart","Organisatie":"Stichting KennemerHart","Soort zorg":"Verzorgingshuizen","Huisnummer":"41","Postcode":"2033AP","Plaats":"Haarlem","Routekaart":"Actueel en vastgesteld","Ambitie":"Route tot 2050"},"geometry":{"type":"Point","coordinates":[4.67289,52.38155]}},{"type":"Feature","properties":{"Naam":"Zorgcentrum Aalsmeer","Organisatie":"Hervormd/Gem. St. Zorgcentrum Aelsmeer","Soort zorg":"Verzorgingshuizen","Huisnummer":"2","Postcode":"1431BZ","Plaats":"Aalsmeer","Routekaart":"Niet ingeleverd"},"geometry":{"type":"Point","coordinates":[4.74477,52.26976]}},{"type":"Feature","properties":{"Naam":"Sint Jacob","Organisatie":"Stichting Sint Jacob","Soort zorg":"Verpleeghuizen","Huisnummer":"24","Postcode":"2033PZ","Plaats":"Haarlem","Routekaart":"Wordt aan gewerkt","Ambitie":"Route tot 2030"},"geometry":{"type":"Point","coordinates":[4.65199,52.37229]}},{"type":"Feature","properties":{"Naam":"Het Mennistenerf","Organisatie":"Het Mennistenerf","Soort zorg":"Verpleeghuizen","Huisnummer":"77","Postcode":"1502CC","Plaats":"Zaandam","Routekaart":"Niet ingeleverd"},"geometry":{"type":"Point","coordinates":[4.83238,52.44108]}},{"type":"Feature","properties":{"Naam":"Odibaan","Organisatie":"Stichting Odion","Soort zorg":"Verpleeghuizen, verzorging en thuiszorg","Huisnummer":"5a","Postcode":"1531AD","Plaats":"Wormer","Routekaart":"Wordt aan gewerkt","Ambitie":"Onbekend"},"geometry":{"type":"Point","coordinates":[4.80098,52.49275]}},{"type":"Feature","properties":{"Naam":"Stichting Evean Zorg","Organisatie":"Stichting Evean Zorg","Soort zorg":"Verpleeghuizen, Verzorgingshuizen","Huisnummer":"5","Postcode":"1441RP","Plaats":"Purmerend","Routekaart":"Niet ingeleverd"},"geometry":{"type":"Point","coordinates":[4.95931,52.50432]}},{"type":"Feature","properties":{"Naam":"Molentocht","Organisatie":"Stichting De Zorgcirkel","Soort zorg":"Verpleeghuizen, Verzorgingshuizen","Huisnummer":"99","Postcode":"1447EG","Plaats":"Purmerend","Routekaart":"Wordt aan gewerkt","Ambitie":"Route tot 2030"},"geometry":{"type":"Point","coordinates":[4.96679,52.48912]}},{"type":"Feature","properties":{"Naam":"Stichting Omring","Organisatie":"Stichting Omring","Soort zorg":"Verpleeghuizen, Verzorgingshuizen","Huisnummer":"36","Postcode":"1625HV","Plaats":"Hoorn","Routekaart":"Actueel en vastgesteld","Ambitie":"Route tot 2030"},"geometry":{"type":"Point","coordinates":[5.06444,52.65582]}},{"type":"Feature","properties":{"Naam":"Raphaëlstichting","Organisatie":"Raphaëlstichting","Soort zorg":"Verpleeghuizen, verzorging en thuiszorg","Huisnummer":"35","Postcode":"1871AC","Plaats":"Schoorl","Routekaart":"Actueel en vastgesteld","Ambitie":"Route tot 2050"},"geometry":{"type":"Point","coordinates":[4.69594,52.69617]}},{"type":"Feature","properties":{"Naam":"Stichting Alkcare","Organisatie":"Stichting Alkcare","Soort zorg":"Verzorgingshuizen","Huisnummer":"91","Postcode":"1829AC","Plaats":"Oudorp","Routekaart":"Actueel en vastgesteld","Ambitie":"Route tot 2050"},"geometry":{"type":"Point","coordinates":[4.77456,52.6372]}},{"type":"Feature","properties":{"Naam":"Woonzorgcentrum De Raatstede","Organisatie":"De Pieter Raat Stichting","Soort zorg":"Verzorgingshuizen","Huisnummer":"2","Postcode":"1703DX","Plaats":"Heerhugowaard","Routekaart":"Actueel en vastgesteld","Ambitie":"Route tot 2030"},"geometry":{"type":"Point","coordinates":[4.82592,52.66563]}},{"type":"Feature","properties":{"Naam":"Verpleeghuis Magnushof","Organisatie":"STICHTING WOONZORGGROEP SAMEN","Soort zorg":"Verpleeghuizen, Verzorgingshuizen","Huisnummer":"30","Postcode":"1741KW","Plaats":"Schagen","Routekaart":"Actueel en vastgesteld","Ambitie":"Route tot 2050"},