{
"type": "FeatureCollection",
"crs": { "type": "name", "properties": { "name": "urn:ogc:def:crs:OGC:1.3:CRS84" } },
"features": [
{ "type": "Feature", "properties": { "naam": "Familiebad Bredius", "adres": "Spaarndammerdijk 306a", "postcode": "1013 ZX", "plaats": "Amsterdam" }, "geometry": { "type": "Point", "coordinates": [ 4.868338311549702, 52.392471716064378 ] } },
{ "type": "Feature", "properties": { "naam": "Het Marnix", "adres": "Marnixplein 1", "postcode": "1015 ZN", "plaats": "Amsterdam" }, "geometry": { "type": "Point", "coordinates": [ 4.878479676263507, 52.377991594360914 ] } },
{ "type": "Feature", "properties": { "naam": "Noorderparkbad", "adres": "Sneeuwbalweg 5", "postcode": "1032 VS", "plaats": "Amsterdam" }, "geometry": { "type": "Point", "coordinates": [ 4.918725906688605, 52.39827205006587 ] } },
{ "type": "Feature", "properties": { "naam": "SportPlaza Mercator", "adres": "Jan van Galenstraat 315", "postcode": "1056 CB", "plaats": "Amsterdam" }, "geometry": { "type": "Point", "coordinates": [ 4.846099313583159, 52.371745384349381 ] } },
{ "type": "Feature", "properties": { "naam": "Sloterparkbad", "adres": "President Allendelaan 3", "postcode": "1064 GW", "plaats": "Amsterdam" }, "geometry": { "type": "Point", "coordinates": [ 4.817120221116478, 52.370018565146651 ] } },
{ "type": "Feature", "properties": { "naam": "Zuiderbad", "adres": "Hobbemastraat 26", "postcode": "1071 ZC", "plaats": "Amsterdam" }, "geometry": { "type": "Point", "coordinates": [ 4.886026391993449, 52.358673212406764 ] } },
{ "type": "Feature", "properties": { "naam": "De mirandabad", "adres": "de Mirandalaan 9", "postcode": "1079 PA", "plaats": "Amsterdam" }, "geometry": { "type": "Point", "coordinates": [ 4.902274615627016, 52.338734162605604 ] } },
{ "type": "Feature", "properties": { "naam": "N.V. Sportfondsenbad Amsterdam-Oost", "adres": "Land van Cocagneplein 44", "postcode": "1093 NB", "plaats": "Amsterdam" }, "geometry": { "type": "Point", "coordinates": [ 4.928486652297603, 52.356643366737487 ] } },
{ "type": "Feature", "properties": { "naam": "Flevoparkbad", "adres": "Insulindeweg 1002", "postcode": "1095 DH", "plaats": "Amsterdam" }, "geometry": { "type": "Point", "coordinates": [ 4.951847882653838, 52.364928365145225 ] } },
{ "type": "Feature", "properties": { "naam": "Bijlmer Sportcentrum", "adres": "Anton de Komplein 157", "postcode": "1102 DR", "plaats": "Amsterdam" }, "geometry": { "type": "Point", "coordinates": [ 4.957628679782934, 52.315274288324566 ] } },
{ "type": "Feature", "properties": { "naam": "Stichting AGO zwembad", "adres": "Kriekenoord 17 ", "postcode": "1111 PT", "plaats": "Diemen" }, "geometry": { "type": "Point", "coordinates": [ 4.975029478170108, 52.336583228171421 ] } },
{ "type": "Feature", "properties": { "naam": "Sportcentrum Weth.F.B.Duran", "adres": "Ouderkerkerlaan 10", "postcode": "1112 BE", "plaats": "Diemen" }, "geometry": { "type": "Point", "coordinates": [ 4.958807438455198, 52.335995341611891 ] } },
{ "type": "Feature", "properties": { "naam": "Zwembad De Breek", "adres": "Sportpark 7", "postcode": "1121 MS", "plaats": "Landsmeer" }, "geometry": { "type": "Point", "coordinates": [ 4.905413002582824, 52.432164902990579 ] } },
{ "type": "Feature", "properties": { "naam": "Zwembad de Waterdam", "adres": "Harlingenlaan 25", "postcode": "1131 JP", "plaats": "Volendam" }, "geometry": { "type": "Point", "coordinates": [ 5.072833776852964, 52.508787855376227 ] } },
{ "type": "Feature", "properties": { "naam": "Sportfondsenbad Monnickendam", "adres": "Wilhelminalaan 54", "postcode": "1141 CW", "plaats": "Monnickendam" }, "geometry": { "type": "Point", "coordinates": [ 5.036417035851025, 52.455642005866238 ] } },
{ "type": "Feature", "properties": { "naam": "Sporthal De Sporthoeve", "adres": "Snelliuslaan 1", "postcode": "1171 CZ", "plaats": "Badhoevedorp" }, "geometry": { "type": "Point", "coordinates": [ 4.774762830647429, 52.343068276629765 ] } },
{ "type": "Feature", "properties": { "naam": "De Meerkamp", "adres": "Van der Hooplaan 239", "postcode": "1185 LN", "plaats": "Amstelveen" }, "geometry": { "type": "Point", "coordinates": [ 4.852624367080822, 52.288431066976408 ] } },
{ "type": "Feature", "properties": { "naam": "Het Amstelbad", "adres": "Wethouder Koolhaasweg 10", "postcode": "1191 EB", "plaats": "Ouderkerk aan de Amstel" }, "geometry": { "type": "Point", "coordinates": [ 4.920819932089086, 52.302560962187364 ] } },
{ "type": "Feature", "properties": { "naam": "De Lieberg", "adres": "Jan van der Heijdenstraat 174", "postcode": "1221 EN", "plaats": "Hilversum" }, "geometry": { "type": "Point", "coordinates": [ 5.192543319786851, 52.226906121679193 ] } },
{ "type": "Feature", "properties": { "naam": "Van Walderveenbad", "adres": "Prinses Margrietstraat 62", "postcode": "1231 XH", "plaats": "Loosdrecht" }, "geometry": { "type": "Point", "coordinates": [ 5.141400007199396, 52.198543955517856 ] } },
{ "type": "Feature", "properties": { "naam": "Sportcentrum de Biezem", "adres": "Schapendrift 64", "postcode": "1251 XH", "plaats": "Laren" }, "geometry": { "type": "Point", "coordinates": [ 5.239488110209394, 52.255806980094739 ] } },
{ "type": "Feature", "properties": { "naam": "Sijsjesberg", "adres": "Ericaweg 24", "postcode": "1272 CT", "plaats": "Huizen" }, "geometry": { "type": "Point", "coordinates": [ 5.218723228110418, 52.289950666786972 ] } },
{ "type": "Feature", "properties": { "naam": "Optisport Huizen bfv", "adres": "Graaf Wichman 177", "postcode": "1276 KD", "plaats": "Huizen" }, "geometry": { "type": "Point", "coordinates": [ 5.244084283854515, 52.297623613723246 ] } },
{ "type": "Feature", "properties": { "naam": "Almere Stad", "adres": "Johann Sebastiaan Bachweg 3", "postcode": "1323 BA", "plaats": "Almere" }, "geometry": { "type": "Point", "coordinates": [ 5.201915829987681, 52.369897735498903 ] } },
{ "type": "Feature", "properties": { "naam": "De Vrijbuiter", "adres": "Globeplein 1", "postcode": "1334 BT", "plaats": "Almere" }, "geometry": { "type": "Point", "coordinates": [ 5.277726865389702, 52.393260803141921 ] } },
{ "type": "Feature", "properties": { "naam": "Almere-Haven", "adres": "Parkwerf 138", "postcode": "1354 EB", "plaats": "Almere" }, "geometry": { "type": "Point", "coordinates": [ 5.221091758240424, 52.338631307457064 ] } },
{ "type": "Feature", "properties": { "naam": "Almere-Poort", "adres": "Pierre de Coubertinplein 6", "postcode": "1362 LB", "plaats": "Almere" }, "geometry": { "type": "Point", "coordinates": [ 5.157160116452724, 52.341750922424438 ] } },
{ "type": "Feature", "properties": { "naam": "ZIB Victoriabad", "adres": "Basisweg 1", "postcode": "1383 NC", "plaats": "Weesp" }, "geometry": { "type": "Point", "coordinates": [ 5.027118012550909, 52.298393504977255 ] } },
{ "type": "Feature", "properties": { "naam": "Het Meerbad", "adres": "Amsterdamsestraatweg 40", "postcode": "1391 AB", "plaats": "Abcoude" }, "geometry": { "type": "Point", "coordinates": [ 4.968421059293186, 52.278067532649906 ] } },
{ "type": "Feature", "properties": { "naam": "Sportcentrum de Zandzee", "adres": "Struikheiweg 14", "postcode": "1406 TK", "plaats": "Bussum" }, "geometry": { "type": "Point", "coordinates": [ 5.156203233289816, 52.266144389472174 ] } },
{ "type": "Feature", "properties": { "naam": "Sportcentrum De Lunet", "adres": "Amersfoortsestraatweg 16", "postcode": "1411 HD", "plaats": "Naarden" }, "geometry": { "type": "Point", "coordinates": [ 5.171162043563689, 52.28985540393036 ] } },
{ "type": "Feature", "properties": { "naam": "De Otter", "adres": "Sportlaan 66", "postcode": "1421 TE", "plaats": "Uithoorn" }, "geometry": { "type": "Point", "coordinates": [ 4.816121487178019, 52.243383595083039 ] } },
{ "type": "Feature", "properties": { "naam": "Amstelhof Health Club", "adres": "Noorddammerweg 30", "postcode": "1424 NX", "plaats": "De Kwakel" }, "geometry": { "type": "Point", "coordinates": [ 4.799682106987228, 52.245343269218608 ] } },
{ "type": "Feature", "properties": { "naam": "De Waterlelie", "adres": "Dreef 7", "postcode": "1431 WC", "plaats": "Aalsmeer" }, "geometry": { "type": "Point", "coordinates": [ 4.766838007128612, 52.255916058237659 ] } },
{ "type": "Feature", "properties": { "naam": "Spurd-Leeghwaterbad", "adres": "Leeghwaterpark 1", "postcode": "1445 RA", "plaats": "Purmerend" }, "geometry": { "type": "Point", "coordinates": [ 4.97199705412458, 52.500748735436986 ] } },
{ "type": "Feature", "properties": { "naam": "Zwembad de Slag", "adres": "koningsgeelstraat 3", "postcode": "1503 NA", "plaats": "Zaandam" }, "geometry": { "type": "Point", "coordinates": [ 4.838451378343517, 52.442739812027703 ] } },
{ "type": "Feature", "properties": { "naam": "Het Zwet", "adres": "Sternstraat 2", "postcode": "1531 VN", "plaats": "Wormer" }, "geometry": { "type": "Point", "coordinates": [ 4.81572505080084, 52.502184059525952 ] } },
{ "type": "Feature", "properties": { "naam": "Zwembad Zaangolf", "adres": "Wezelstraat 1b", "postcode": "1541 LZ", "plaats": "Koog aan de Zaan" }, "geometry": { "type": "Point", "coordinates": [ 4.802370255253685, 52.46633952147954 ] } },
{ "type": "Feature", "properties": { "naam": "Zwembad De Crommenije", "adres": "Rosariumpark 1", "postcode": "1561 TV", "plaats": "Krommenie" }, "geometry": { "type": "Point", "coordinates": [ 4.763257586345245, 52.505865268688574 ] } },
{ "type": "Feature", "properties": { "naam": "Recreatiebad Enkhuizerzand", "adres": "Kooizandweg 12", "postcode": "1601 LK", "plaats": "Enkhuizen" }, "geometry": { "type": "Point", "coordinates": [ 5.289642218560859, 52.713332749863639 ] } },
{ "type": "Feature", "properties": { "naam": "Het Hemmerven", "adres": "Hertog Willemweg 68", "postcode": "1607 CZ", "plaats": "Hem" }, "geometry": { "type": "Point", "coordinates": [ 5.183035813387876, 52.656283397645822 ] } },
{ "type": "Feature", "properties": { "naam": "zwembad de Kloet", "adres": "Raadhuislaan 8", "postcode": "1613 KR", "plaats": "Grootebroek" }, "geometry": { "type": "Point", "coordinates": [ 5.216024343758936, 52.693730186304933 ] } },
{ "type": "Feature", "properties": { "naam": "Het Streekbad", "adres": "sportlaan 10", "postcode": "1616 CN", "plaats": "Hoogkarspel" }, "geometry": { "type": "Point", "coordinates": [ 5.184736455328233, 52.69138044684955 ] } },
{ "type": "Feature", "properties": { "naam": "Zwembad de Weid", "adres": "Klamptweid 72", "postcode": "1619 DL", "plaats": "Andijk" }, "geometry": { "type": "Point", "coordinates": [ 5.213994937890237, 52.74703733298761 ] } },
{ "type": "Feature", "properties": { "naam": "De Waterhoorn", "adres": "Holenweg 14e", "postcode": "1624 PB", "plaats": "Hoorn" }, "geometry": { "type": "Point", "coordinates": [ 5.072475421396475, 52.652088015594856 ] } },
{ "type": "Feature", "properties": { "naam": "Sauna Suomi", "adres": "Holenweg 6", "postcode": "1624 PB", "plaats": "Hoorn" }, "geometry": { "type": "Point", "coordinates": [ 5.076524207861546, 52.64793764790209 ] } },
{ "type": "Feature", "properties": { "naam": "Het Koggenbad", "adres": "Dwingel 4a", "postcode": "1648 JM", "plaats": "De Goorn" }, "geometry": { "type": "Point", "coordinates": [ 4.946131263340482, 52.626639458074848 ] } },
{ "type": "Feature", "properties": { "naam": "Zwembad 't Ploetertje", "adres": "Molenstraat 40b", "postcode": "1654 KB", "plaats": "Benningbroek" }, "geometry": { "type": "Point", "coordinates": [ 5.014934023339121, 52.702455919983834 ] } },
{ "type": "Feature", "properties": { "naam": "Zwembad de Spetter", "adres": "Essenlaan 3", "postcode": "1657 AK", "plaats": "Abbekerk" }, "geometry": { "type": "Point", "coordinates": [ 5.024747309395675, 52.7323857264347 ] } },
{ "type": "Feature", "properties": { "naam": "Het Zwembad", "adres": "Tripkouw 36a", "postcode": "1679 GJ", "plaats": "Midwoud" }, "geometry": { "type": "Point", "coordinates": [ 5.076385945033891, 52.723976148358616 ] } },
{ "type": "Feature", "properties": { "naam": "Molenbad", "adres": "Oosteinderweg 85", "postcode": "1687 AB", "plaats": "Wognum" }, "geometry": { "type": "Point", "coordinates": [ 5.049696485417286, 52.685717951960449 ] } },
{ "type": "Feature", "properties": { "naam": "Zwembad De Wijzend", "adres": "Pastoor Nuijenstraat 57", "postcode": "1689 GM", "plaats": "Zwaag" }, "geometry": { "type": "Point", "coordinates": [ 5.078305187847384, 52.665763600544366 ] } },
{ "type": "Feature", "properties": { "naam": "De Zeehoek", "adres": "Dorpsstraat 179", "postcode": "1693 AE", "plaats": "Wervershoof" }, "geometry": { "type": "Point", "coordinates": [ 5.167716134107915, 52.732096873182712 ] } },
{ "type": "Feature", "properties": { "naam": "Sporthal Waardergolf", "adres": "Beukenlaan 1b", "postcode": "1701 DA", "plaats": "Heerhugowaard" }, "geometry": { "type": "Point", "coordinates": [ 4.848644790540185, 52.664909702330057 ] } },
{ "type": "Feature", "properties": { "naam": "Zwembad Buitenmeere", "adres": "Stationsweg 2", "postcode": "1713 HE", "plaats": "Obdam" }, "geometry": { "type": "Point", "coordinates": [ 4.909900044910543, 52.678642892899511 ] } },
{ "type": "Feature", "properties": { "naam": "´t Woudmeer", "adres": "De Weijver 4", "postcode": "1718 MS", "plaats": "Hoogwoud" }, "geometry": { "type": "Point", "coordinates": [ 4.935563807496287, 52.709415798909653 ] } },
{ "type": "Feature", "properties": { "naam": "Zwembad Duikerdel", "adres": "Oostelijke Randweg 15", "postcode": "1723 LH", "plaats": "Noord-Scharwoude" }, "geometry": { "type": "Point", "coordinates": [ 4.817987254810285, 52.700275101558617 ] } },
{ "type": "Feature", "properties": { "naam": "De Wirg", "adres": "Hartweg 33", "postcode": "1731 LT", "plaats": "Winkel" }, "geometry": { "type": "Point", "coordinates": [ 4.897043916445089, 52.761423738462838 ] } },
{ "type": "Feature", "properties": { "naam": "De Rijd", "adres": "Vijverweg 5", "postcode": "1733 AS", "plaats": "Nieuwe Niedorp" }, "geometry": { "type": "Point", "coordinates": [ 4.88279888635888, 52.733810335607345 ] } },
{ "type": "Feature", "properties": { "naam": "Natuurbad 't Petje", "adres": "Havenstraat 13", "postcode": "1736 KC", "plaats": "Zijdewind" }, "geometry": { "type": "Point", "coordinates": [ 4.84118720768535, 52.739297618847388 ] } },
{ "type": "Feature", "properties": { "naam": "Stichting Zwembad Waarland", "adres": "Jonkerstraat 23", "postcode": "1738 BP", "plaats": "Waarland" }, "geometry": { "type": "Point", "coordinates": [ 4.826695295618363, 52.723898460344309 ] } },
{ "type": "Feature", "properties": { "naam": "Sportfondsenbad de Wiel", "adres": "Wielewaal 8", "postcode": "1742 GC", "plaats": "Schagen" }, "geometry": { "type": "Point", "coordinates": [ 4.778881604891242, 52.782879091612479 ] } },
{ "type": "Feature", "properties": { "naam": "Zwembad de Veersloot", "adres": "Voorpolderweg 10", "postcode": "1746 BA", "plaats": "Dirkshorn" }, "geometry": { "type": "Point", "coordinates": [ 4.780114912634745, 52.750559277728527 ] } },
{ "type": "Feature", "properties": { "naam": "Geestmerend", "adres": "Oostwal 31", "postcode": "1749 XK", "plaats": "Warmenhuizen" }, "geometry": { "type": "Point", "coordinates": [ 4.745778814159162, 52.732620934035808 ] } },
{ "type": "Feature", "properties": { "naam": "Campanula", "adres": "Belkmerweg 62", "postcode": "1753 KK", "plaats": "Sint Maartensvlotbrug" }, "geometry": { "type": "Point", "coordinates": [ 4.695506553990186, 52.782046917214053 ] } },
{ "type": "Feature", "properties": { "naam": "Zwembad Sluispad", "adres": "Sportlaan 34", "postcode": "1757 PK", "plaats": "Oudesluis" }, "geometry": { "type": "Point", "coordinates": [ 4.806787933894181, 52.836822468104529 ] } },
{ "type": "Feature", "properties": { "naam": "Den Krieck", "adres": "Ceresplein 2", "postcode": "1764 HD", "plaats": "Breezand" }, "geometry": { "type": "Point", "coordinates": [ 4.805448221733677, 52.88733924488799 ] } },
{ "type": "Feature", "properties": { "naam": "Zwembad Wieringerwaard", "adres": "Populierenlaan 29", "postcode": "1766 JD", "plaats": "Wieringerwaard" }, "geometry": { "type": "Point", "coordinates": [ 4.866384923386655, 52.836890849725506 ] } },
{ "type": "Feature", "properties": { "naam": "Zwembad De Terp", "adres": "Badweg 1", "postcode": "1771 RV", "plaats": "Wieringerwerf" }, "geometry": { "type": "Point", "coordinates": [ 5.024922836226056, 52.843804197832469 ] } },
{ "type": "Feature", "properties": { "naam": "De Venne", "adres": "Hortensialaan 2", "postcode": "1777 XE", "plaats": "Hippolytushoef" }, "geometry": { "type": "Point", "coordinates": [ 4.957330585433359, 52.908768520562717 ] } },
{ "type": "Feature", "properties": { "naam": "Aquacenter Den Helder", "adres": "Het Nieuwland 2", "postcode": "1784 EA", "plaats": "Den Helder" }, "geometry": { "type": "Point", "coordinates": [ 4.75237837204693, 52.948627146164014 ] } },
{ "type": "Feature", "properties": { "naam": "Landal Resort Ooghduyne", "adres": "Ooghduyne 1", "postcode": "1787 PS", "plaats": "Julianadorp" }, "geometry": { "type": "Point", "coordinates": [ 4.72709930613131, 52.885781457852325 ] } },
{ "type": "Feature", "properties": { "naam": "Zwembad `Molenkoog`", "adres": "Slingerweg 40A", "postcode": "1791 AW", "plaats": "Den Burg" }, "geometry": { "type": "Point", "coordinates": [ 4.803271564065449, 53.048958783340574 ] } },
{ "type": "Feature", "properties": { "naam": "Zwemparadijs Calluna", "adres": "Schumakersweg 3", "postcode": "1796 NM", "plaats": "De Koog" }, "geometry": { "type": "Point", "coordinates": [ 4.769072225479791, 53.090195470216457 ] } },
{ "type": "Feature", "properties": { "naam": "De Hout", "adres": "Koning Willem-Alexanderlaan 3", "postcode": "1815 LV", "plaats": "Alkmaar" }, "geometry": { "type": "Point", "coordinates": [ 4.732454156936798, 52.622455193500898 ] } },
{ "type": "Feature", "properties": { "naam": "Hoornse Vaart", "adres": "Hertog Aalbrechtweg 4", "postcode": "1823 DL", "plaats": "Alkmaar" }, "geometry": { "type": "Point", "coordinates": [ 4.767614545119495, 52.64357501572438 ] } },
{ "type": "Feature", "properties": { "naam": "de Bever", "adres": "Kastanjelaan 2", "postcode": "1834 GL", "plaats": "Sint Pancras" }, "geometry": { "type": "Point", "coordinates": [ 4.786079055985454, 52.660098424444342 ] } },
{ "type": "Feature", "properties": { "naam": "Zwembad `Loos`", "adres": "de Omloop 9", "postcode": "1852 RJ", "plaats": "Heiloo" }, "geometry": { "type": "Point", "coordinates": [ 4.688459525817838, 52.608561890736212 ] } },
{ "type": "Feature", "properties": { "naam": "Zwembad het Baafje", "adres": "De Omloop 11", "postcode": "1852 RJ", "plaats": "Heiloo" }, "geometry": { "type": "Point", "coordinates": [ 4.687659385541126, 52.60874591873354 ] } },
{ "type": "Feature", "properties": { "naam": "Hippo`s De Beeck", "adres": "Molenweidtje 2", "postcode": "1862 BC", "plaats": "Bergen (NH)" }, "geometry": { "type": "Point", "coordinates": [ 4.710403264299037, 52.675437548535768 ] } },
{ "type": "Feature", "properties": { "naam": "zwembad de witte brug", "adres": "Jacob Rensdorpstraat 1", "postcode": "1901 RG", "plaats": "Castricum" }, "geometry": { "type": "Point", "coordinates": [ 4.669226396170295, 52.545849511273396 ] } },
{ "type": "Feature", "properties": { "naam": "de Zien", "adres": "Zienlaan 8", "postcode": "1911 TR", "plaats": "Uitgeest" }, "geometry": { "type": "Point", "coordinates": [ 4.70242994299756, 52.52374760362931 ] } },
{ "type": "Feature", "properties": { "naam": "Sportfondsenbad Beverwijk", "adres": "Kuikensweg 84", "postcode": "1945 EP", "plaats": "Beverwijk" }, "geometry": { "type": "Point", "coordinates": [ 4.656630478151713, 52.497230656545959 ] } },
{ "type": "Feature", "properties": { "naam": "Zwem- en Sportcentrum de Waterakkers", "adres": "Kerkweg 217", "postcode": "1964 KJ", "plaats": "Heemskerk" }, "geometry": { "type": "Point", "coordinates": [ 4.660336029227864, 52.513673812174758 ] } },
{ "type": "Feature", "properties": { "naam": "De Heerenduinen", "adres": "Heerenduinweg 6", "postcode": "1971 JE", "plaats": "IJmuiden" }, "geometry": { "type": "Point", "coordinates": [ 4.621792285397342, 52.453645237634461 ] } },
{ "type": "Feature", "properties": { "naam": "de Houtvaart", "adres": "Piet Heinstraat 12", "postcode": "2014 AR", "plaats": "Haarlem" }, "geometry": { "type": "Point", "coordinates": [ 4.616650394984147, 52.380567782960568 ] } },
{ "type": "Feature", "properties": { "naam": "De Planeet", "adres": "Planetenlaan 15", "postcode": "2024 EN", "plaats": "Haarlem" }, "geometry": { "type": "Point", "coordinates": [ 4.646543405821989, 52.408450115551162 ] } },
{ "type": "Feature", "properties": { "naam": "Boerhaavebad", "adres": "kadijklaan 1", "postcode": "2035 LD", "plaats": "Haarlem" }, "geometry": { "type": "Point", "coordinates": [ 4.649277532020539, 52.368704888524583 ] } },
{ "type": "Feature", "properties": { "naam": "Nieuw Unicum", "adres": "Zandvoortselaan 165", "postcode": "2042 XK", "plaats": "Zandvoort" }, "geometry": { "type": "Point", "coordinates": [ 4.557067758416794, 52.366215695488535 ] } },
{ "type": "Feature", "properties": { "naam": "Sportacademie Nauwelaerts de Agé", "adres": "Bloemendaalseweg 152", "postcode": "2051 GJ", "plaats": "Overveen" }, "geometry": { "type": "Point", "coordinates": [ 4.612391489230345, 52.39987294162016 ] } },
{ "type": "Feature", "properties": { "naam": "Sportcentrum Groenendaal", "adres": "Sportparklaan 16", "postcode": "2103 VT", "plaats": "Heemstede" }, "geometry": { "type": "Point", "coordinates": [ 4.62558731049824, 52.338256485864569 ] } },
{ "type": "Feature", "properties": { "naam": "Sportcomplex Koning Willem-Alexander", "adres": "Bennebroekerweg 800", "postcode": "2134 AB", "plaats": "Hoofddorp" }, "geometry": { "type": "Point", "coordinates": [ 4.629831015712812, 52.301945243080119 ] } },
{ "type": "Feature", "properties": { "naam": "SportPlaza de Estafette", "adres": "Helsinkilaan 1", "postcode": "2152 KG", "plaats": "Nieuw-Vennep" }, "geometry": { "type": "Point", "coordinates": [ 4.632352116114433, 52.27522190924077 ] } },
{ "type": "Feature", "properties": { "naam": "Sportcentrum De Waterkanten", "adres": "​Sportlaan 21", "postcode": "2161 VA", "plaats": "Lisse" }, "geometry": { "type": "Point", "coordinates": [ 4.565879344003998, 52.262986273598599 ] } },
{ "type": "Feature", "properties": { "naam": "Zwemcollege Lisse", "adres": "Meer en Duin 9", "postcode": "2163 HA", "plaats": "Lisse" }, "geometry": { "type": "Point", "coordinates": [ 4.567525362696655, 52.269055715081947 ] } },
{ "type": "Feature", "properties": { "naam": "Wasbeek", "adres": "Van Alkemadelaan 12", "postcode": "2171 DH", "plaats": "Sassenheim" }, "geometry": { "type": "Point", "coordinates": [ 4.518071936284052, 52.217685157698163 ] } },
{ "type": "Feature", "properties": { "naam": "Zwembad de Vosse", "adres": "Vosselaan 152", "postcode": "2181 CD", "plaats": "Hillegom" }, "geometry": { "type": "Point", "coordinates": [ 4.590219470350729, 52.295204512449708 ] } },
{ "type": "Feature", "properties": { "naam": "Zwembad BinnenZee", "adres": "Nieuwe Zeeweg 65", "postcode": "2201 TM", "plaats": "Noordwijk" }, "geometry": { "type": "Point", "coordinates": [ 4.438855562843864, 52.241892391508479 ] } },
{ "type": "Feature", "properties": { "naam": "De Schelft", "adres": "Maandagsewetering 202", "postcode": "2211 WV", "plaats": "Noordwijkerhout" }, "geometry": { "type": "Point", "coordinates": [ 4.501186986441184, 52.258024848774511 ] } },
{ "type": "Feature", "properties": { "naam": "Aquamar", "adres": "Piet Heinlaan 5", "postcode": "2224 SW", "plaats": "Katwijk" }, "geometry": { "type": "Point", "coordinates": [ 4.41298649672903, 52.201593677182899 ] } },
{ "type": "Feature", "properties": { "naam": "Tikibad", "adres": "Duinrell 1", "postcode": "2242 JP", "plaats": "Wassenaar" }, "geometry": { "type": "Point", "coordinates": [ 4.387316317066333, 52.14600993268035 ] } },
{ "type": "Feature", "properties": { "naam": "Sterrenbad", "adres": "Generaal Winkelmanlaan 2", "postcode": "2243 AZ", "plaats": "Wassenaar" }, "geometry": { "type": "Point", "coordinates": [ 4.389785965442026, 52.136179401241414 ] } },
{ "type": "Feature", "properties": { "naam": "Residences Groot Hoogelande", "adres": "Van Ommerenpark 350", "postcode": "2243 EZ", "plaats": "Wassenaar" }, "geometry": { "type": "Point", "coordinates": [ 4.384082406054283, 52.12607282542789 ] } },
{ "type": "Feature", "properties": { "naam": "Zwembad `Het Wedde`", "adres": "Richard Wagnerlaan 85", "postcode": "2253 CD", "plaats": "Voorschoten" }, "geometry": { "type": "Point", "coordinates": [ 4.451921841858502, 52.139133391143574 ] } },
{ "type": "Feature", "properties": { "naam": "De Fluit", "adres": "Fluitpolderplein 1", "postcode": "2262 ED", "plaats": "Leidschendam" }, "geometry": { "type": "Point", "coordinates": [ 4.394104803371865, 52.093699892463256 ] } },
{ "type": "Feature", "properties": { "naam": "Sportcentrum Forum Kwadraat", "adres": "de Vliegerlaan 2", "postcode": "2273 BV", "plaats": "Voorburg" }, "geometry": { "type": "Point", "coordinates": [ 4.361916251140479, 52.074404265894188 ] } },
{ "type": "Feature", "properties": { "naam": "Sport- en welzijnscentrum De Schilp", "adres": "schaapweg 4", "postcode": "2285 SP", "plaats": "Rijswijk" }, "geometry": { "type": "Point", "coordinates": [ 4.299174577141211, 52.03848871481631 ] } },
{ "type": "Feature", "properties": { "naam": "Zwembad de Waterman", "adres": "Dorpskade 57", "postcode": "2291 HP", "plaats": "Wateringen" }, "geometry": { "type": "Point", "coordinates": [ 4.278103097218222, 52.020044784118838 ] } },
{ "type": "Feature", "properties": { "naam": "De Zijl", "adres": "Paramaribostraat 66", "postcode": "2315 VK", "plaats": "Leiden" }, "geometry": { "type": "Point", "coordinates": [ 4.514279100132393, 52.167025956711512 ] } },
{ "type": "Feature", "properties": { "naam": "Het Vijf Mei Bad", "adres": "Boshuizerlaan 1", "postcode": "2321 SG", "plaats": "Leiden" }, "geometry": { "type": "Point", "coordinates": [ 4.476465715302848, 52.149770030455336 ] } },
{ "type": "Feature", "properties": { "naam": "openluchtzwembad De Vliet", "adres": "Voorschoterweg 6", "postcode": "2324 NE", "plaats": "Leiden" }, "geometry": { "type": "Point", "coordinates": [ 4.48239002683976, 52.140072161694192 ] } },
{ "type": "Feature", "properties": { "naam": "Poelmeer", "adres": "Lange Voort 273", "postcode": "2343 CE", "plaats": "Oegstgeest" }, "geometry": { "type": "Point", "coordinates": [ 4.486777258993182, 52.184023055314732 ] } },
{ "type": "Feature", "properties": { "naam": "De Does", "adres": "Amaliaplein 40", "postcode": "2351 PV", "plaats": "Leiderdorp" }, "geometry": { "type": "Point", "coordinates": [ 4.530560900233412, 52.151128027935137 ] } },
{ "type": "Feature", "properties": { "naam": "De Tweesprong", "adres": "Lucas van Leydenlaan 2", "postcode": "2371 RW", "plaats": "Roelofarendsveen" }, "geometry": { "type": "Point", "coordinates": [ 4.637967144477411, 52.20804443673012 ] } },
{ "type": "Feature", "properties": { "naam": "Zwembad Haasbroek", "adres": "Nieuweweg 4", "postcode": "2381 NW", "plaats": "Zoeterwoude" }, "geometry": { "type": "Point", "coordinates": [ 4.502470897537172, 52.117501741675675 ] } },
{ "type": "Feature", "properties": { "naam": "zwembad de hazelaar", "adres": "Sportparklaan 17", "postcode": "2391 AX", "plaats": "Hazerswoude-Dorp" }, "geometry": { "type": "Point", "coordinates": [ 4.593666957985874, 52.10278066061781 ] } },
{ "type": "Feature", "properties": { "naam": "Prins Willem-Alexanderbad", "adres": "Kerklaan 24", "postcode": "2396 VJ", "plaats": "Koudekerk aan den Rijn" }, "geometry": { "type": "Point", "coordinates": [ 4.602407239553513, 52.135359015051947 ] } },
{ "type": "Feature", "properties": { "naam": "Aquarijn", "adres": "Cantharel 10", "postcode": "2403 RA", "plaats": "Alphen aan den Rijn" }, "geometry": { "type": "Point", "coordinates": [ 4.679330796683678, 52.147943951051516 ] } },
{ "type": "Feature", "properties": { "naam": "zwem- en recreatiebad De Hoorn", "adres": "Van Foreestlaan 4", "postcode": "2404 HC", "plaats": "Alphen aan den Rijn" }, "geometry": { "type": "Point", "coordinates": [ 4.64753973327749, 52.139012306203732 ] } },
{ "type": "Feature", "properties": { "naam": "de Kuil", "adres": "Sportlaan 1", "postcode": "2411 XD", "plaats": "Bodegraven" }, "geometry": { "type": "Point", "coordinates": [ 4.747459707789599, 52.088831021686673 ] } },
{ "type": "Feature", "properties": { "naam": "De Wel", "adres": "Julianalaan 1a", "postcode": "2421 CV", "plaats": "Nieuwkoop" }, "geometry": { "type": "Point", "coordinates": [ 4.786041685098646, 52.154836674867852 ] } },
{ "type": "Feature", "properties": { "naam": "Zwembad Aarweide", "adres": "Schilkerweg 21", "postcode": "2441 EX", "plaats": "Nieuwveen" }, "geometry": { "type": "Point", "coordinates": [ 4.740046163709759, 52.184676708813406 ] } },
{ "type": "Feature", "properties": { "naam": "De kleine Oase", "adres": "Tuinderij 3", "postcode": "2451 GG", "plaats": "Leimuiden" }, "geometry": { "type": "Point", "coordinates": [ 4.675677269613945, 52.22223626249896 ] } },
{ "type": "Feature", "properties": { "naam": "Het Hofbad", "adres": "Ypenburgse Boslaan 30", "postcode": "2496 ZA", "plaats": "'s-Gravenhage" }, "geometry": { "type": "Point", "coordinates": [ 4.382778248843517, 52.052858369391117 ] } },
{ "type": "Feature", "properties": { "naam": "Zwembad de houtzagerij", "adres": "Hobbemastraat 93", "postcode": "2526 JG", "plaats": "'s-Gravenhage" }, "geometry": { "type": "Point", "coordinates": [ 4.304000356839699, 52.069769186796265 ] } },
{ "type": "Feature", "properties": { "naam": "Mulder Sport Den Haag", "adres": "Loevesteinlaan 885", "postcode": "2533 BW", "plaats": "'s-Gravenhage" }, "geometry": { "type": "Point", "coordinates": [ 4.288085662099708, 52.045486889309302 ] } },
{ "type": "Feature", "properties": { "naam": "zwembad Zuiderpark", "adres": "Mr. P. Droogleever Fortuynweg 59", "postcode": "2533 SP", "plaats": "'s-Gravenhage" }, "geometry": { "type": "Point", "coordinates": [ 4.287464770109406, 52.052959774025616 ] } },
{ "type": "Feature", "properties": { "naam": "Sport en Spel Paleis", "adres": "Jaap Edenweg 10", "postcode": "2544 NL", "plaats": "'s-Gravenhage" }, "geometry": { "type": "Point", "coordinates": [ 4.241227736352124, 52.038819928347209 ] } },
{ "type": "Feature", "properties": { "naam": "Therapeutisch Zwembad Escamphof", "adres": "Escamplaan 57", "postcode": "2547 GA", "plaats": "'s-Gravenhage" }, "geometry": { "type": "Point", "coordinates": [ 4.277322930089403, 52.065062439762706 ] } },
{ "type": "Feature", "properties": { "naam": "De Waterthor", "adres": "Thorbeckelaan 350", "postcode": "2564 BZ", "plaats": "'s-Gravenhage" }, "geometry": { "type": "Point", "coordinates": [ 4.248550343923846, 52.065542897989474 ] } },
{ "type": "Feature", "properties": { "naam": "Haags Hopje", "adres": "Scheveningseweg 108", "postcode": "2584 AD", "plaats": "'s-Gravenhage" }, "geometry": { "type": "Point", "coordinates": [ 4.279213709574517, 52.101197089725439 ] } },
{ "type": "Feature", "properties": { "naam": "De Blinkerd", "adres": "Seinpoststraat 150", "postcode": "2586 HC", "plaats": "'s-Gravenhage" }, "geometry": { "type": "Point", "coordinates": [ 4.283311610301692, 52.106071476136343 ] } },
{ "type": "Feature", "properties": { "naam": "Overbosch", "adres": "Vlaskamp 3", "postcode": "2592 AA", "plaats": "'s-Gravenhage" }, "geometry": { "type": "Point", "coordinates": [ 4.346209173006438, 52.08930459447874 ] } },
{ "type": "Feature", "properties": { "naam": "Zwem en Squash Centrum", "adres": "Clara van Sparwoudestraat 2", "postcode": "2612 SP", "plaats": "Delft" }, "geometry": { "type": "Point", "coordinates": [ 4.368326856805765, 52.013884996958822 ] } },
{ "type": "Feature", "properties": { "naam": "Sportfondsenbad Delft", "adres": "Weteringlaan 1", "postcode": "2613 WN", "plaats": "Delft" }, "geometry": { "type": "Point", "coordinates": [ 4.34535734998919, 52.011229996796573 ] } },
{ "type": "Feature", "properties": { "naam": "Kerkpolder", "adres": "Kerkpolderweg 1", "postcode": "2625 EB", "plaats": "Delft" }, "geometry": { "type": "Point", "coordinates": [ 4.331446884435912, 51.990791340463872 ] } },
{ "type": "Feature", "properties": { "naam": "Zwembad De Viergang", "adres": "Noordweg 79", "postcode": "2641 ZA", "plaats": "Pijnacker" }, "geometry": { "type": "Point", "coordinates": [ 4.422104139179138, 52.024971801138122 ] } },
{ "type": "Feature", "properties": { "naam": "De Windas", "adres": "Berkelseweg 95", "postcode": "2661 AK", "plaats": "Bergschenhoek" }, "geometry": { "type": "Point", "coordinates": [ 4.48617914050085, 51.994208214840334 ] } },
{ "type": "Feature", "properties": { "naam": "Zwembad De Hoge Bomen", "adres": "Hoogwerf 9", "postcode": "2671 MJ", "plaats": "Naaldwijk" }, "geometry": { "type": "Point", "coordinates": [ 4.209633746534618, 51.985347529248976 ] } },
{ "type": "Feature", "properties": { "naam": "Sportcentrum Vreeloo", "adres": "Veilingweg 16", "postcode": "2678 LN", "plaats": "De Lier" }, "geometry": { "type": "Point", "coordinates": [ 4.244169560856678, 51.981229612390258 ] } },
{ "type": "Feature", "properties": { "naam": "De Boetzelaer", "adres": "Madeweg 36", "postcode": "2681 PM", "plaats": "Monster" }, "geometry": { "type": "Point", "coordinates": [ 4.185765947544387, 52.031228736807506 ] } },
{ "type": "Feature", "properties": { "naam": "Maesemunde", "adres": "Koningin Julianaweg 158", "postcode": "2691 GH", "plaats": "'s-Gravenzande" }, "geometry": { "type": "Point", "coordinates": [ 4.170991671819338, 51.994069294291414 ] } },
{ "type": "Feature", "properties": { "naam": "De Driesprong", "adres": "Van Stolberglaan 1", "postcode": "2712 RB", "plaats": "Zoetermeer" }, "geometry": { "type": "Point", "coordinates": [ 4.48925154036635, 52.050913787562607 ] } },
{ "type": "Feature", "properties": { "naam": "De Veur", "adres": "Prismalaan 40", "postcode": "2718 CX", "plaats": "Zoetermeer" }, "geometry": { "type": "Point", "coordinates": [ 4.483661327669334, 52.038224113934973 ] } },
{ "type": "Feature", "properties": { "naam": "Poolschool H2O", "adres": "van der Hagenstraat 11", "postcode": "2722 NT", "plaats": "Zoetermeer" }, "geometry": { "type": "Point", "coordinates": [ 4.523272206299113, 52.048273936823229 ] } },
{ "type": "Feature", "properties": { "naam": "Gouwebad De Sniep", "adres": "Sniepweg 13D", "postcode": "2742 AR", "plaats": "Waddinxveen" }, "geometry": { "type": "Point", "coordinates": [ 4.643110860765686, 52.041829353171167 ] } },
{ "type": "Feature", "properties": { "naam": "De Koornmolen", "adres": "Tweemanspolder 6a", "postcode": "2761 ED", "plaats": "Zevenhuizen" }, "geometry": { "type": "Point", "coordinates": [ 4.565307476990084, 52.009034314453736 ] } },
{ "type": "Feature", "properties": { "naam": "Zwembad De Fuut", "adres": "Treebord 144", "postcode": "2811 EK", "plaats": "Reeuwijk" }, "geometry": { "type": "Point", "coordinates": [ 4.733711831634029, 52.052074323237754 ] } },
{ "type": "Feature", "properties": { "naam": "Ons Polderbad", "adres": "Kievitslaan 49", "postcode": "2821 XL", "plaats": "Stolwijk" }, "geometry": { "type": "Point", "coordinates": [ 4.77184801902874, 51.975914661089341 ] } },
{ "type": "Feature", "properties": { "naam": "Zwembad De Baan", "adres": "J. Huurmanlaan 14", "postcode": "2831 XT", "plaats": "Gouderak" }, "geometry": { "type": "Point", "coordinates": [ 4.678196982161088, 51.981877249853 ] } },
{ "type": "Feature", "properties": { "naam": "Sportfondsen De Zuidplas B.V", "adres": "Sportlaan 3", "postcode": "2841 EB", "plaats": "Moordrecht" }, "geometry": { "type": "Point", "coordinates": [ 4.658494255539586, 51.985037672558427 ] } },
{ "type": "Feature", "properties": { "naam": "Zwembad de Loete", "adres": "Bredeweg 2", "postcode": "2851 VA", "plaats": "Haastrecht" }, "geometry": { "type": "Point", "coordinates": [ 4.782586669362029, 51.994468430011167 ] } },
{ "type": "Feature", "properties": { "naam": "Zwembad de Hofstee", "adres": "Dijklaan 43", "postcode": "2861 DW", "plaats": "Bergambacht" }, "geometry": { "type": "Point", "coordinates": [ 4.784173609823235, 51.927324130240514 ] } },
{ "type": "Feature", "properties": { "naam": "Zwembad 't Wilgerak", "adres": "Lekdijk-Oost 1", "postcode": "2871 AD", "plaats": "Schoonhoven" }, "geometry": { "type": "Point", "coordinates": [ 4.860456898600765, 51.943564150019149 ] } },
{ "type": "Feature", "properties": { "naam": "David Lloyd Health & Fitness bv", "adres": "P C Boutenssingel 5", "postcode": "2902 BG", "plaats": "Capelle aan den IJssel" }, "geometry": { "type": "Point", "coordinates": [ 4.573788132329771, 51.922928660423977 ] } },
{ "type": "Feature", "properties": { "naam": "De Blinkert", "adres": "Valeriusrondeel 700", "postcode": "2902 CT", "plaats": "Capelle aan den IJssel" }, "geometry": { "type": "Point", "coordinates": [ 4.574202126422152, 51.922545013039581 ] } },
{ "type": "Feature", "properties": { "naam": "Polderbad", "adres": "Iersestraat 15", "postcode": "2912 TH", "plaats": "Nieuwerkerk aan den IJssel" }, "geometry": { "type": "Point", "coordinates": [ 4.601731415263449, 51.962731400224563 ] } },
{ "type": "Feature", "properties": { "naam": "Zwembad de Lansingh", "adres": "Van Ostadelaan 4", "postcode": "2923 AM", "plaats": "Krimpen aan den IJssel" }, "geometry": { "type": "Point", "coordinates": [ 4.593031243065213, 51.910853688289741 ] } },
{ "type": "Feature", "properties": { "naam": "Zwembad Schuagt", "adres": "Schuwacht 3c", "postcode": "2931 BA", "plaats": "Lekkerkerk" }, "geometry": { "type": "Point", "coordinates": [ 4.643945393203858, 51.893982523288443 ] } },
{ "type": "Feature", "properties": { "naam": "Zwembad Blokweer", "adres": "Sportlaan 3", "postcode": "2951 HL", "plaats": "Alblasserdam" }, "geometry": { "type": "Point", "coordinates": [ 4.663530254104063, 51.868640059483191 ] } },
{ "type": "Feature", "properties": { "naam": "Schoonenburg", "adres": "Vletstraat 2", "postcode": "2957 GH", "plaats": "Nieuw-Lekkerland" }, "geometry": { "type": "Point", "coordinates": [ 4.661926113900575, 51.883488341100779 ] } },
{ "type": "Feature", "properties": { "naam": "Openluchtzwembad De Dompelaar", "adres": "Sportlaan 3", "postcode": "2964 AN", "plaats": "Groot-Ammers" }, "geometry": { "type": "Point", "coordinates": [ 4.830807438291159, 51.934888621931407 ] } },
{ "type": "Feature", "properties": { "naam": "De Fakkel", "adres": "sportlaan 8", "postcode": "2982 SN", "plaats": "Ridderkerk" }, "geometry": { "type": "Point", "coordinates": [ 4.591270808343811, 51.878941046206094 ] } },
{ "type": "Feature", "properties": { "naam": "Inge de Bruijn Sportfondsenbad", "adres": "Hamburg 200", "postcode": "2993 LG", "plaats": "Barendrecht" }, "geometry": { "type": "Point", "coordinates": [ 4.510413497337538, 51.853124887335021 ] } },
{ "type": "Feature", "properties": { "naam": "Waal en Weidebad", "adres": "Molenweg 35b", "postcode": "2995 BK", "plaats": "Heerjansdam" }, "geometry": { "type": "Point", "coordinates": [ 4.56987361556858, 51.842389826612425 ] } },
{ "type": "Feature", "properties": { "naam": "Recreatiecentrum Oostervant", "adres": "Oostervantstraat 25", "postcode": "3021 PT", "plaats": "Rotterdam" }, "geometry": { "type": "Point", "coordinates": [ 4.46109045077939, 51.920171178129721 ] } },
{ "type": "Feature", "properties": { "naam": "Sportcentrum West", "adres": "Spaanseweg 2", "postcode": "3028 HW", "plaats": "Rotterdam" }, "geometry": { "type": "Point", "coordinates": [ 4.428693428547902, 51.917853016518279 ] } },
{ "type": "Feature", "properties": { "naam": "Vavn Maanenbad", "adres": "Van Maanenstraat 8", "postcode": "3038 CZ", "plaats": "Rotterdam" }, "geometry": { "type": "Point", "coordinates": [ 4.464448845264601, 51.932188578269376 ] } },
{ "type": "Feature", "properties": { "naam": "Zwembad Overschie", "adres": "Burgemeester Koningssingel 45", "postcode": "3042 NK", "plaats": "Rotterdam" }, "geometry": { "type": "Point", "coordinates": [ 4.430153630923499, 51.931878432170059 ] } },
{ "type": "Feature", "properties": { "naam": "Sportcentrum De Wilgenring", "adres": "Melanchtonweg 70", "postcode": "3052 KV", "plaats": "Rotterdam" }, "geometry": { "type": "Point", "coordinates": [ 4.471946334328381, 51.948876319865533 ] } },
{ "type": "Feature", "properties": { "naam": "Oostelijk zwembad", "adres": "Gerdesiaweg 480", "postcode": "3061 RA", "plaats": "Rotterdam" }, "geometry": { "type": "Point", "coordinates": [ 4.498365891960877, 51.925906124122889 ] } },
{ "type": "Feature", "properties": { "naam": "Het Alexanderhof", "adres": "Bramanteplein 2", "postcode": "3066 BH", "plaats": "Rotterdam" }, "geometry": { "type": "Point", "coordinates": [ 4.551445903694728, 51.936884114915983 ] } },
{ "type": "Feature", "properties": { "naam": "Recreatiecentrum De Zevenkampse ring", "adres": "Zevenkampse Ring 301", "postcode": "3068 HG", "plaats": "Rotterdam" }, "geometry": { "type": "Point", "coordinates": [ 4.572162474196227, 51.96446277208171 ] } },
{ "type": "Feature", "properties": { "naam": "Zwembad IJsselmonde", "adres": "Dwarsdijk 80", "postcode": "3078 JD", "plaats": "Rotterdam" }, "geometry": { "type": "Point", "coordinates": [ 4.54184058998325, 51.891683286833604 ] } },
{ "type": "Feature", "properties": { "naam": "Zwemcentrum Rotterdam", "adres": "Annie M.G. Schmidtplein 8", "postcode": "3083 NZ", "plaats": "Rotterdam" }, "geometry": { "type": "Point", "coordinates": [ 4.487657921693262, 51.887784306749026 ] } },
{ "type": "Feature", "properties": { "naam": "Zwembad Zuid", "adres": "Westfrankelandsedijk 3", "postcode": "3115 HG", "plaats": "Schiedam" }, "geometry": { "type": "Point", "coordinates": [ 4.395677428029997, 51.90618127656262 ] } },
{ "type": "Feature", "properties": { "naam": "Sport en Recreatiebad Groenoord", "adres": "Prinses Beatrixlaan 2", "postcode": "3121 JN", "plaats": "Schiedam" }, "geometry": { "type": "Point", "coordinates": [ 4.377788687521988, 51.928150548521039 ] } },
{ "type": "Feature", "properties": { "naam": "zwem- en recreatiebad De Kulk", "adres": "Westlandseweg 200", "postcode": "3131 HX", "plaats": "Vlaardingen" }, "geometry": { "type": "Point", "coordinates": [ 4.340009994566985, 51.916494060160908 ] } },
{ "type": "Feature", "properties": { "naam": "Sport- en recreatiebad Dol-fijn", "adres": "Sportlaan 8", "postcode": "3141 XN", "plaats": "Maassluis" }, "geometry": { "type": "Point", "coordinates": [ 4.270903821640473, 51.920667097483012 ] } },
{ "type": "Feature", "properties": { "naam": "Recreatiebad Hoek van Holland", "adres": "De Cordesstraat 160", "postcode": "3151 BN", "plaats": "Hoek van Holland" }, "geometry": { "type": "Point", "coordinates": [ 4.137510907294007, 51.975920058927308 ] } },
{ "type": "Feature", "properties": { "naam": "Vereniging Zwembad Rhoon", "adres": "Sportlaan 3", "postcode": "3161 TS", "plaats": "Rhoon" }, "geometry": { "type": "Point", "coordinates": [ 4.42597927062478, 51.853758428060956 ] } },
{ "type": "Feature", "properties": { "naam": "Zwem en recreatiebad Albrandswaard", "adres": "Albrandswaardsedijk 188", "postcode": "3172 XB", "plaats": "Poortugaal" }, "geometry": { "type": "Point", "coordinates": [ 4.421035336255124, 51.845367178844889 ] } },
{ "type": "Feature", "properties": { "naam": "Zwembad Sportcentrum De Rozenburcht", "adres": "Zuidzijde 35", "postcode": "3181 LR", "plaats": "Rozenburg" }, "geometry": { "type": "Point", "coordinates": [ 4.238497200211975, 51.901999218784376 ] } },
{ "type": "Feature", "properties": { "naam": "Zwembad Hoogvliet", "adres": "Middenbaan-Zuid 400", "postcode": "3191 AH", "plaats": "Rotterdam" }, "geometry": { "type": "Point", "coordinates": [ 4.357579062507765, 51.863398976657408 ] } },
{ "type": "Feature", "properties": { "naam": "Pernis", "adres": "Ring 220", "postcode": "3195 XR", "plaats": "Pernis Rotterdam" }, "geometry": { "type": "Point", "coordinates": [ 4.388003716588675, 51.885280079875734 ] } },
{ "type": "Feature", "properties": { "naam": "Falck Nutec", "adres": "Beerweg 101", "postcode": "3199 LM", "plaats": "Maasvlakte Rotterdam" }, "geometry": { "type": "Point", "coordinates": [ 4.074975920583249, 51.93622582754832 ] } },
{ "type": "Feature", "properties": { "naam": "Rivierabad", "adres": "Groene Kruisweg 21", "postcode": "3202 ST", "plaats": "Spijkenisse" }, "geometry": { "type": "Point", "coordinates": [ 4.322688632866247, 51.853649437193724 ] } },
{ "type": "Feature", "properties": { "naam": "Zwembad 't Molengors", "adres": "Molendijk 21a ", "postcode": "3214 VG", "plaats": "Zuidland" }, "geometry": { "type": "Point", "coordinates": [ 4.265594899860178, 51.821728020745574 ] } },
{ "type": "Feature", "properties": { "naam": "Het Bernissebad", "adres": "Meeldijk 7", "postcode": "3218 LH", "plaats": "Heenvliet" }, "geometry": { "type": "Point", "coordinates": [ 4.234808610988877, 51.86901813938956 ] } },
{ "type": "Feature", "properties": { "naam": "De Eendraght", "adres": "Sportlaan 2", "postcode": "3223 EV", "plaats": "Hellevoetsluis" }, "geometry": { "type": "Point", "coordinates": [ 4.138593305873894, 51.836023846847503 ] } },
{ "type": "Feature", "properties": { "naam": "Sportcomplex Dukdalf", "adres": "Reede 2a", "postcode": "3232 CV", "plaats": "Brielle" }, "geometry": { "type": "Point", "coordinates": [ 4.159236828884369, 51.895804093488131 ] } },
{ "type": "Feature", "properties": { "naam": "De Meander", "adres": "Vlinderslag 3", "postcode": "3233 GX", "plaats": "Oostvoorne" }, "geometry": { "type": "Point", "coordinates": [ 4.105373993326931, 51.908586769873772 ] } },
{ "type": "Feature", "properties": { "naam": "Recreatiecentrum de Staver", "adres": "Olympiaweg 32", "postcode": "3245 DL", "plaats": "Sommelsdijk" }, "geometry": { "type": "Point", "coordinates": [ 4.157137120139519, 51.750461883487922 ] } },
{ "type": "Feature", "properties": { "naam": "De Gooije", "adres": "Hondsgalgweg 1", "postcode": "3247 XW", "plaats": "Dirksland" }, "geometry": { "type": "Point", "coordinates": [ 4.096256961391572, 51.744674248853471 ] } },
{ "type": "Feature", "properties": { "naam": "'t Zuiderdiep", "adres": "Zuiderdiepstraatweg 4", "postcode": "3251 LW", "plaats": "Stellendam" }, "geometry": { "type": "Point", "coordinates": [ 4.031265995323078, 51.810714335252946 ] } },
{ "type": "Feature", "properties": { "naam": "Center Parc's Port Zelande", "adres": "Port Zelande 2", "postcode": "3253 MG", "plaats": "Ouddorp" }, "geometry": { "type": "Point", "coordinates": [ 3.859935471876865, 51.75618966887987 ] } },
{ "type": "Feature", "properties": { "naam": "De Boogerd", "adres": "Hortensiastraat 5", "postcode": "3261 BG", "plaats": "Oud-Beijerland" }, "geometry": { "type": "Point", "coordinates": [ 4.424229781426495, 51.82085373603168 ] } },
{ "type": "Feature", "properties": { "naam": "Sportfondsen-Cromstrijen de Waterstee", "adres": "Nassaustraat 2", "postcode": "3281 BV", "plaats": "Numansdorp" }, "geometry": { "type": "Point", "coordinates": [ 4.431639902065132, 51.727869694247786 ] } },
{ "type": "Feature", "properties": { "naam": "zwembad 't Centrum", "adres": "Kerkstraat 103", "postcode": "3286 AK", "plaats": "Klaaswaal" }, "geometry": { "type": "Point", "coordinates": [ 4.44399945203259, 51.76957972251558 ] } },
{ "type": "Feature", "properties": { "naam": "Apollo", "adres": "Sportlaan 4", "postcode": "3291 TN", "plaats": "Strijen" }, "geometry": { "type": "Point", "coordinates": [ 4.558330222256926, 51.74335122806616 ] } },
{ "type": "Feature", "properties": { "naam": "Zwembad De Wellen", "adres": "Schenkeltje 7b", "postcode": "3295 KK", "plaats": "'s-Gravendeel" }, "geometry": { "type": "Point", "coordinates": [ 4.618890072592905, 51.775377316533245 ] } },
{ "type": "Feature", "properties": { "naam": "Stichting het Wantijbad Dordrecht", "adres": "Badweg 12", "postcode": "3312 AB", "plaats": "Dordrecht" }, "geometry": { "type": "Point", "coordinates": [ 4.69412767240134, 51.815567000776888 ] } },
{ "type": "Feature", "properties": { "naam": "Sportboulevard Dordrecht", "adres": "Fanny Blankers-Koenweg 10", "postcode": "3318 AX", "plaats": "Dordrecht" }, "geometry": { "type": "Point", "coordinates": [ 4.678669404029395, 51.793308615101772 ] } },
{ "type": "Feature", "properties": { "naam": "Zwembad de Dubbel", "adres": "Gravensingel 102", "postcode": "3319 ET", "plaats": "Dordrecht" }, "geometry": { "type": "Point", "coordinates": [ 4.709349559414124, 51.791853956501797 ] } },
{ "type": "Feature", "properties": { "naam": "Sportfondsen De Hoge Devel", "adres": "Parklaan 3", "postcode": "3335 LM", "plaats": "Zwijndrecht" }, "geometry": { "type": "Point", "coordinates": [ 4.624033642084546, 51.819096133826172 ] } },
{ "type": "Feature", "properties": { "naam": "Zwembad de Louwert", "adres": "Hoge kade 70", "postcode": "3341 BE", "plaats": "Hendrik-Ido-Ambacht" }, "geometry": { "type": "Point", "coordinates": [ 4.639215688224522, 51.842915008113337 ] } },
{ "type": "Feature", "properties": { "naam": "Sportcentrum Papendrecht (Zwembad de Hooght)", "adres": "Burgemeester Keijzerweg 110", "postcode": "3353 CV", "plaats": "Papendrecht" }, "geometry": { "type": "Point", "coordinates": [ 4.697058212285379, 51.832554824384381 ] } },
{ "type": "Feature", "properties": { "naam": "Bronbad De Lockhorst", "adres": "Sportlaan 1", "postcode": "3364 AT", "plaats": "Sliedrecht" }, "geometry": { "type": "Point", "coordinates": [ 4.783023588353175, 51.827914238907816 ] } },
{ "type": "Feature", "properties": { "naam": "De Duikelaar", "adres": "Sluisweg 144", "postcode": "3371 EX", "plaats": "Hardinxveld-Giessendam" }, "geometry": { "type": "Point", "coordinates": [ 4.855454435962168, 51.829208476060231 ] } },
{ "type": "Feature", "properties": { "naam": "De Doetse Kom", "adres": "A.M.A. Van Langeraadweg 1", "postcode": "3381 LB", "plaats": "Giessenburg" }, "geometry": { "type": "Point", "coordinates": [ 4.899402931306524, 51.846001048601025 ] } },
{ "type": "Feature", "properties": { "naam": "Sportfondsenzwembad de Hooghe Waerd", "adres": "Frankrijkstraat 63", "postcode": "3402 BE", "plaats": "IJsselstein" }, "geometry": { "type": "Point", "coordinates": [ 5.055332342011153, 52.023938199684501 ] } },
{ "type": "Feature", "properties": { "naam": "Lobeke", "adres": "Churchill-laan 21", "postcode": "3411 CE", "plaats": "Lopik" }, "geometry": { "type": "Point", "coordinates": [ 4.953568568497367, 51.975025906990815 ] } },
{ "type": "Feature", "properties": { "naam": "Knopenbad", "adres": "Godfried van Rhenenlaan 55", "postcode": "3417 AM", "plaats": "Montfoort" }, "geometry": { "type": "Point", "coordinates": [ 4.951190788467873, 52.050473428463569 ] } },
{ "type": "Feature", "properties": { "naam": "t Statenbad", "adres": "Statenland 1", "postcode": "3421 GZ", "plaats": "Oudewater" }, "geometry": { "type": "Point", "coordinates": [ 4.87230672934079, 52.018705135812858 ] } },
{ "type": "Feature", "properties": { "naam": "Merwestein", "adres": "Merweplein 1", "postcode": "3432 GN", "plaats": "Nieuwegein" }, "geometry": { "type": "Point", "coordinates": [ 5.092528255566643, 52.026293165209488 ] } },
{ "type": "Feature", "properties": { "naam": "Optisport Woerden bv batensteinbad", "adres": "van helvoortlaan 40", "postcode": "3443 AP", "plaats": "Woerden" }, "geometry": { "type": "Point", "coordinates": [ 4.885939947219635, 52.093177449402859 ] } },
{ "type": "Feature", "properties": { "naam": "Zwembad Fletiomare", "adres": "Burgemeester Middelweerdplaats 1", "postcode": "3454 HG", "plaats": "De Meern" }, "geometry": { "type": "Point", "coordinates": [ 5.025147990940877, 52.090109906641693 ] } },
{ "type": "Feature", "properties": { "naam": "Recreatiecentrum H2o", "adres": "De Uithof 1", "postcode": "3481 WE", "plaats": "Harmelen" }, "geometry": { "type": "Point", "coordinates": [ 4.961895759397535, 52.083786744806638 ] } },
{ "type": "Feature", "properties": { "naam": "Sauna La Mar", "adres": "Jutfaseweg 223A", "postcode": "3522 HS", "plaats": "Utrecht" }, "geometry": { "type": "Point", "coordinates": [ 5.11384162425303, 52.065074413660568 ] } },
{ "type": "Feature", "properties": { "naam": "Aquacenter Den Hommel", "adres": "Kennedylaan 5", "postcode": "3533 KH", "plaats": "Utrecht" }, "geometry": { "type": "Point", "coordinates": [ 5.084261449630359, 52.080955976873028 ] } },
{ "type": "Feature", "properties": { "naam": "De Kwakel", "adres": "Paranádreef 10", "postcode": "3563 AX", "plaats": "Utrecht" }, "geometry": { "type": "Point", "coordinates": [ 5.10350336460841, 52.115500027785771 ] } },
{ "type": "Feature", "properties": { "naam": "Sporthal Bisonsport", "adres": "Bisonspoor 236", "postcode": "3605 JM", "plaats": "Maarssen" }, "geometry": { "type": "Point", "coordinates": [ 5.025845698540971, 52.135591673523678 ] } },
{ "type": "Feature", "properties": { "naam": "'t Kikkerfort", "adres": "schepersweg 14a", "postcode": "3621 JK", "plaats": "Breukelen" }, "geometry": { "type": "Point", "coordinates": [ 4.997963137765713, 52.179067878659474 ] } },
{ "type": "Feature", "properties": { "naam": "Zwem en recreatiepark De Koet", "adres": "Sportweg 3", "postcode": "3628 AZ", "plaats": "Kockengen" }, "geometry": { "type": "Point", "coordinates": [ 4.955487418906311, 52.147641855163926 ] } },
{ "type": "Feature", "properties": { "naam": "Zwembad Dijnselburg", "adres": "Badmeester Schenkpad 8", "postcode": "3705 GK", "plaats": "Zeist" }, "geometry": { "type": "Point", "coordinates": [ 5.240727768914086, 52.105881375305039 ] } },
{ "type": "Feature", "properties": { "naam": "Combibad Brandenburg", "adres": "Oude Brandenburgerweg 67", "postcode": "3721 DV", "plaats": "Bilthoven" }, "geometry": { "type": "Point", "coordinates": [ 5.189688994012892, 52.124546972566314 ] } },
{ "type": "Feature", "properties": { "naam": "Zwembad Blauwkapel", "adres": "Koningin Wilhelminaweg 517", "postcode": "3737 BG", "plaats": "Groenekan" }, "geometry": { "type": "Point", "coordinates": [ 5.142294709243725, 52.120826959900029 ] } },
{ "type": "Feature", "properties": { "naam": "De Trits", "adres": "Goeman Borgesiuslaan 2", "postcode": "3741 CR", "plaats": "Baarn" }, "geometry": { "type": "Point", "coordinates": [ 5.286801891698632, 52.219572836163373 ] } },
{ "type": "Feature", "properties": { "naam": "Bosbad De Vuursche", "adres": "Bosbadlaan 4", "postcode": "3744 KD", "plaats": "Baarn" }, "geometry": { "type": "Point", "coordinates": [ 5.256841109601789, 52.206457296972829 ] } },
{ "type": "Feature", "properties": { "naam": "Zwembad De Duker", "adres": "Bikkersweg 96", "postcode": "3752 WV", "plaats": "Bunschoten-Spakenburg" }, "geometry": { "type": "Point", "coordinates": [ 5.358461067976276, 52.245631619180337 ] } },
{ "type": "Feature", "properties": { "naam": "Optisportcentrum Soest", "adres": "Dalweg 181", "postcode": "3762 AW", "plaats": "Soest" }, "geometry": { "type": "Point", "coordinates": [ 5.2965770135843, 52.176429987576007 ] } },
{ "type": "Feature", "properties": { "naam": "Veluwehal", "adres": "Nieuwe Markt 6", "postcode": "3771 CB", "plaats": "Barneveld" }, "geometry": { "type": "Point", "coordinates": [ 5.585469650758816, 52.142584040585085 ] } },
{ "type": "Feature", "properties": { "naam": "Oosterbosbad", "adres": "Mr. Troelstralaan 20", "postcode": "3771 XL", "plaats": "Barneveld" }, "geometry": { "type": "Point", "coordinates": [ 5.579837047048187, 52.147419920315826 ] } },
{ "type": "Feature", "properties": { "naam": "De Berkenhorst", "adres": "Kerkendelweg 30", "postcode": "3775 KN", "plaats": "Kootwijk" }, "geometry": { "type": "Point", "coordinates": [ 5.794245686951657, 52.189594545345315 ] } },
{ "type": "Feature", "properties": { "naam": "De Heuvelrand", "adres": "Roelenengweg 41", "postcode": "3781 BA", "plaats": "Voorthuizen" }, "geometry": { "type": "Point", "coordinates": [ 5.617170862001941, 52.190899541156199 ] } },
{ "type": "Feature", "properties": { "naam": "Landgoed de IJsvogel", "adres": "Kieftveen 18", "postcode": "3781 PP", "plaats": "Voorthuizen" }, "geometry": { "type": "Point", "coordinates": [ 5.660593062835397, 52.19607380418347 ] } },
{ "type": "Feature", "properties": { "naam": "De Glind", "adres": "Ringlaan 10", "postcode": "3794 MV", "plaats": "De Glind" }, "geometry": { "type": "Point", "coordinates": [ 5.511632807932179, 52.114417971556215 ] } },
{ "type": "Feature", "properties": { "naam": "Liendert", "adres": "Parelhoenstraat 12", "postcode": "3815 AG", "plaats": "Amersfoort" }, "geometry": { "type": "Point", "coordinates": [ 5.397479197135204, 52.168186343845335 ] } },
{ "type": "Feature", "properties": { "naam": "Sportfondsenbad Amersfoort", "adres": "Bisschopsweg 175", "postcode": "3817 BT", "plaats": "Amersfoort" }, "geometry": { "type": "Point", "coordinates": [ 5.394246108716021, 52.151064596819722 ] } },
{ "type": "Feature", "properties": { "naam": "Bosbad Amsersfoort", "adres": "Barchman Wuytierslaan 232", "postcode": "3819 AC", "plaats": "Amersfoort" }, "geometry": { "type": "Point", "coordinates": [ 5.341887994102029, 52.157051125071327 ] } },
{ "type": "Feature", "properties": { "naam": "Hoogland", "adres": "Sportlaan 15", "postcode": "3828 AZ", "plaats": "Hoogland" }, "geometry": { "type": "Point", "coordinates": [ 5.37657332243441, 52.18433758883954 ] } },
{ "type": "Feature", "properties": { "naam": "sport en rekreatiebad octopus", "adres": "bavoortseweg 9", "postcode": "3833 BM", "plaats": "Leusden" }, "geometry": { "type": "Point", "coordinates": [ 5.412101634064865, 52.126102608808125 ] } },
{ "type": "Feature", "properties": { "naam": "Sportcentrum De Sypel", "adres": "Parkweg 4", "postcode": "3842 AD", "plaats": "Harderwijk" }, "geometry": { "type": "Point", "coordinates": [ 5.627083612779031, 52.342440757811552 ] } },
{ "type": "Feature", "properties": { "naam": "Sportcentrum Calluna", "adres": "Herderlaan 51", "postcode": "3851 BC", "plaats": "Ermelo" }, "geometry": { "type": "Point", "coordinates": [ 5.610325899932546, 52.289985443127186 ] } },
{ "type": "Feature", "properties": { "naam": "Bad Bloemendal", "adres": "Bloemendaalseweg 7", "postcode": "3862 RN", "plaats": "Nijkerk" }, "geometry": { "type": "Point", "coordinates": [ 5.503835696028189, 52.225651365619576 ] } },
{ "type": "Feature", "properties": { "naam": "zwembad De Slag", "adres": "Zuiderinslag 2", "postcode": "3871 MR", "plaats": "Hoevelaken" }, "geometry": { "type": "Point", "coordinates": [ 5.447925083598448, 52.17049896359255 ] } },
{ "type": "Feature", "properties": { "naam": "Bosbad Putten", "adres": "Zuiderveldweg 6", "postcode": "3881 LJ", "plaats": "Putten" }, "geometry": { "type": "Point", "coordinates": [ 5.611386167379736, 52.273544835447765 ] } },
{ "type": "Feature", "properties": { "naam": "Het Baken", "adres": "Horsterweg 25", "postcode": "3891 EV", "plaats": "Zeewolde" }, "geometry": { "type": "Point", "coordinates": [ 5.537463936912827, 52.328235379842518 ] } },
{ "type": "Feature", "properties": { "naam": "Zwemvereniging de Breekers", "adres": "Sportlaan 3", "postcode": "3905 AD", "plaats": "Veenendaal" }, "geometry": { "type": "Point", "coordinates": [ 5.54170928234976, 52.026398166992095 ] } },
{ "type": "Feature", "properties": { "naam": "Gastland", "adres": "Groeneweg 58", "postcode": "3911 PG", "plaats": "Rhenen" }, "geometry": { "type": "Point", "coordinates": [ 5.566367086408385, 51.961962912217928 ] } },
{ "type": "Feature", "properties": { "naam": "Zwembad 't Willaer", "adres": "De Breelaan 6", "postcode": "3925 HX", "plaats": "Scherpenzeel" }, "geometry": { "type": "Point", "coordinates": [ 5.485392724001716, 52.085519350650586 ] } },
{ "type": "Feature", "properties": { "naam": "Klein ruwinkel", "adres": "ruwinkelseweg 11", "postcode": "3925 MC", "plaats": "Scherpenzeel" }, "geometry": { "type": "Point", "coordinates": [ 5.513677994603486, 52.083964378746622 ] } },
{ "type": "Feature", "properties": { "naam": "Laco Zwembad Woestduin", "adres": "Mariniersweg 3a", "postcode": "3941 XK", "plaats": "Doorn" }, "geometry": { "type": "Point", "coordinates": [ 5.32884099662794, 52.042969573058755 ] } },
{ "type": "Feature", "properties": { "naam": "Bosbad Leersum", "adres": "Scherpenzeelseweg 45", "postcode": "3956 KB", "plaats": "Leersum" }, "geometry": { "type": "Point", "coordinates": [ 5.438335661522403, 52.017644288581451 ] } },
{ "type": "Feature", "properties": { "naam": "ZwembadWijk", "adres": "Karolingersweg 234", "postcode": "3962 AP", "plaats": "Wijk bij Duurstede" }, "geometry": { "type": "Point", "coordinates": [ 5.342140876450154, 51.978215878780681 ] } },
{ "type": "Feature", "properties": { "naam": "Zwembad de Zwoe", "adres": "Schellingerlaan 20", "postcode": "3971 BX", "plaats": "Driebergen-Rijsenburg" }, "geometry": { "type": "Point", "coordinates": [ 5.294065708217755, 52.062613174548311 ] } },
{ "type": "Feature", "properties": { "naam": "De Rumpst", "adres": "Rumpsterweg 15", "postcode": "3981 AK", "plaats": "Bunnik" }, "geometry": { "type": "Point", "coordinates": [ 5.215263924902028, 52.062272948654865 ] } },
{ "type": "Feature", "properties": { "naam": "Optisport Houten", "adres": "Hefbrug 3", "postcode": "3991 LB", "plaats": "Houten" }, "geometry": { "type": "Point", "coordinates": [ 5.158930550725158, 52.022620598331123 ] } },
{ "type": "Feature", "properties": { "naam": "ZwemschoolDe Startsprong", "adres": "Kruisboog 36", "postcode": "3994 AE", "plaats": "Houten" }, "geometry": { "type": "Point", "coordinates": [ 5.183505060655402, 52.029919081322809 ] } },
{ "type": "Feature", "properties": { "naam": "sportplaza Tiel", "adres": "Laan van Westroijen 99", "postcode": "4002 GW", "plaats": "Tiel" }, "geometry": { "type": "Point", "coordinates": [ 5.418031292855951, 51.895591570628547 ] } },
{ "type": "Feature", "properties": { "naam": "Instructiebad Maurik B.V.", "adres": "Raadhuisstraat 26", "postcode": "4021 EH", "plaats": "Maurik" }, "geometry": { "type": "Point", "coordinates": [ 5.422646439644253, 51.962894197518168 ] } },
{ "type": "Feature", "properties": { "naam": "Sportcentrum Helsdingen", "adres": "Westelijke Parallelweg 1", "postcode": "4133 NH", "plaats": "Vianen" }, "geometry": { "type": "Point", "coordinates": [ 5.082437668773479, 51.986710442530963 ] } },
{ "type": "Feature", "properties": { "naam": "Laco Leerdam BV", "adres": "Tiendweg 9", "postcode": "4142 EG", "plaats": "Leerdam" }, "geometry": { "type": "Point", "coordinates": [ 5.087736067121065, 51.890792135017477 ] } },
{ "type": "Feature", "properties": { "naam": "Laco Geldermalsen b.v.", "adres": "van Hogendorpstraat 17", "postcode": "4191 HE", "plaats": "Geldermalsen" }, "geometry": { "type": "Point", "coordinates": [ 5.29450373910869, 51.878876942548843 ] } },
{ "type": "Feature", "properties": { "naam": "Cariba-bad", "adres": "Bataafsekade 8", "postcode": "4204 AX", "plaats": "Gorinchem" }, "geometry": { "type": "Point", "coordinates": [ 4.945053632522046, 51.842092059889495 ] } },
{ "type": "Feature", "properties": { "naam": "De Hoge Kamp", "adres": "'t Hoog 14A", "postcode": "4221 LM", "plaats": "Hoogblokland" }, "geometry": { "type": "Point", "coordinates": [ 4.979096142588627, 51.874178128655714 ] } },
{ "type": "Feature", "properties": { "naam": "Zwembad Spettertuin", "adres": "Van Brederodestraat 20B", "postcode": "4225 RD", "plaats": "Noordeloos" }, "geometry": { "type": "Point", "coordinates": [ 4.939362610871679, 51.906580397710982 ] } },
{ "type": "Feature", "properties": { "naam": "De Tobbe", "adres": "Hoefpad 1", "postcode": "4241 DT", "plaats": "Arkel" }, "geometry": { "type": "Point", "coordinates": [ 4.992652180525202, 51.860058710021129 ] } },
{ "type": "Feature", "properties": { "naam": "Het Spetterbad", "adres": "Leerbroekseweg 5", "postcode": "4245 KR", "plaats": "Leerbroek" }, "geometry": { "type": "Point", "coordinates": [ 5.04624721976649, 51.910039988856916 ] } },
{ "type": "Feature", "properties": { "naam": "Zwembad Werkina", "adres": "Werkina 1", "postcode": "4251 HK", "plaats": "Werkendam" }, "geometry": { "type": "Point", "coordinates": [ 4.904554174307111, 51.805421300425252 ] } },
{ "type": "Feature", "properties": { "naam": "Zwembad Bijtelskil", "adres": "Griendweg 18", "postcode": "4254 CR", "plaats": "Sleeuwijk" }, "geometry": { "type": "Point", "coordinates": [ 4.956016931310268, 51.81553596273605 ] } },
{ "type": "Feature", "properties": { "naam": "Veldzicht", "adres": "Lange Pad 3", "postcode": "4265 TD", "plaats": "Genderen" }, "geometry": { "type": "Point", "coordinates": [ 5.086559467121386, 51.742857718239541 ] } },
{ "type": "Feature", "properties": { "naam": "De Kurenpolder Recreatie b.v.", "adres": "Kurenpolderweg 35", "postcode": "4273 LA", "plaats": "Hank" }, "geometry": { "type": "Point", "coordinates": [ 4.886588695656496, 51.727100558009056 ] } },
{ "type": "Feature", "properties": { "naam": "Zwembad de Kikvors", "adres": "Jagerspad 26", "postcode": "4283 GM", "plaats": "Giessen" }, "geometry": { "type": "Point", "coordinates": [ 5.02909636173789, 51.793445345176451 ] } },
{ "type": "Feature", "properties": { "naam": "Laco Sportcentrum Schouwen-Duiveland", "adres": "Lange Blokweg 27A", "postcode": "4301 NW", "plaats": "Zierikzee" }, "geometry": { "type": "Point", "coordinates": [ 3.919084143388688, 51.658453765655722 ] } },
{ "type": "Feature", "properties": { "naam": "Zwembad Dol-fijn", "adres": "Wethouder van Klinkenstraat 9", "postcode": "4306 CT", "plaats": "Nieuwerkerk" }, "geometry": { "type": "Point", "coordinates": [ 4.000864403681939, 51.650901800231097 ] } },
{ "type": "Feature", "properties": { "naam": "Vakantiepark Aquadelta", "adres": "Hageweg \"'t Centrum\" 269", "postcode": "4311 NS", "plaats": "Bruinisse" }, "geometry": { "type": "Point", "coordinates": [ 4.083815669754479, 51.667442809348557 ] } },
{ "type": "Feature", "properties": { "naam": "Gemeentelijk Zwembad Juliana", "adres": "Koningin Julianalaan 2", "postcode": "4341 EV", "plaats": "Arnemuiden" }, "geometry": { "type": "Point", "coordinates": [ 3.678536422539453, 51.502048506855701 ] } },
{ "type": "Feature", "properties": { "naam": "De Goudvijver", "adres": "Zandput 1", "postcode": "4353 BA", "plaats": "Serooskerke" }, "geometry": { "type": "Point", "coordinates": [ 3.593687476420492, 51.550322600059019 ] } },
{ "type": "Feature", "properties": { "naam": "De Schakel", "adres": "Houtenburgseweg 42", "postcode": "4374 NM", "plaats": "Zoutelande" }, "geometry": { "type": "Point", "coordinates": [ 3.476113726172864, 51.508189009846411 ] } },
{ "type": "Feature", "properties": { "naam": "Zwemschool Zeeland", "adres": "Stroomweg 22", "postcode": "4382 WX", "plaats": "Vlissingen" }, "geometry": { "type": "Point", "coordinates": [ 3.590888896417848, 51.456984961274692 ] } },
{ "type": "Feature", "properties": { "naam": "Vrijburgbad", "adres": "Sportweg 2", "postcode": "4387 PM", "plaats": "Vlissingen" }, "geometry": { "type": "Point", "coordinates": [ 3.595132113898885, 51.474590746549332 ] } },
{ "type": "Feature", "properties": { "naam": "St.Zwembad Den Inkel", "adres": "Blauwhoefseweg 10", "postcode": "4416 RC", "plaats": "Kruiningen" }, "geometry": { "type": "Point", "coordinates": [ 4.04411468283331, 51.435447459471568 ] } },
{ "type": "Feature", "properties": { "naam": "Optisport Kapelle", "adres": "Vroonlandseweg 45", "postcode": "4421 BW", "plaats": "Kapelle" }, "geometry": { "type": "Point", "coordinates": [ 3.968444440642708, 51.482602347507211 ] } },
{ "type": "Feature", "properties": { "naam": "Stelleplas", "adres": "Stelleweg 3", "postcode": "4451 RL", "plaats": "Heinkenszand" }, "geometry": { "type": "Point", "coordinates": [ 3.797246021239525, 51.482697456135384 ] } },
{ "type": "Feature", "properties": { "naam": "Sportpunt Zeeland", "adres": "Zwembadweg 3", "postcode": "4463 AB", "plaats": "Goes" }, "geometry": { "type": "Point", "coordinates": [ 3.89565945057397, 51.509914443650558 ] } },
{ "type": "Feature", "properties": { "naam": "Wissebad", "adres": "Julianastraat 24B", "postcode": "4491 GB", "plaats": "Wissenkerke" }, "geometry": { "type": "Point", "coordinates": [ 3.744504421757471, 51.583960889655295 ] } },
{ "type": "Feature", "properties": { "naam": "Roompot Zwemparadijs", "adres": "Sophiaweg 1", "postcode": "4493 PS", "plaats": "Kamperland" }, "geometry": { "type": "Point", "coordinates": [ 3.715798194375072, 51.588750341557443 ] } },
{ "type": "Feature", "properties": { "naam": "De Eenhoorn", "adres": "Baljuw Veltersweg 15", "postcode": "4501 AV", "plaats": "Oostburg" }, "geometry": { "type": "Point", "coordinates": [ 3.480813895082411, 51.323810491063057 ] } },
{ "type": "Feature", "properties": { "naam": "Park Zeebad", "adres": "Nieuwesluisweg 1", "postcode": "4511 RG", "plaats": "Breskens" }, "geometry": { "type": "Point", "coordinates": [ 3.543510677423818, 51.401591653099842 ] } },
{ "type": "Feature", "properties": { "naam": "Aqua Claire", "adres": "Smokkelweg 1", "postcode": "4515 LL", "plaats": "IJzendijke" }, "geometry": { "type": "Point", "coordinates": [ 3.684701470948085, 51.290262170350843 ] } },
{ "type": "Feature", "properties": { "naam": "Zwembad Aardenburg", "adres": "Herendreef 57", "postcode": "4527 AH", "plaats": "Aardenburg" }, "geometry": { "type": "Point", "coordinates": [ 3.433128759414647, 51.272481781541877 ] } },
{ "type": "Feature", "properties": { "naam": "Scheldorado", "adres": "Stuvesande 2", "postcode": "4532 MH", "plaats": "Terneuzen" }, "geometry": { "type": "Point", "coordinates": [ 3.839214592407461, 51.335410592572103 ] } },
{ "type": "Feature", "properties": { "naam": "Vliegende Vaart", "adres": "Vliegende Vaart 2", "postcode": "4537 DH", "plaats": "Terneuzen" }, "geometry": { "type": "Point", "coordinates": [ 3.843357530670336, 51.318132639526027 ] } },
{ "type": "Feature", "properties": { "naam": "Zwembad Zaamslag", "adres": "Sportlaan 1a", "postcode": "4543 AC", "plaats": "Zaamslag" }, "geometry": { "type": "Point", "coordinates": [ 3.910889533902234, 51.314917997293513 ] } },
{ "type": "Feature", "properties": { "naam": "t Sasse Zwembad", "adres": "Zwembadstraat 1", "postcode": "4551 CS", "plaats": "Sas van Gent" }, "geometry": { "type": "Point", "coordinates": [ 3.806324601342243, 51.232759248526321 ] } },
{ "type": "Feature", "properties": { "naam": "zwembad reynaertland", "adres": "kreekzoom 2", "postcode": "4561 GX", "plaats": "Hulst" }, "geometry": { "type": "Point", "coordinates": [ 4.05657166536854, 51.27177005004085 ] } },
{ "type": "Feature", "properties": { "naam": "t Plaatje", "adres": "Sportlaan 9", "postcode": "4571 CA", "plaats": "Axel" }, "geometry": { "type": "Point", "coordinates": [ 3.92170959146635, 51.261078772648318 ] } },
{ "type": "Feature", "properties": { "naam": "De Koewacht", "adres": "Berlaersstraat 1", "postcode": "4576 AD", "plaats": "Koewacht" }, "geometry": { "type": "Point", "coordinates": [ 3.96777315962659, 51.227856753844954 ] } },
{ "type": "Feature", "properties": { "naam": "zwembad De Honte", "adres": "Emmastraat 19", "postcode": "4587 BL", "plaats": "Kloosterzande" }, "geometry": { "type": "Point", "coordinates": [ 4.01836637880823, 51.369927253341785 ] } },
{ "type": "Feature", "properties": { "naam": "Zwembad De Schelp", "adres": "De Boulevard Noord 45", "postcode": "4617 HD", "plaats": "Bergen op Zoom" }, "geometry": { "type": "Point", "coordinates": [ 4.277189614016534, 51.485451870820654 ] } },
{ "type": "Feature", "properties": { "naam": "De Plantage", "adres": "Sportlaan 4", "postcode": "4631 CR", "plaats": "Hoogerheide" }, "geometry": { "type": "Point", "coordinates": [ 4.335394583249214, 51.419065314288247 ] } },
{ "type": "Feature", "properties": { "naam": "Familyland", "adres": "Groene Papegaai 19", "postcode": "4631 RX", "plaats": "Hoogerheide" }, "geometry": { "type": "Point", "coordinates": [ 4.346381893263195, 51.415774908454253 ] } },
{ "type": "Feature", "properties": { "naam": "Zwembad de Meermin", "adres": "Krommeweg 2c", "postcode": "4651 RN", "plaats": "Steenbergen" }, "geometry": { "type": "Point", "coordinates": [ 4.325535310652332, 51.582455321243778 ] } },
{ "type": "Feature", "properties": { "naam": "Sport- en Recreatiecentrum de Knotwilg", "adres": "Wipstraat 2", "postcode": "4651 XW", "plaats": "Steenbergen" }, "geometry": { "type": "Point", "coordinates": [ 4.325045763562748, 51.581794660380517 ] } },
{ "type": "Feature", "properties": { "naam": "zwembad de Melanen", "adres": "Langstraat 7", "postcode": "4661 SE", "plaats": "Halsteren" }, "geometry": { "type": "Point", "coordinates": [ 4.286781348335105, 51.521068562942212 ] } },
{ "type": "Feature", "properties": { "naam": "Zwembad aquadintel", "adres": "Dorus Rijkersstraat 2", "postcode": "4671 AA", "plaats": "Dinteloord" }, "geometry": { "type": "Point", "coordinates": [ 4.366735105876098, 51.630968167062314 ] } },
{ "type": "Feature", "properties": { "naam": "De Spetter", "adres": "Zoekweg 4", "postcode": "4691 HT", "plaats": "Tholen" }, "geometry": { "type": "Point", "coordinates": [ 4.213664141924588, 51.536268153247754 ] } },
{ "type": "Feature", "properties": { "naam": "Zwembad Haestinge", "adres": "Sportlaan 2", "postcode": "4695 BA", "plaats": "Sint-Maartensdijk" }, "geometry": { "type": "Point", "coordinates": [ 4.080497762690884, 51.546954674743773 ] } },
{ "type": "Feature", "properties": { "naam": "Zwembad Oud Kempen", "adres": "Buurtweg 3", "postcode": "4696 RV", "plaats": "Stavenisse" }, "geometry": { "type": "Point", "coordinates": [ 4.019758024124615, 51.590875460832365 ] } },
{ "type": "Feature", "properties": { "naam": "Zwembad de Stok", "adres": "De stok 1", "postcode": "4703 SZ", "plaats": "Roosendaal" }, "geometry": { "type": "Point", "coordinates": [ 4.43034048315433, 51.534108497209672 ] } },
{ "type": "Feature", "properties": { "naam": "Laco De Vijfsprong", "adres": "Kozijnenhoek 21", "postcode": "4715 RE", "plaats": "Rucphen" }, "geometry": { "type": "Point", "coordinates": [ 4.574589699840472, 51.538823314860196 ] } },
{ "type": "Feature", "properties": { "naam": "Laco De Baarlebossche", "adres": "De Baarlebossche 2", "postcode": "4731 GS", "plaats": "Oudenbosch" }, "geometry": { "type": "Point", "coordinates": [ 4.536685640269442, 51.590078631673173 ] } },
{ "type": "Feature", "properties": { "naam": "Splesj", "adres": "Oude Antwerpsepostbaan 81b", "postcode": "4741 SG", "plaats": "Hoeven" }, "geometry": { "type": "Point", "coordinates": [ 4.561928188398203, 51.57007922586341 ] } },
{ "type": "Feature", "properties": { "naam": "Blankershove", "adres": "Hellestraat 2", "postcode": "4751 CM", "plaats": "Oud Gastel" }, "geometry": { "type": "Point", "coordinates": [ 4.452673090518795, 51.588457621893511 ] } },
{ "type": "Feature", "properties": { "naam": "Zwembad De Bosselaar", "adres": "Vaandelweg 1", "postcode": "4761 BH", "plaats": "Zevenbergen" }, "geometry": { "type": "Point", "coordinates": [ 4.608626250189029, 51.641205254418587 ] } },
{ "type": "Feature", "properties": { "naam": "Sportpark de Knip", "adres": "Galgenweg 62", "postcode": "4761 KN", "plaats": "Zevenbergen" }, "geometry": { "type": "Point", "coordinates": [ 4.594000353808338, 51.652244291434812 ] } },
{ "type": "Feature", "properties": { "naam": "De Niervaert", "adres": "Molenvliet 7", "postcode": "4791 GB", "plaats": "Klundert" }, "geometry": { "type": "Point", "coordinates": [ 4.536917401948231, 51.670100109157715 ] } },
{ "type": "Feature", "properties": { "naam": "Het Volkerakkertje", "adres": "Prinses Margrietstraat 11", "postcode": "4793 CB", "plaats": "Fijnaart" }, "geometry": { "type": "Point", "coordinates": [ 4.462621167900951, 51.639172065663217 ] } },
{ "type": "Feature", "properties": { "naam": "Zwembad Sonsbeek", "adres": "Pieter-Christiaanstraat 2", "postcode": "4811 PS", "plaats": "Breda" }, "geometry": { "type": "Point", "coordinates": [ 4.767831152363182, 51.57993564480347 ] } },
{ "type": "Feature", "properties": { "naam": "ZwemPerfekt", "adres": "Hambroeklaan 1", "postcode": "4822 ZZ", "plaats": "Breda" }, "geometry": { "type": "Point", "coordinates": [ 4.723237523905897, 51.606468674553618 ] } },
{ "type": "Feature", "properties": { "naam": "Wisselaar", "adres": "Terheijdenseweg 494", "postcode": "4826 AB", "plaats": "Breda" }, "geometry": { "type": "Point", "coordinates": [ 4.774182950071614, 51.613838879390087 ] } },
{ "type": "Feature", "properties": { "naam": "Wolfslaar", "adres": "Wolfslaardreef 105", "postcode": "4834 SN", "plaats": "Breda" }, "geometry": { "type": "Point", "coordinates": [ 4.80313405094421, 51.559811620664753 ] } },
{ "type": "Feature", "properties": { "naam": "Het Puzzelbad", "adres": "Mr. Aalbersestraat 13", "postcode": "4844 AW", "plaats": "Terheijden" }, "geometry": { "type": "Point", "coordinates": [ 4.751419859902478, 51.641223073433522 ] } },
{ "type": "Feature", "properties": { "naam": "Het Weidebad", "adres": "Alphensebaan 17", "postcode": "4861 RA", "plaats": "Chaam" }, "geometry": { "type": "Point", "coordinates": [ 4.905983919109802, 51.495794877631631 ] } },
{ "type": "Feature", "properties": { "naam": "De Banakker", "adres": "Frederik van Eedenstraat 23", "postcode": "4873 AW", "plaats": "Etten-Leur" }, "geometry": { "type": "Point", "coordinates": [ 4.642530209527779, 51.567546197364415 ] } },
{ "type": "Feature", "properties": { "naam": "Stg Zwembad De Wildert", "adres": "Wildertsedijk 61", "postcode": "4881 ET", "plaats": "Zundert" }, "geometry": { "type": "Point", "coordinates": [ 4.663480281942086, 51.464808399185323 ] } },
{ "type": "Feature", "properties": { "naam": "De Waranda", "adres": "Wilhelminakanaal Zuid 66", "postcode": "4903 RA", "plaats": "Oosterhout" }, "geometry": { "type": "Point", "coordinates": [ 4.846171611725747, 51.634382578722516 ] } },
{ "type": "Feature", "properties": { "naam": "Zwemvoorziening Arkendonk", "adres": "Zwanendonk 42", "postcode": "4907 ZJ", "plaats": "Oosterhout" }, "geometry": { "type": "Point", "coordinates": [ 4.86582636088491, 51.658615405560695 ] } },
{ "type": "Feature", "properties": { "naam": "Zwemschool van Geloof", "adres": "Wilhelminastraat 35A", "postcode": "4921 KC", "plaats": "Made" }, "geometry": { "type": "Point", "coordinates": [ 4.793167825877185, 51.683356816344478 ] } },
{ "type": "Feature", "properties": { "naam": "De Randroet", "adres": "Stuivezandsestraat 50", "postcode": "4921 XR", "plaats": "Made" }, "geometry": { "type": "Point", "coordinates": [ 4.781807618345244, 51.666723446296295 ] } },
{ "type": "Feature", "properties": { "naam": "Zwembad de Schans", "adres": "Van der Waalstraat 2", "postcode": "4931 ER", "plaats": "Geertruidenberg" }, "geometry": { "type": "Point", "coordinates": [ 4.844406902253078, 51.699704176863108 ] } },
{ "type": "Feature", "properties": { "naam": "Zwembad De Ganzewiel", "adres": "Kerklaan 18", "postcode": "4941 TV", "plaats": "Raamsdonksveer" }, "geometry": { "type": "Point", "coordinates": [ 4.886614555523107, 51.693393337653951 ] } },
{ "type": "Feature", "properties": { "naam": "Recreatiebad Stappegoor", "adres": "Stappegoorweg 1", "postcode": "5022 DA", "plaats": "Tilburg" }, "geometry": { "type": "Point", "coordinates": [ 5.07669670076403, 51.54288986156724 ] } },
{ "type": "Feature", "properties": { "naam": "Amarant Dagcentra Daniël de Brouwerpark", "adres": "Bredaseweg 570", "postcode": "5036 NB", "plaats": "Tilburg" }, "geometry": { "type": "Point", "coordinates": [ 5.005352108329136, 51.562130107488798 ] } },
{ "type": "Feature", "properties": { "naam": "'t Hoogeveer", "adres": "Bredaseweg 375", "postcode": "5037 LD", "plaats": "Tilburg" }, "geometry": { "type": "Point", "coordinates": [ 5.05072761042233, 51.557478524046822 ] } },
{ "type": "Feature", "properties": { "naam": "Reeshof", "adres": "Heereveldendreef 10", "postcode": "5043 EX", "plaats": "Tilburg" }, "geometry": { "type": "Point", "coordinates": [ 5.006198631287885, 51.579840559710455 ] } },
{ "type": "Feature", "properties": { "naam": "Laco zwembad Waterspoor", "adres": "Fabriekstraat 14", "postcode": "5051 HP", "plaats": "Goirle" }, "geometry": { "type": "Point", "coordinates": [ 5.06085870380512, 51.516168312226974 ] } },
{ "type": "Feature", "properties": { "naam": "Thermen Goirle", "adres": "De Schietberg 1", "postcode": "5051 NZ", "plaats": "Goirle" }, "geometry": { "type": "Point", "coordinates": [ 5.047731134249326, 51.514629800016166 ] } },
{ "type": "Feature", "properties": { "naam": "De Leye", "adres": "Baerdijk 43", "postcode": "5061 GG", "plaats": "Oisterwijk" }, "geometry": { "type": "Point", "coordinates": [ 5.190080762006095, 51.577652306389027 ] } },
{ "type": "Feature", "properties": { "naam": "De groene Wellen", "adres": "Groenstraat 39", "postcode": "5071 EA", "plaats": "Udenhout" }, "geometry": { "type": "Point", "coordinates": [ 5.142393560375264, 51.616644697006571 ] } },
{ "type": "Feature", "properties": { "naam": "Laco sportcentrum De Hispohal", "adres": "J. F. Kennedylaan 1", "postcode": "5081 GK", "plaats": "Hilvarenbeek" }, "geometry": { "type": "Point", "coordinates": [ 5.133255200590769, 51.48996629707549 ] } },
{ "type": "Feature", "properties": { "naam": "Vakantiepark Beeksebergen", "adres": "Beekse Bergen 1", "postcode": "5081 NJ", "plaats": "Hilvarenbeek" }, "geometry": { "type": "Point", "coordinates": [ 5.124697603406591, 51.528266098630105 ] } },
{ "type": "Feature", "properties": { "naam": "Strumke", "adres": "Wellenseind 7", "postcode": "5094 EG", "plaats": "Lage Mierde" }, "geometry": { "type": "Point", "coordinates": [ 5.142109955784411, 51.420466587977579 ] } },
{ "type": "Feature", "properties": { "naam": "De Vennen", "adres": "Deken Batenburgstraat 2", "postcode": "5104 CR", "plaats": "Dongen" }, "geometry": { "type": "Point", "coordinates": [ 4.950373463660468, 51.619510173187976 ] } },
{ "type": "Feature", "properties": { "naam": "Sportcentrum Tropical", "adres": "Monseigneur Schaepmanstraat 32", "postcode": "5121 TM", "plaats": "Rijen" }, "geometry": { "type": "Point", "coordinates": [ 4.906101459025298, 51.592253582888276 ] } },
{ "type": "Feature", "properties": { "naam": "Saunafit", "adres": "Stationsstraat 77b", "postcode": "5141 GC", "plaats": "Waalwijk" }, "geometry": { "type": "Point", "coordinates": [ 5.067521192061082, 51.687339144974317 ] } },
{ "type": "Feature", "properties": { "naam": "Olympia Bad", "adres": "Drunenseweg 11", "postcode": "5143 NE", "plaats": "Waalwijk" }, "geometry": { "type": "Point", "coordinates": [ 5.095052256188613, 51.683366181883521 ] } },
{ "type": "Feature", "properties": { "naam": "Zweminstituut Drunen", "adres": "Industrieweg 11", "postcode": "5151 RV", "plaats": "Drunen" }, "geometry": { "type": "Point", "coordinates": [ 5.160239597333689, 51.691708121674452 ] } },
{ "type": "Feature", "properties": { "naam": "Zwembad Zidewinde", "adres": "Julianalaan 3a", "postcode": "5161 BA", "plaats": "Sprang-Capelle" }, "geometry": { "type": "Point", "coordinates": [ 5.009877617841015, 51.6752757771266 ] } },
{ "type": "Feature", "properties": { "naam": "Recreatiepark Droomgaard", "adres": "Van Haestrechtstraat 24", "postcode": "5171 RC", "plaats": "Kaatsheuvel" }, "geometry": { "type": "Point", "coordinates": [ 5.061707484280766, 51.661229321686676 ] } },
{ "type": "Feature", "properties": { "naam": "Duinlust", "adres": "Duinlaan 1", "postcode": "5171 RN", "plaats": "Kaatsheuvel" }, "geometry": { "type": "Point", "coordinates": [ 5.068163690321132, 51.657732552788481 ] } },
{ "type": "Feature", "properties": { "naam": "Sportiom", "adres": "Victorialaan 10", "postcode": "5213 JE", "plaats": "'s-Hertogenbosch" }, "geometry": { "type": "Point", "coordinates": [ 5.327792169808466, 51.700595627160872 ] } },
{ "type": "Feature", "properties": { "naam": "Combibad Kwekkelstijn bv", "adres": "sportlaan 16", "postcode": "5242 CR", "plaats": "Rosmalen" }, "geometry": { "type": "Point", "coordinates": [ 5.368015821126523, 51.712042410964273 ] } },
{ "type": "Feature", "properties": { "naam": "Heygrave", "adres": "Burgemeester Zwaansweg 4", "postcode": "5251 CJ", "plaats": "Vlijmen" }, "geometry": { "type": "Point", "coordinates": [ 5.207972373028102, 51.693849202972771 ] } },
{ "type": "Feature", "properties": { "naam": "Ouwerkerk", "adres": "Maarten Trompstraat 32", "postcode": "5262 VM", "plaats": "Vught" }, "geometry": { "type": "Point", "coordinates": [ 5.290869850289681, 51.649192798054635 ] } },
{ "type": "Feature", "properties": { "naam": "Zegenwerp", "adres": "Esscheweg 5", "postcode": "5271 NB", "plaats": "Sint-Michielsgestel" }, "geometry": { "type": "Point", "coordinates": [ 5.344950646328528, 51.635795869777276 ] } },
{ "type": "Feature", "properties": { "naam": "Het Dommelbad", "adres": "schijndelseweg 1a", "postcode": "5283 AB", "plaats": "Boxtel" }, "geometry": { "type": "Point", "coordinates": [ 5.333200401417839, 51.592753832973784 ] } },
{ "type": "Feature", "properties": { "naam": "Akwamarijn", "adres": "Thorbeckestraat 55", "postcode": "5301 NE", "plaats": "Zaltbommel" }, "geometry": { "type": "Point", "coordinates": [ 5.250509828493112, 51.803754339004307 ] } },
{ "type": "Feature", "properties": { "naam": "Multi Funtioneel Centrum (MFC) De Kreek", "adres": "Wilgenpas 2", "postcode": "5331 KC", "plaats": "Kerkdriel" }, "geometry": { "type": "Point", "coordinates": [ 5.33402488700281, 51.776236413372807 ] } },
{ "type": "Feature", "properties": { "naam": "golfbad oss", "adres": "euterpelaan 1", "postcode": "5344 CA", "plaats": "Oss" }, "geometry": { "type": "Point", "coordinates": [ 5.519651342603262, 51.761018920023268 ] } },
{ "type": "Feature", "properties": { "naam": "Van der Heijden", "adres": "Brederostraat 1", "postcode": "5344 VA", "plaats": "Oss" }, "geometry": { "type": "Point", "coordinates": [ 5.510333226040793, 51.754116981255414 ] } },
{ "type": "Feature", "properties": { "naam": "Laco Op den Ham", "adres": "Stoofweg 3", "postcode": "5361 HZ", "plaats": "Grave" }, "geometry": { "type": "Point", "coordinates": [ 5.740192075183196, 51.75098026465075 ] } },
{ "type": "Feature", "properties": { "naam": "Zwembad 't Kuipke", "adres": "John F. Kennedystraat 58", "postcode": "5384 GE", "plaats": "Heesch" }, "geometry": { "type": "Point", "coordinates": [ 5.523211829515899, 51.731281041995523 ] } },
{ "type": "Feature", "properties": { "naam": "Drie Essen (Delfino)", "adres": "Pastoor Spieringsstraat 10A", "postcode": "5401 GT", "plaats": "Uden" }, "geometry": { "type": "Point", "coordinates": [ 5.613990028778661, 51.659906383462271 ] } },
{ "type": "Feature", "properties": { "naam": "Zeesterbad", "adres": "Hockeyweg 6", "postcode": "5405 NC", "plaats": "Uden" }, "geometry": { "type": "Point", "coordinates": [ 5.637639208022355, 51.65033925568212 ] } },
{ "type": "Feature", "properties": { "naam": "Fitland Gemert BV", "adres": "Vicaris van der Asdonckstraat 55", "postcode": "5421 VB", "plaats": "Gemert" }, "geometry": { "type": "Point", "coordinates": [ 5.693751859031227, 51.559348685923617 ] } },
{ "type": "Feature", "properties": { "naam": "Laco sportcentrum De Kwel", "adres": "St Annastraat 1", "postcode": "5431 BE", "plaats": "Cuijk" }, "geometry": { "type": "Point", "coordinates": [ 5.878015455230774, 51.732363004519279 ] } },
{ "type": "Feature", "properties": { "naam": "Laco sportcentrum De Beemd", "adres": "Vlas en Graan 101", "postcode": "5461 KL", "plaats": "Veghel" }, "geometry": { "type": "Point", "coordinates": [ 5.544621130673626, 51.615113516553926 ] } },
{ "type": "Feature", "properties": { "naam": "Laco Buitenbad Prins Willem Alexander", "adres": "Prins Willem Alexander Sportpark 22", "postcode": "5461 XL", "plaats": "Veghel" }, "geometry": { "type": "Point", "coordinates": [ 5.537652811249749, 51.629756079000678 ] } },
{ "type": "Feature", "properties": { "naam": "AquaRest", "adres": "Meerstraat 30B", "postcode": "5473 VX", "plaats": "Heeswijk-Dinther" }, "geometry": { "type": "Point", "coordinates": [ 5.474203744568835, 51.666475795350728 ] } },
{ "type": "Feature", "properties": { "naam": "Zwembad de Molen Hey", "adres": "Avantilaan 1", "postcode": "5482 RE", "plaats": "Schijndel" }, "geometry": { "type": "Point", "coordinates": [ 5.42342831721531, 51.63481802911042 ] } },
{ "type": "Feature", "properties": { "naam": "zwembadde Neul", "adres": "Dommelstraat 20", "postcode": "5492 DX", "plaats": "Sint-Oedenrode" }, "geometry": { "type": "Point", "coordinates": [ 5.45878078420216, 51.566155976491117 ] } },
{ "type": "Feature", "properties": { "naam": "Zwembad den Ekkerman", "adres": "Wal 152", "postcode": "5501 HP", "plaats": "Veldhoven" }, "geometry": { "type": "Point", "coordinates": [ 5.403216103444289, 51.420039513497507 ] } },
{ "type": "Feature", "properties": { "naam": "ZV De Aalscholver", "adres": "Postakkers 8", "postcode": "5521 AT", "plaats": "Eersel" }, "geometry": { "type": "Point", "coordinates": [ 5.310174753198834, 51.358856151572354 ] } },
{ "type": "Feature", "properties": { "naam": "Zwembad de Smagtenbocht", "adres": "Bossingel 3", "postcode": "5531 NH", "plaats": "Bladel" }, "geometry": { "type": "Point", "coordinates": [ 5.218125521956486, 51.360412996569707 ] } },
{ "type": "Feature", "properties": { "naam": "De Wedert", "adres": "Past. Heerkensdreef 29", "postcode": "5552 BG", "plaats": "Valkenswaard" }, "geometry": { "type": "Point", "coordinates": [ 5.454588279610338, 51.365468630053257 ] } },
{ "type": "Feature", "properties": { "naam": "De zwartebergen", "adres": "Zwarte Bergendreef 1", "postcode": "5575 XP", "plaats": "Luyksgestel" }, "geometry": { "type": "Point", "coordinates": [ 5.29499181088749, 51.291312769603643 ] } },
{ "type": "Feature", "properties": { "naam": "dolfijn", "adres": "van gentstraat 9", "postcode": "5612 KM", "plaats": "Eindhoven" }, "geometry": { "type": "Point", "coordinates": [ 5.471443405277341, 51.449510949628831 ] } },
{ "type": "Feature", "properties": { "naam": "ir. Ottenbad", "adres": "Vijfkamplaan 12", "postcode": "5624 EB", "plaats": "Eindhoven" }, "geometry": { "type": "Point", "coordinates": [ 5.457631784537552, 51.476468143226086 ] } },
{ "type": "Feature", "properties": { "naam": "Toucan Sport & Wellness Center", "adres": "Aalsterweg 322", "postcode": "5644 RL", "plaats": "Eindhoven" }, "geometry": { "type": "Point", "coordinates": [ 5.479541821242579, 51.406646747763759 ] } },
{ "type": "Feature", "properties": { "naam": "Nationaal zwemcentrum de Tongelreep", "adres": "Antoon coolenlaan 1", "postcode": "5644 RX", "plaats": "Eindhoven" }, "geometry": { "type": "Point", "coordinates": [ 5.478153249854297, 51.416607316629154 ] } },
{ "type": "Feature", "properties": { "naam": "Laco De Smelen", "adres": "Zwembadweg 13", "postcode": "5663 PL", "plaats": "Geldrop" }, "geometry": { "type": "Point", "coordinates": [ 5.552603369418821, 51.408813072394352 ] } },
{ "type": "Feature", "properties": { "naam": "Dolfijn", "adres": "sportlaan 7", "postcode": "5683 CS", "plaats": "Best" }, "geometry": { "type": "Point", "coordinates": [ 5.400004403188346, 51.500821038162925 ] } },
{ "type": "Feature", "properties": { "naam": "ZIB Zwemcentrum Best", "adres": "Jacob van Wassenaerstr 70", "postcode": "5684 CS", "plaats": "Best" }, "geometry": { "type": "Point", "coordinates": [ 5.382563512997074, 51.502871082039007 ] } },
{ "type": "Feature", "properties": { "naam": "Laco Sportcentrum Kroonenburg", "adres": "De Kemmer 1", "postcode": "5688 GK", "plaats": "Oirschot" }, "geometry": { "type": "Point", "coordinates": [ 5.315156860922216, 51.495505322537205 ] } },
{ "type": "Feature", "properties": { "naam": "Thermae Son", "adres": "Thermaelaan 2", "postcode": "5691 PM", "plaats": "Son en Breugel" }, "geometry": { "type": "Point", "coordinates": [ 5.494759808095612, 51.521320099279848 ] } },
{ "type": "Feature", "properties": { "naam": "Zwembad de Diepsteeckel", "adres": "Witvrouwenbergweg 18", "postcode": "5711 CN", "plaats": "Someren" }, "geometry": { "type": "Point", "coordinates": [ 5.721282472283965, 51.391013360454181 ] } },
{ "type": "Feature", "properties": { "naam": "Zwemschool 't Golfje", "adres": "Kerkstraat 23", "postcode": "5711 GT", "plaats": "Someren" }, "geometry": { "type": "Point", "coordinates": [ 5.715689595015037, 51.380485438274277 ] } },
{ "type": "Feature", "properties": { "naam": "Instructiebad Beatrixbad", "adres": "Vaarselstraat 3", "postcode": "5711 RB", "plaats": "Someren" }, "geometry": { "type": "Point", "coordinates": [ 5.704233537861264, 51.387609313170287 ] } },
{ "type": "Feature", "properties": { "naam": "De Schop", "adres": "Lienderweg 66", "postcode": "5721 CN", "plaats": "Asten" }, "geometry": { "type": "Point", "coordinates": [ 5.754383483022727, 51.405125007889616 ] } },
{ "type": "Feature", "properties": { "naam": "Zwemrecreatie Drie Essen", "adres": "Parklaan 4", "postcode": "5741 EZ", "plaats": "Beek en Donk" }, "geometry": { "type": "Point", "coordinates": [ 5.636373303341252, 51.533211373569316 ] } },
{ "type": "Feature", "properties": { "naam": "Laco Deurne BV", "adres": "Molenstraat 50a", "postcode": "5751 LE", "plaats": "Deurne" }, "geometry": { "type": "Point", "coordinates": [ 5.801697623365619, 51.462260824020547 ] } },
{ "type": "Feature", "properties": { "naam": "De Sprank", "adres": "Kempweg 70", "postcode": "5801 VV", "plaats": "Venray" }, "geometry": { "type": "Point", "coordinates": [ 5.965435697959093, 51.523038818741504 ] } },
{ "type": "Feature", "properties": { "naam": "Optisport Boxmeer", "adres": "Koorstraat 1", "postcode": "5831 GH", "plaats": "Boxmeer" }, "geometry": { "type": "Point", "coordinates": [ 5.947197731244519, 51.647262522852621 ] } },
{ "type": "Feature", "properties": { "naam": "De Broekberg", "adres": "Sportlaan 2", "postcode": "5861 CX", "plaats": "Wanssum" }, "geometry": { "type": "Point", "coordinates": [ 6.075246178114484, 51.533320000825299 ] } },
{ "type": "Feature", "properties": { "naam": "De Wisselslag", "adres": "Drie Decembersingel 52", "postcode": "5921 AC", "plaats": "Venlo" }, "geometry": { "type": "Point", "coordinates": [ 6.137334098461566, 51.367261527788969 ] } },
{ "type": "Feature", "properties": { "naam": "Speelpark Klein Zwitserland", "adres": "Verlengde Trappistenweg 35", "postcode": "5932 ND", "plaats": "Tegelen" }, "geometry": { "type": "Point", "coordinates": [ 6.163775804594448, 51.338817645852664 ] } },
{ "type": "Feature", "properties": { "naam": "Rodan Nieuwsteyl", "adres": "Koehoornstraat 72", "postcode": "5935 SV", "plaats": "Steyl" }, "geometry": { "type": "Point", "coordinates": [ 6.130613605488612, 51.334638426013662 ] } },
{ "type": "Feature", "properties": { "naam": "Zwembad de Bercken", "adres": "Bösdaellaan 2", "postcode": "5953 BW", "plaats": "Reuver" }, "geometry": { "type": "Point", "coordinates": [ 6.074852656373329, 51.289065198374388 ] } },
{ "type": "Feature", "properties": { "naam": "De Berkel", "adres": "Kranestraat 14", "postcode": "5961 GZ", "plaats": "Horst" }, "geometry": { "type": "Point", "coordinates": [ 6.050570739544335, 51.449326635398137 ] } },
{ "type": "Feature", "properties": { "naam": "De Meander", "adres": "St. Maartensweg 16", "postcode": "5964 NH", "plaats": "Meterik" }, "geometry": { "type": "Point", "coordinates": [ 6.010746926866762, 51.466939827751361 ] } },
{ "type": "Feature", "properties": { "naam": "Waterloat", "adres": "Wilhelminastraat 42", "postcode": "5981 XW", "plaats": "Panningen" }, "geometry": { "type": "Point", "coordinates": [ 5.980910706608695, 51.332073169037812 ] } },
{ "type": "Feature", "properties": { "naam": "De Berckt", "adres": "Napoleonsbaan Noord 4", "postcode": "5991 NV", "plaats": "Baarlo" }, "geometry": { "type": "Point", "coordinates": [ 6.104470319476484, 51.345760019201727 ] } },
{ "type": "Feature", "properties": { "naam": "Het Meulepaedje", "adres": "Keverbergstraat 26", "postcode": "5995 XW", "plaats": "Kessel" }, "geometry": { "type": "Point", "coordinates": [ 6.056700443100796, 51.292757667545601 ] } },
{ "type": "Feature", "properties": { "naam": "De IJzeren Man", "adres": "Geurtsvenweg 1", "postcode": "6006 SN", "plaats": "Weert" }, "geometry": { "type": "Point", "coordinates": [ 5.670691763197505, 51.242473007338731 ] } },
{ "type": "Feature", "properties": { "naam": "Zuiderpoortbad", "adres": "Sportlaan 7", "postcode": "6021 KA", "plaats": "Budel" }, "geometry": { "type": "Point", "coordinates": [ 5.569575872595844, 51.261048710566577 ] } },
{ "type": "Feature", "properties": { "naam": "Nederweert", "adres": "Winnerstraat 1", "postcode": "6031 NK", "plaats": "Nederweert" }, "geometry": { "type": "Point", "coordinates": [ 5.758407295182513, 51.288545475579099 ] } },
{ "type": "Feature", "properties": { "naam": "De Roerdomp", "adres": "Achilleslaan 2C", "postcode": "6042 JV", "plaats": "Roermond" }, "geometry": { "type": "Point", "coordinates": [ 6.011298654566711, 51.193088451429077 ] } },
{ "type": "Feature", "properties": { "naam": "Eurobad", "adres": "Europlein 5", "postcode": "6051 HM", "plaats": "Maasbracht" }, "geometry": { "type": "Point", "coordinates": [ 5.896015034698827, 51.147051881267451 ] } },
{ "type": "Feature", "properties": { "naam": "Zwembad Ploensjbad", "adres": "Angsterweg 8", "postcode": "6063 AV", "plaats": "Vlodrop" }, "geometry": { "type": "Point", "coordinates": [ 6.071283541521972, 51.12985438709434 ] } },
{ "type": "Feature", "properties": { "naam": "Het Sweeltje", "adres": "Waarderweg 18", "postcode": "6065 EX", "plaats": "Montfort" }, "geometry": { "type": "Point", "coordinates": [ 5.953794119052563, 51.13198845863424 ] } },
{ "type": "Feature", "properties": { "naam": "Weerderhof", "adres": "Oeveren 19", "postcode": "6067 BH", "plaats": "Linne" }, "geometry": { "type": "Point", "coordinates": [ 5.934701019043784, 51.157833440988128 ] } },
{ "type": "Feature", "properties": { "naam": "De Bosberg", "adres": "Bosstraat 116", "postcode": "6071 PZ", "plaats": "Swalmen" }, "geometry": { "type": "Point", "coordinates": [ 6.069726761509616, 51.230855479991199 ] } },
{ "type": "Feature", "properties": { "naam": "Apollobad", "adres": "Apollolaan 2", "postcode": "6074 EH", "plaats": "Melick" }, "geometry": { "type": "Point", "coordinates": [ 6.02439605888908, 51.161717623364652 ] } },
{ "type": "Feature", "properties": { "naam": "Haelen", "adres": "Roggelseweg 50", "postcode": "6081 NP", "plaats": "Haelen" }, "geometry": { "type": "Point", "coordinates": [ 5.944381895999602, 51.23938910231886 ] } },
{ "type": "Feature", "properties": { "naam": "Ligteveld", "adres": "Ligteveld 2", "postcode": "6086 NR", "plaats": "Neer" }, "geometry": { "type": "Point", "coordinates": [ 5.996394558395559, 51.266499643168714 ] } },
{ "type": "Feature", "properties": { "naam": "De Leistert", "adres": "Heldensedijk 5", "postcode": "6088 NT", "plaats": "Roggel" }, "geometry": { "type": "Point", "coordinates": [ 5.931770028556508, 51.274658488822382 ] } },
{ "type": "Feature", "properties": { "naam": "Molenhoek", "adres": "Arevenlaan 3", "postcode": "6093 GM", "plaats": "Heythuysen" }, "geometry": { "type": "Point", "coordinates": [ 5.902949007688731, 51.254178268984248 ] } },
{ "type": "Feature", "properties": { "naam": "Multimove", "adres": "Rector Driessenstraat 2", "postcode": "6097 AK", "plaats": "Heel" }, "geometry": { "type": "Point", "coordinates": [ 5.894757406118607, 51.179381574805781 ] } },
{ "type": "Feature", "properties": { "naam": "In de Bandert", "adres": "Bandertlaan 7", "postcode": "6101 LZ", "plaats": "Echt" }, "geometry": { "type": "Point", "coordinates": [ 5.886873595027822, 51.106767240892083 ] } },
{ "type": "Feature", "properties": { "naam": "Het Anker", "adres": "Ankersweg 52", "postcode": "6122 ET", "plaats": "Buchten" }, "geometry": { "type": "Point", "coordinates": [ 5.815109669975412, 51.043853149928381 ] } },
{ "type": "Feature", "properties": { "naam": "Silverstaete", "adres": "Smithlaan 127", "postcode": "6135 JL", "plaats": "Sittard" }, "geometry": { "type": "Point", "coordinates": [ 5.852704513073143, 51.01077288394282 ] } },
{ "type": "Feature", "properties": { "naam": "De Nieuwe Hateboer", "adres": "Sportcentrumlaan 9", "postcode": "6136 KX", "plaats": "Sittard" }, "geometry": { "type": "Point", "coordinates": [ 5.88047932313283, 51.008464669954087 ] } },
{ "type": "Feature", "properties": { "naam": "Glanerbrook", "adres": "Kummenaedestraat 45", "postcode": "6165 BT", "plaats": "Geleen" },