{
"type": "FeatureCollection",
"crs": { "type": "name", "properties": { "name": "urn:ogc:def:crs:OGC:1.3:CRS84" } },
"features": [
{ "type": "Feature", "properties": { "naam": "Familiebad Bredius", "adres": "Spaarndammerdijk 306a", "postcode": "1013 ZX", "plaats": "Amsterdam" }, "geometry": { "type": "Point", "coordinates": [ 4.868338311549702, 52.392471716064378 ] } },
{ "type": "Feature", "properties": { "naam": "Het Marnix", "adres": "Marnixplein 1", "postcode": "1015 ZN", "plaats": "Amsterdam" }, "geometry": { "type": "Point", "coordinates": [ 4.878479676263507, 52.377991594360914 ] } },
{ "type": "Feature", "properties": { "naam": "Noorderparkbad", "adres": "Sneeuwbalweg 5", "postcode": "1032 VS", "plaats": "Amsterdam" }, "geometry": { "type": "Point", "coordinates": [ 4.918725906688605, 52.39827205006587 ] } },
{ "type": "Feature", "properties": { "naam": "SportPlaza Mercator", "adres": "Jan van Galenstraat 315", "postcode": "1056 CB", "plaats": "Amsterdam" }, "geometry": { "type": "Point", "coordinates": [ 4.846099313583159, 52.371745384349381 ] } },
{ "type": "Feature", "properties": { "naam": "Sloterparkbad", "adres": "President Allendelaan 3", "postcode": "1064 GW", "plaats": "Amsterdam" }, "geometry": { "type": "Point", "coordinates": [ 4.817120221116478, 52.370018565146651 ] } },
{ "type": "Feature", "properties": { "naam": "Zuiderbad", "adres": "Hobbemastraat 26", "postcode": "1071 ZC", "plaats": "Amsterdam" }, "geometry": { "type": "Point", "coordinates": [ 4.886026391993449, 52.358673212406764 ] } },
{ "type": "Feature", "properties": { "naam": "De mirandabad", "adres": "de Mirandalaan 9", "postcode": "1079 PA", "plaats": "Amsterdam" }, "geometry": { "type": "Point", "coordinates": [ 4.902274615627016, 52.338734162605604 ] } },
{ "type": "Feature", "properties": { "naam": "N.V. Sportfondsenbad Amsterdam-Oost", "adres": "Land van Cocagneplein 44", "postcode": "1093 NB", "plaats": "Amsterdam" }, "geometry": { "type": "Point", "coordinates": [ 4.928486652297603, 52.356643366737487 ] } },
{ "type": "Feature", "properties": { "naam": "Flevoparkbad", "adres": "Insulindeweg 1002", "postcode": "1095 DH", "plaats": "Amsterdam" }, "geometry": { "type": "Point", "coordinates": [ 4.951847882653838, 52.364928365145225 ] } },
{ "type": "Feature", "properties": { "naam": "Bijlmer Sportcentrum", "adres": "Anton de Komplein 157", "postcode": "1102 DR", "plaats": "Amsterdam" }, "geometry": { "type": "Point", "coordinates": [ 4.957628679782934, 52.315274288324566 ] } },
{ "type": "Feature", "properties": { "naam": "Stichting AGO zwembad", "adres": "Kriekenoord 17 ", "postcode": "1111 PT", "plaats": "Diemen" }, "geometry": { "type": "Point", "coordinates": [ 4.975029478170108, 52.336583228171421 ] } },
{ "type": "Feature", "properties": { "naam": "Sportcentrum Weth.F.B.Duran", "adres": "Ouderkerkerlaan 10", "postcode": "1112 BE", "plaats": "Diemen" }, "geometry": { "type": "Point", "coordinates": [ 4.958807438455198, 52.335995341611891 ] } },
{ "type": "Feature", "properties": { "naam": "Zwembad De Breek", "adres": "Sportpark 7", "postcode": "1121 MS", "plaats": "Landsmeer" }, "geometry": { "type": "Point", "coordinates": [ 4.905413002582824, 52.432164902990579 ] } },
{ "type": "Feature", "properties": { "naam": "Zwembad de Waterdam", "adres": "Harlingenlaan 25", "postcode": "1131 JP", "plaats": "Volendam" }, "geometry": { "type": "Point", "coordinates": [ 5.072833776852964, 52.508787855376227 ] } },
{ "type": "Feature", "properties": { "naam": "Sportfondsenbad Monnickendam", "adres": "Wilhelminalaan 54", "postcode": "1141 CW", "plaats": "Monnickendam" }, "geometry": { "type": "Point", "coordinates": [ 5.036417035851025, 52.455642005866238 ] } },
{ "type": "Feature", "properties": { "naam": "Sporthal De Sporthoeve", "adres": "Snelliuslaan 1", "postcode": "1171 CZ", "plaats": "Badhoevedorp" }, "geometry": { "type": "Point", "coordinates": [ 4.774762830647429, 52.343068276629765 ] } },
{ "type": "Feature", "properties": { "naam": "De Meerkamp", "adres": "Van der Hooplaan 239", "postcode": "1185 LN", "plaats": "Amstelveen" }, "geometry": { "type": "Point", "coordinates": [ 4.852624367080822, 52.288431066976408 ] } },
{ "type": "Feature", "properties": { "naam": "Het Amstelbad", "adres": "Wethouder Koolhaasweg 10", "postcode": "1191 EB", "plaats": "Ouderkerk aan de Amstel" }, "geometry": { "type": "Point", "coordinates": [ 4.920819932089086, 52.302560962187364 ] } },
{ "type": "Feature", "properties": { "naam": "De Lieberg", "adres": "Jan van der Heijdenstraat 174", "postcode": "1221 EN", "plaats": "Hilversum" }, "geometry": { "type": "Point", "coordinates": [ 5.192543319786851, 52.226906121679193 ] } },
{ "type": "Feature", "properties": { "naam": "Van Walderveenbad", "adres": "Prinses Margrietstraat 62", "postcode": "1231 XH", "plaats": "Loosdrecht" }, "geometry": { "type": "Point", "coordinates": [ 5.141400007199396, 52.198543955517856 ] } },
{ "type": "Feature", "properties": { "naam": "Sportcentrum de Biezem", "adres": "Schapendrift 64", "postcode": "1251 XH", "plaats": "Laren" }, "geometry": { "type": "Point", "coordinates": [ 5.239488110209394, 52.255806980094739 ] } },
{ "type": "Feature", "properties": { "naam": "Sijsjesberg", "adres": "Ericaweg 24", "postcode": "1272 CT", "plaats": "Huizen" }, "geometry": { "type": "Point", "coordinates": [ 5.218723228110418, 52.289950666786972 ] } },
{ "type": "Feature", "properties": { "naam": "Optisport Huizen bfv", "adres": "Graaf Wichman 177", "postcode": "1276 KD", "plaats": "Huizen" }, "geometry": { "type": "Point", "coordinates": [ 5.244084283854515, 52.297623613723246 ] } },
{ "type": "Feature", "properties": { "naam": "Almere Stad", "adres": "Johann Sebastiaan Bachweg 3", "postcode": "1323 BA", "plaats": "Almere" }, "geometry": { "type": "Point", "coordinates": [ 5.201915829987681, 52.369897735498903 ] } },
{ "type": "Feature", "properties": { "naam": "De Vrijbuiter", "adres": "Globeplein 1", "postcode": "1334 BT", "plaats": "Almere" }, "geometry": { "type": "Point", "coordinates": [ 5.277726865389702, 52.393260803141921 ] } },
{ "type": "Feature", "properties": { "naam": "Almere-Haven", "adres": "Parkwerf 138", "postcode": "1354 EB", "plaats": "Almere" }, "geometry": { "type": "Point", "coordinates": [ 5.221091758240424, 52.338631307457064 ] } },
{ "type": "Feature", "properties": { "naam": "Almere-Poort", "adres": "Pierre de Coubertinplein 6", "postcode": "1362 LB", "plaats": "Almere" }, "geometry": { "type": "Point", "coordinates": [ 5.157160116452724, 52.341750922424438 ] } },
{ "type": "Feature", "properties": { "naam": "ZIB Victoriabad", "adres": "Basisweg 1", "postcode": "1383 NC", "plaats": "Weesp" }, "geometry": { "type": "Point", "coordinates": [ 5.027118012550909, 52.298393504977255 ] } },
{ "type": "Feature", "properties": { "naam": "Het Meerbad", "adres": "Amsterdamsestraatweg 40", "postcode": "1391 AB", "plaats": "Abcoude" }, "geometry": { "type": "Point", "coordinates": [ 4.968421059293186, 52.278067532649906 ] } },
{ "type": "Feature", "properties": { "naam": "Sportcentrum de Zandzee", "adres": "Struikheiweg 14", "postcode": "1406 TK", "plaats": "Bussum" }, "geometry": { "type": "Point", "coordinates": [ 5.156203233289816, 52.266144389472174 ] } },
{ "type": "Feature", "properties": { "naam": "Sportcentrum De Lunet", "adres": "Amersfoortsestraatweg 16", "postcode": "1411 HD", "plaats": "Naarden" }, "geometry": { "type": "Point", "coordinates": [ 5.171162043563689, 52.28985540393036 ] } },
{ "type": "Feature", "properties": { "naam": "De Otter", "adres": "Sportlaan 66", "postcode": "1421 TE", "plaats": "Uithoorn" }, "geometry": { "type": "Point", "coordinates": [ 4.816121487178019, 52.243383595083039 ] } },
{ "type": "Feature", "properties": { "naam": "Amstelhof Health Club", "adres": "Noorddammerweg 30", "postcode": "1424 NX", "plaats": "De Kwakel" }, "geometry": { "type": "Point", "coordinates": [ 4.799682106987228, 52.245343269218608 ] } },
{ "type": "Feature", "properties": { "naam": "De Waterlelie", "adres": "Dreef 7", "postcode": "1431 WC", "plaats": "Aalsmeer" }, "geometry": { "type": "Point", "coordinates": [ 4.766838007128612, 52.255916058237659 ] } },
{ "type": "Feature", "properties": { "naam": "Spurd-Leeghwaterbad", "adres": "Leeghwaterpark 1", "postcode": "1445 RA", "plaats": "Purmerend" }, "geometry": { "type": "Point", "coordinates": [ 4.97199705412458, 52.500748735436986 ] } },
{ "type": "Feature", "properties": { "naam": "Zwembad de Slag", "adres": "koningsgeelstraat 3", "postcode": "1503 NA", "plaats": "Zaandam" }, "geometry": { "type": "Point", "coordinates": [ 4.838451378343517, 52.442739812027703 ] } },
{ "type": "Feature", "properties": { "naam": "Het Zwet", "adres": "Sternstraat 2", "postcode": "1531 VN", "plaats": "Wormer" }, "geometry": { "type": "Point", "coordinates": [ 4.81572505080084, 52.502184059525952 ] } },
{ "type": "Feature", "properties": { "naam": "Zwembad Zaangolf", "adres": "Wezelstraat 1b", "postcode": "1541 LZ", "plaats": "Koog aan de Zaan" }, "geometry": { "type": "Point", "coordinates": [ 4.802370255253685, 52.46633952147954 ] } },
{ "type": "Feature", "properties": { "naam": "Zwembad De Crommenije", "adres": "Rosariumpark 1", "postcode": "1561 TV", "plaats": "Krommenie" }, "geometry": { "type": "Point", "coordinates": [ 4.763257586345245, 52.505865268688574 ] } },
{ "type": "Feature", "properties": { "naam": "Recreatiebad Enkhuizerzand", "adres": "Kooizandweg 12", "postcode": "1601 LK", "plaats": "Enkhuizen" }, "geometry": { "type": "Point", "coordinates": [ 5.289642218560859, 52.713332749863639 ] } },
{ "type": "Feature", "properties": { "naam": "Het Hemmerven", "adres": "Hertog Willemweg 68", "postcode": "1607 CZ", "plaats": "Hem" }, "geometry": { "type": "Point", "coordinates": [ 5.183035813387876, 52.656283397645822 ] } },
{ "type": "Feature", "properties": { "naam": "zwembad de Kloet", "adres": "Raadhuislaan 8", "postcode": "1613 KR", "plaats": "Grootebroek" }, "geometry": { "type": "Point", "coordinates": [ 5.216024343758936, 52.693730186304933 ] } },
{ "type": "Feature", "properties": { "naam": "Het Streekbad", "adres": "sportlaan 10", "postcode": "1616 CN", "plaats": "Hoogkarspel" }, "geometry": { "type": "Point", "coordinates": [ 5.184736455328233, 52.69138044684955 ] } },
{ "type": "Feature", "properties": { "naam": "Zwembad de Weid", "adres": "Klamptweid 72", "postcode": "1619 DL", "plaats": "Andijk" }, "geometry": { "type": "Point", "coordinates": [ 5.213994937890237, 52.74703733298761 ] } },
{ "type": "Feature", "properties": { "naam": "De Waterhoorn", "adres": "Holenweg 14e", "postcode": "1624 PB", "plaats": "Hoorn" }, "geometry": { "type": "Point", "coordinates": [ 5.072475421396475, 52.652088015594856 ] } },
{ "type": "Feature", "properties": { "naam": "Sauna Suomi", "adres": "Holenweg 6", "postcode": "1624 PB", "plaats": "Hoorn" }, "geometry": { "type": "Point", "coordinates": [ 5.076524207861546, 52.64793764790209 ] } },
{ "type": "Feature", "properties": { "naam": "Het Koggenbad", "adres": "Dwingel 4a", "postcode": "1648 JM", "plaats": "De Goorn" }, "geometry": { "type": "Point", "coordinates": [ 4.946131263340482, 52.626639458074848 ] } },
{ "type": "Feature", "properties": { "naam": "Zwembad 't Ploetertje", "adres": "Molenstraat 40b", "postcode": "1654 KB", "plaats": "Benningbroek" }, "geometry": { "type": "Point", "coordinates": [ 5.014934023339121, 52.702455919983834 ] } },
{ "type": "Feature", "properties": { "naam": "Zwembad de Spetter", "adres": "Essenlaan 3", "postcode": "1657 AK", "plaats": "Abbekerk" }, "geometry": { "type": "Point", "coordinates": [ 5.024747309395675, 52.7323857264347 ] } },
{ "type": "Feature", "properties": { "naam": "Het Zwembad", "adres": "Tripkouw 36a", "postcode": "1679 GJ", "plaats": "Midwoud" }, "geometry": { "type": "Point", "coordinates": [ 5.076385945033891, 52.723976148358616 ] } },
{ "type": "Feature", "properties": { "naam": "Molenbad", "adres": "Oosteinderweg 85", "postcode": "1687 AB", "plaats": "Wognum" }, "geometry": { "type": "Point", "coordinates": [ 5.049696485417286, 52.685717951960449 ] } },
{ "type": "Feature", "properties": { "naam": "Zwembad De Wijzend", "adres": "Pastoor Nuijenstraat 57", "postcode": "1689 GM", "plaats": "Zwaag" }, "geometry": { "type": "Point", "coordinates": [ 5.078305187847384, 52.665763600544366 ] } },
{ "type": "Feature", "properties": { "naam": "De Zeehoek", "adres": "Dorpsstraat 179", "postcode": "1693 AE", "plaats": "Wervershoof" }, "geometry": { "type": "Point", "coordinates": [ 5.167716134107915, 52.732096873182712 ] } },
{ "type": "Feature", "properties": { "naam": "Sporthal Waardergolf", "adres": "Beukenlaan 1b", "postcode": "1701 DA", "plaats": "Heerhugowaard" }, "geometry": { "type": "Point", "coordinates": [ 4.848644790540185, 52.664909702330057 ] } },
{ "type": "Feature", "properties": { "naam": "Zwembad Buitenmeere", "adres": "Stationsweg 2", "postcode": "1713 HE", "plaats": "Obdam" }, "geometry": { "type": "Point", "coordinates": [ 4.909900044910543, 52.678642892899511 ] } },
{ "type": "Feature", "properties": { "naam": "´t Woudmeer", "adres": "De Weijver 4", "postcode": "1718 MS", "plaats": "Hoogwoud" }, "geometry": { "type": "Point", "coordinates": [ 4.935563807496287, 52.709415798909653 ] } },
{ "type": "Feature", "properties": { "naam": "Zwembad Duikerdel", "adres": "Oostelijke Randweg 15", "postcode": "1723 LH", "plaats": "Noord-Scharwoude" }, "geometry": { "type": "Point", "coordinates": [ 4.817987254810285, 52.700275101558617 ] } },
{ "type": "Feature", "properties": { "naam": "De Wirg", "adres": "Hartweg 33", "postcode": "1731 LT", "plaats": "Winkel" }, "geometry": { "type": "Point", "coordinates": [ 4.897043916445089, 52.761423738462838 ] } },
{ "type": "Feature", "properties": { "naam": "De Rijd", "adres": "Vijverweg 5", "postcode": "1733 AS", "plaats": "Nieuwe Niedorp" }, "geometry": { "type": "Point", "coordinates": [ 4.88279888635888, 52.733810335607345 ] } },
{ "type": "Feature", "properties": { "naam": "Natuurbad 't Petje", "adres": "Havenstraat 13", "postcode": "1736 KC", "plaats": "Zijdewind" }, "geometry": { "type": "Point", "coordinates": [ 4.84118720768535, 52.739297618847388 ] } },
{ "type": "Feature", "properties": { "naam": "Stichting Zwembad Waarland", "adres": "Jonkerstraat 23", "postcode": "1738 BP", "plaats": "Waarland" }, "geometry": { "type": "Point", "coordinates": [ 4.826695295618363, 52.723898460344309 ] } },
{ "type": "Feature", "properties": { "naam": "Sportfondsenbad de Wiel", "adres": "Wielewaal 8", "postcode": "1742 GC", "plaats": "Schagen" }, "geometry": { "type": "Point", "coordinates": [ 4.778881604891242, 52.782879091612479 ] } },
{ "type": "Feature", "properties": { "naam": "Zwembad de Veersloot", "adres": "Voorpolderweg 10", "postcode": "1746 BA", "plaats": "Dirkshorn" }, "geometry": { "type": "Point", "coordinates": [ 4.780114912634745, 52.750559277728527 ] } },
{ "type": "Feature", "properties": { "naam": "Geestmerend", "adres": "Oostwal 31", "postcode": "1749 XK", "plaats": "Warmenhuizen" }, "geometry": { "type": "Point", "coordinates": [ 4.745778814159162, 52.732620934035808 ] } },
{ "type": "Feature", "properties": { "naam": "Campanula", "adres": "Belkmerweg 62", "postcode": "1753 KK", "plaats": "Sint Maartensvlotbrug" }, "geometry": { "type": "Point", "coordinates": [ 4.695506553990186, 52.782046917214053 ] } },
{ "type": "Feature", "properties": { "naam": "Zwembad Sluispad", "adres": "Sportlaan 34", "postcode": "1757 PK", "plaats": "Oudesluis" }, "geometry": { "type": "Point", "coordinates": [ 4.806787933894181, 52.836822468104529 ] } },
{ "type": "Feature", "properties": { "naam": "Den Krieck", "adres": "Ceresplein 2", "postcode": "1764 HD", "plaats": "Breezand" }, "geometry": { "type": "Point", "coordinates": [ 4.805448221733677, 52.88733924488799 ] } },
{ "type": "Feature", "properties": { "naam": "Zwembad Wieringerwaard", "adres": "Populierenlaan 29", "postcode": "1766 JD", "plaats": "Wieringerwaard" }, "geometry": { "type": "Point", "coordinates": [ 4.866384923386655, 52.836890849725506 ] } },
{ "type": "Feature", "properties": { "naam": "Zwembad De Terp", "adres": "Badweg 1", "postcode": "1771 RV", "plaats": "Wieringerwerf" }, "geometry": { "type": "Point", "coordinates": [ 5.024922836226056, 52.843804197832469 ] } },
{ "type": "Feature", "properties": { "naam": "De Venne", "adres": "Hortensialaan 2", "postcode": "1777 XE", "plaats": "Hippolytushoef" }, "geometry": { "type": "Point", "coordinates": [ 4.957330585433359, 52.908768520562717 ] } },
{ "type": "Feature", "properties": { "naam": "Aquacenter Den Helder", "adres": "Het Nieuwland 2", "postcode": "1784 EA", "plaats": "Den Helder" }, "geometry": { "type": "Point", "coordinates": [ 4.75237837204693, 52.948627146164014 ] } },
{ "type": "Feature", "properties": { "naam": "Landal Resort Ooghduyne", "adres": "Ooghduyne 1", "postcode": "1787 PS", "plaats": "Julianadorp" }, "geometry": { "type": "Point", "coordinates": [ 4.72709930613131, 52.885781457852325 ] } },
{ "type": "Feature", "properties": { "naam": "Zwembad `Molenkoog`", "adres": "Slingerweg 40A", "postcode": "1791 AW", "plaats": "Den Burg" }, "geometry": { "type": "Point", "coordinates": [ 4.803271564065449, 53.048958783340574 ] } },
{ "type": "Feature", "properties": { "naam": "Zwemparadijs Calluna", "adres": "Schumakersweg 3", "postcode": "1796 NM", "plaats": "De Koog" }, "geometry": { "type": "Point", "coordinates": [ 4.769072225479791, 53.090195470216457 ] } },
{ "type": "Feature", "properties": { "naam": "De Hout", "adres": "Koning Willem-Alexanderlaan 3", "postcode": "1815 LV", "plaats": "Alkmaar" }, "geometry": { "type": "Point", "coordinates": [ 4.732454156936798, 52.622455193500898 ] } },
{ "type": "Feature", "properties": { "naam": "Hoornse Vaart", "adres": "Hertog Aalbrechtweg 4", "postcode": "1823 DL", "plaats": "Alkmaar" }, "geometry": { "type": "Point", "coordinates": [ 4.767614545119495, 52.64357501572438 ] } },
{ "type": "Feature", "properties": { "naam": "de Bever", "adres": "Kastanjelaan 2", "postcode": "1834 GL", "plaats": "Sint Pancras" }, "geometry": { "type": "Point", "coordinates": [ 4.786079055985454, 52.660098424444342 ] } },
{ "type": "Feature", "properties": { "naam": "Zwembad `Loos`", "adres": "de Omloop 9", "postcode": "1852 RJ", "plaats": "Heiloo" }, "geometry": { "type": "Point", "coordinates": [ 4.688459525817838, 52.608561890736212 ] } },
{ "type": "Feature", "properties": { "naam": "Zwembad het Baafje", "adres": "De Omloop 11", "postcode": "1852 RJ", "plaats": "Heiloo" }, "geometry": { "type": "Point", "coordinates": [ 4.687659385541126, 52.60874591873354 ] } },
{ "type": "Feature", "properties": { "naam": "Hippo`s De Beeck", "adres": "Molenweidtje 2", "postcode": "1862 BC", "plaats": "Bergen (NH)" }, "geometry": { "type": "Point", "coordinates": [ 4.710403264299037, 52.675437548535768 ] } },
{ "type": "Feature", "properties": { "naam": "zwembad de witte brug", "adres": "Jacob Rensdorpstraat 1", "postcode": "1901 RG", "plaats": "Castricum" }, "geometry": { "type": "Point", "coordinates": [ 4.669226396170295, 52.545849511273396 ] } },
{ "type": "Feature", "properties": { "naam": "de Zien", "adres": "Zienlaan 8", "postcode": "1911 TR", "plaats": "Uitgeest" }, "geometry": { "type": "Point", "coordinates": [ 4.70242994299756, 52.52374760362931 ] } },
{ "type": "Feature", "properties": { "naam": "Sportfondsenbad Beverwijk", "adres": "Kuikensweg 84", "postcode": "1945 EP", "plaats": "Beverwijk" }, "geometry": { "type": "Point", "coordinates": [ 4.656630478151713, 52.497230656545959 ] } },
{ "type": "Feature", "properties": { "naam": "Zwem- en Sportcentrum de Waterakkers", "adres": "Kerkweg 217", "postcode": "1964 KJ", "plaats": "Heemskerk" }, "geometry": { "type": "Point", "coordinates": [ 4.660336029227864, 52.513673812174758 ] } },
{ "type": "Feature", "properties": { "naam": "De Heerenduinen", "adres": "Heerenduinweg 6", "postcode": "1971 JE", "plaats": "IJmuiden" }, "geometry": { "type": "Point", "coordinates": [ 4.621792285397342, 52.453645237634461 ] } },
{ "type": "Feature", "properties": { "naam": "de Houtvaart", "adres": "Piet Heinstraat 12", "postcode": "2014 AR", "plaats": "Haarlem" }, "geometry": { "type": "Point", "coordinates": [ 4.616650394984147, 52.380567782960568 ] } },
{ "type": "Feature", "properties": { "naam": "De Planeet", "adres": "Planetenlaan 15", "postcode": "2024 EN", "plaats": "Haarlem" }, "geometry": { "type": "Point", "coordinates": [ 4.646543405821989, 52.408450115551162 ] } },
{ "type": "Feature", "properties": { "naam": "Boerhaavebad", "adres": "kadijklaan 1", "postcode": "2035 LD", "plaats": "Haarlem" }, "geometry": { "type": "Point", "coordinates": [ 4.649277532020539, 52.368704888524583 ] } },
{ "type": "Feature", "properties": { "naam": "Nieuw Unicum", "adres": "Zandvoortselaan 165", "postcode": "2042 XK", "plaats": "Zandvoort" }, "geometry": { "type": "Point", "coordinates": [ 4.557067758416794, 52.366215695488535 ] } },
{ "type": "Feature", "properties": { "naam": "Sportacademie Nauwelaerts de Agé", "adres": "Bloemendaalseweg 152", "postcode": "2051 GJ", "plaats": "Overveen" }, "geometry": { "type": "Point", "coordinates": [ 4.612391489230345, 52.39987294162016 ] } },
{ "type": "Feature", "properties": { "naam": "Sportcentrum Groenendaal", "adres": "Sportparklaan 16", "postcode": "2103 VT", "plaats": "Heemstede" }, "geometry": { "type": "Point", "coordinates": [ 4.62558731049824, 52.338256485864569 ] } },
{ "type": "Feature", "properties": { "naam": "Sportcomplex Koning Willem-Alexander", "adres": "Bennebroekerweg 800", "postcode": "2134 AB", "plaats": "Hoofddorp" }, "geometry": { "type": "Point", "coordinates": [ 4.629831015712812, 52.301945243080119 ] } },
{ "type": "Feature", "properties": { "naam": "SportPlaza de Estafette", "adres": "Helsinkilaan 1", "postcode": "2152 KG", "plaats": "Nieuw-Vennep" }, "geometry": { "type": "Point", "coordinates": [ 4.632352116114433, 52.27522190924077 ] } },
{ "type": "Feature", "properties": { "naam": "Sportcentrum De Waterkanten", "adres": "​Sportlaan 21", "postcode": "2161 VA", "plaats": "Lisse" }, "geometry": { "type": "Point", "coordinates": [ 4.565879344003998, 52.262986273598599 ] } },
{ "type": "Feature", "properties": { "naam": "Zwemcollege Lisse", "adres": "Meer en Duin 9", "postcode": "2163 HA", "plaats": "Lisse" }, "geometry": { "type": "Point", "coordinates": [ 4.567525362696655, 52.269055715081947 ] } },
{ "type": "Feature", "properties": { "naam": "Wasbeek", "adres": "Van Alkemadelaan 12", "postcode": "2171 DH", "plaats": "Sassenheim" }, "geometry": { "type": "Point", "coordinates": [ 4.518071936284052, 52.217685157698163 ] } },
{ "type": "Feature", "properties": { "naam": "Zwembad de Vosse", "adres": "Vosselaan 152", "postcode": "2181 CD", "plaats": "Hillegom" }, "geometry": { "type": "Point", "coordinates": [ 4.590219470350729, 52.295204512449708 ] } },
{ "type": "Feature", "properties": { "naam": "Zwembad BinnenZee", "adres": "Nieuwe Zeeweg 65", "postcode": "2201 TM", "plaats": "Noordwijk" }, "geometry": { "type": "Point", "coordinates": [ 4.438855562843864, 52.241892391508479 ] } },
{ "type": "Feature", "properties": { "naam": "De Schelft", "adres": "Maandagsewetering 202", "postcode": "2211 WV", "plaats": "Noordwijkerhout" }, "geometry": { "type": "Point", "coordinates": [ 4.501186986441184, 52.258024848774511 ] } },
{ "type": "Feature", "properties": { "naam": "Aquamar", "adres": "Piet Heinlaan 5", "postcode": "2224 SW", "plaats": "Katwijk" }, "geometry": { "type": "Point", "coordinates": [ 4.41298649672903, 52.201593677182899 ] } },
{ "type": "Feature", "properties": { "naam": "Tikibad", "adres": "Duinrell 1", "postcode": "2242 JP", "plaats": "Wassenaar" }, "geometry": { "type": "Point", "coordinates": [ 4.387316317066333, 52.14600993268035 ] } },
{ "type": "Feature", "properties": { "naam": "Sterrenbad", "adres": "Generaal Winkelmanlaan 2", "postcode": "2243 AZ", "plaats": "Wassenaar" }, "geometry": { "type": "Point", "coordinates": [ 4.389785965442026, 52.136179401241414 ] } },
{ "type": "Feature", "properties": { "naam": "Residences Groot Hoogelande", "adres": "Van Ommerenpark 350", "postcode": "2243 EZ", "plaats": "Wassenaar" }, "geometry": { "type": "Point", "coordinates": [ 4.384082406054283, 52.12607282542789 ] } },
{ "type": "Feature", "properties": { "naam": "Zwembad `Het Wedde`", "adres": "Richard Wagnerlaan 85", "postcode": "2253 CD", "plaats": "Voorschoten" }, "geometry": { "type": "Point", "coordinates": [ 4.451921841858502, 52.139133391143574 ] } },
{ "type": "Feature", "properties": { "naam": "De Fluit", "adres": "Fluitpolderplein 1", "postcode": "2262 ED", "plaats": "Leidschendam" }, "geometry": { "type": "Point", "coordinates": [ 4.394104803371865, 52.093699892463256 ] } },
{ "type": "Feature", "properties": { "naam": "Sportcentrum Forum Kwadraat", "adres": "de Vliegerlaan 2", "postcode": "2273 BV", "plaats": "Voorburg" }, "geometry": { "type": "Point", "coordinates": [ 4.361916251140479, 52.074404265894188 ] } },
{ "type": "Feature", "properties": { "naam": "Sport- en welzijnscentrum De Schilp", "adres": "schaapweg 4", "postcode": "2285 SP", "plaats": "Rijswijk" }, "geometry": { "type": "Point", "coordinates": [ 4.299174577141211, 52.03848871481631 ] } },
{ "type": "Feature", "properties": { "naam": "Zwembad de Waterman", "adres": "Dorpskade 57", "postcode": "2291 HP", "plaats": "Wateringen" }, "geometry": { "type": "Point", "coordinates": [ 4.278103097218222, 52.020044784118838 ] } },
{ "type": "Feature", "properties": { "naam": "De Zijl", "adres": "Paramaribostraat 66", "postcode": "2315 VK", "plaats": "Leiden" }, "geometry": { "type": "Point", "coordinates": [ 4.514279100132393, 52.167025956711512 ] } },
{ "type": "Feature", "properties": { "naam": "Het Vijf Mei Bad", "adres": "Boshuizerlaan 1", "postcode": "2321 SG", "plaats": "Leiden" }, "geometry": { "type": "Point", "coordinates": [ 4.476465715302848, 52.149770030455336 ] } },
{ "type": "Feature", "properties": { "naam": "openluchtzwembad De Vliet", "adres": "Voorschoterweg 6", "postcode": "2324 NE", "plaats": "Leiden" }, "geometry": { "type": "Point", "coordinates": [ 4.48239002683976, 52.140072161694192 ] } },
{ "type": "Feature", "properties": { "naam": "Poelmeer", "adres": "Lange Voort 273", "postcode": "2343 CE", "plaats": "Oegstgeest" }, "geometry": { "type": "Point", "coordinates": [ 4.486777258993182, 52.184023055314732 ] } },
{ "type": "Feature", "properties": { "naam": "De Does", "adres": "Amaliaplein 40", "postcode": "2351 PV", "plaats": "Leiderdorp" }, "geometry": { "type": "Point", "coordinates": [ 4.530560900233412, 52.151128027935137 ] } },
{ "type": "Feature", "properties": { "naam": "De Tweesprong", "adres": "Lucas van Leydenlaan 2", "postcode": "2371 RW", "plaats": "Roelofarendsveen" }, "geometry": { "type": "Point", "coordinates": [ 4.637967144477411, 52.20804443673012 ] } },
{ "type": "Feature", "properties": { "naam": "Zwembad Haasbroek", "adres": "Nieuweweg 4", "postcode": "2381 NW", "plaats": "Zoeterwoude" }, "geometry": { "type": "Point", "coordinates": [ 4.502470897537172, 52.117501741675675 ] } },
{ "type": "Feature", "properties": { "naam": "zwembad de hazelaar", "adres": "Sportparklaan 17", "postcode": "2391 AX", "plaats": "Hazerswoude-Dorp" }, "geometry": { "type": "Point", "coordinates": [ 4.593666957985874, 52.10278066061781 ] } },
{ "type": "Feature", "properties": { "naam": "Prins Willem-Alexanderbad", "adres": "Kerklaan 24", "postcode": "2396 VJ", "plaats": "Koudekerk aan den Rijn" }, "geometry": { "type": "Point", "coordinates": [ 4.602407239553513, 52.135359015051947 ] } },
{ "type": "Feature", "properties": { "naam": "Aquarijn", "adres": "Cantharel 10", "postcode": "2403 RA", "plaats": "Alphen aan den Rijn" }, "geometry": { "type": "Point", "coordinates": [ 4.679330796683678, 52.147943951051516 ] } },
{ "type": "Feature", "properties": { "naam": "zwem- en recreatiebad De Hoorn", "adres": "Van Foreestlaan 4", "postcode": "2404 HC", "plaats": "Alphen aan den Rijn" }, "geometry": { "type": "Point", "coordinates": [ 4.64753973327749, 52.139012306203732 ] } },
{ "type": "Feature", "properties": { "naam": "de Kuil", "adres": "Sportlaan 1", "postcode": "2411 XD", "plaats": "Bodegraven" }, "geometry": { "type": "Point", "coordinates": [ 4.747459707789599, 52.088831021686673 ] } },
{ "type": "Feature", "properties": { "naam": "De Wel", "adres": "Julianalaan 1a", "postcode": "2421 CV", "plaats": "Nieuwkoop" }, "geometry": { "type": "Point", "coordinates": [ 4.786041685098646, 52.154836674867852 ] } },
{ "type": "Feature", "properties": { "naam": "Zwembad Aarweide", "adres": "Schilkerweg 21", "postcode": "2441 EX", "plaats": "Nieuwveen" }, "geometry": { "type": "Point", "coordinates": [ 4.740046163709759, 52.184676708813406 ] } },
{ "type": "Feature", "properties": { "naam": "De kleine Oase", "adres": "Tuinderij 3", "postcode": "2451 GG", "plaats": "Leimuiden" }, "geometry": { "type": "Point", "coordinates": [ 4.675677269613945, 52.22223626249896 ] } },
{ "type": "Feature", "properties": { "naam": "Het Hofbad", "adres": "Ypenburgse Boslaan 30", "postcode": "2496 ZA", "plaats": "'s-Gravenhage" }, "geometry": { "type": "Point", "coordinates": [ 4.382778248843517, 52.052858369391117 ] } },
{ "type": "Feature", "properties": { "naam": "Zwembad de houtzagerij", "adres": "Hobbemastraat 93", "postcode": "2526 JG", "plaats": "'s-Gravenhage" }, "geometry": { "type": "Point", "coordinates": [ 4.304000356839699, 52.069769186796265 ] } },
{ "type": "Feature", "properties": { "naam": "Mulder Sport Den Haag", "adres": "Loevesteinlaan 885", "postcode": "2533 BW", "plaats": "'s-Gravenhage" }, "geometry": { "type": "Point", "coordinates": [ 4.288085662099708, 52.045486889309302 ] } },
{ "type": "Feature", "properties": { "naam": "zwembad Zuiderpark", "adres": "Mr. P. Droogleever Fortuynweg 59", "postcode": "2533 SP", "plaats": "'s-Gravenhage" }, "geometry": { "type": "Point", "coordinates": [ 4.287464770109406, 52.052959774025616 ] } },
{ "type": "Feature", "properties": { "naam": "Sport en Spel Paleis", "adres": "Jaap Edenweg 10", "postcode": "2544 NL", "plaats": "'s-Gravenhage" }, "geometry": { "type": "Point", "coordinates": [ 4.241227736352124, 52.038819928347209 ] } },
{ "type": "Feature", "properties": { "naam": "Therapeutisch Zwembad Escamphof", "adres": "Escamplaan 57", "postcode": "2547 GA", "plaats": "'s-Gravenhage" }, "geometry": { "type": "Point", "coordinates": [ 4.277322930089403, 52.065062439762706 ] } },
{ "type": "Feature", "properties": { "naam": "De Waterthor", "adres": "Thorbeckelaan 350", "postcode": "2564 BZ", "plaats": "'s-Gravenhage" }, "geometry": { "type": "Point", "coordinates": [ 4.248550343923846, 52.065542897989474 ] } },
{ "type": "Feature", "properties": { "naam": "Haags Hopje", "adres": "Scheveningseweg 108", "postcode": "2584 AD", "plaats": "'s-Gravenhage" }, "geometry": { "type": "Point", "coordinates": [ 4.279213709574517, 52.101197089725439 ] } },
{ "type": "Feature", "properties": { "naam": "De Blinkerd", "adres": "Seinpoststraat 150", "postcode": "2586 HC", "plaats": "'s-Gravenhage" }, "geometry": { "type": "Point", "coordinates": [ 4.283311610301692, 52.106071476136343 ] } },
{ "type": "Feature", "properties": { "naam": "Overbosch", "adres": "Vlaskamp 3", "postcode": "2592 AA", "plaats": "'s-Gravenhage" }, "geometry": { "type": "Point", "coordinates": [ 4.346209173006438, 52.08930459447874 ] } },
{ "type": "Feature", "properties": { "naam": "Zwem en Squash Centrum", "adres": "Clara van Sparwoudestraat 2", "postcode": "2612 SP", "plaats": "Delft" }, "geometry": { "type": "Point", "coordinates": [ 4.368326856805765, 52.013884996958822 ] } },
{ "type": "Feature", "properties": { "naam": "Sportfondsenbad Delft", "adres": "Weteringlaan 1", "postcode": "2613 WN", "plaats": "Delft" }, "geometry": { "type": "Point", "coordinates": [ 4.34535734998919, 52.011229996796573 ] } },
{ "type": "Feature", "properties": { "naam": "Kerkpolder", "adres": "Kerkpolderweg 1", "postcode": "2625 EB", "plaats": "Delft" }, "geometry": { "type": "Point", "coordinates": [ 4.331446884435912, 51.990791340463872 ] } },
{ "type": "Feature", "properties": { "naam": "Zwembad De Viergang", "adres": "Noordweg 79", "postcode": "2641 ZA", "plaats": "Pijnacker" }, "geometry": { "type": "Point", "coordinates": [ 4.422104139179138, 52.024971801138122 ] } },
{ "type": "Feature", "properties": { "naam": "De Windas", "adres": "Berkelseweg 95", "postcode": "2661 AK", "plaats": "Bergschenhoek" }, "geometry": { "type": "Point", "coordinates": [ 4.48617914050085, 51.994208214840334 ] } },
{ "type": "Feature", "properties": { "naam": "Zwembad De Hoge Bomen", "adres": "Hoogwerf 9", "postcode": "2671 MJ", "plaats": "Naaldwijk" }, "geometry": { "type": "Point", "coordinates": [ 4.209633746534618, 51.985347529248976 ] } },
{ "type": "Feature", "properties": { "naam": "Sportcentrum Vreeloo", "adres": "Veilingweg 16", "postcode": "2678 LN", "plaats": "De Lier" }, "geometry": { "type": "Point", "coordinates": [ 4.244169560856678, 51.981229612390258 ] } },
{ "type": "Feature", "properties": { "naam": "De Boetzelaer", "adres": "Madeweg 36", "postcode": "2681 PM", "plaats": "Monster" }, "geometry": { "type": "Point", "coordinates": [ 4.185765947544387, 52.031228736807506 ] } },
{ "type": "Feature", "properties": { "naam": "Maesemunde", "adres": "Koningin Julianaweg 158", "postcode": "2691 GH", "plaats": "'s-Gravenzande" }, "geometry": { "type": "Point", "coordinates": [ 4.170991671819338, 51.994069294291414 ] } },
{ "type": "Feature", "properties": { "naam": "De Driesprong", "adres": "Van Stolberglaan 1", "postcode": "2712 RB", "plaats": "Zoetermeer" }, "geometry": { "type": "Point", "coordinates": [ 4.48925154036635, 52.050913787562607 ] } },
{ "type": "Feature", "properties": { "naam": "De Veur", "adres": "Prismalaan 40", "postcode": "2718 CX", "plaats": "Zoetermeer" }, "geometry": { "type": "Point", "coordinates": [ 4.483661327669334, 52.038224113934973 ] } },
{ "type": "Feature", "properties": { "naam": "Poolschool H2O", "adres": "van der Hagenstraat 11", "postcode": "2722 NT", "plaats": "Zoetermeer" }, "geometry": { "type": "Point", "coordinates": [ 4.523272206299113, 52.048273936823229 ] } },
{ "type": "Feature", "properties": { "naam": "Gouwebad De Sniep", "adres": "Sniepweg 13D", "postcode": "2742 AR", "plaats": "Waddinxveen" }, "geometry": { "type": "Point", "coordinates": [ 4.643110860765686, 52.041829353171167 ] } },
{ "type": "Feature", "properties": { "naam": "De Koornmolen", "adres": "Tweemanspolder 6a", "postcode": "2761 ED", "plaats": "Zevenhuizen" }, "geometry": { "type": "Point", "coordinates": [ 4.565307476990084, 52.009034314453736 ] } },
{ "type": "Feature", "properties": { "naam": "Zwembad De Fuut", "adres": "Treebord 144", "postcode": "2811 EK", "plaats": "Reeuwijk" }, "geometry": { "type": "Point", "coordinates": [ 4.733711831634029, 52.052074323237754 ] } },
{ "type": "Feature", "properties": { "naam": "Ons Polderbad", "adres": "Kievitslaan 49", "postcode": "2821 XL", "plaats": "Stolwijk" }, "geometry": { "type": "Point", "coordinates": [ 4.77184801902874, 51.975914661089341 ] } },
{ "type": "Feature", "properties": { "naam": "Zwembad De Baan", "adres": "J. Huurmanlaan 14", "postcode": "2831 XT", "plaats": "Gouderak" }, "geometry": { "type": "Point", "coordinates": [ 4.678196982161088, 51.981877249853 ] } },
{ "type": "Feature", "properties": { "naam": "Sportfondsen De Zuidplas B.V", "adres": "Sportlaan 3", "postcode": "2841 EB", "plaats": "Moordrecht" }, "geometry": { "type": "Point", "coordinates": [ 4.658494255539586, 51.985037672558427 ] } },
{ "type": "Feature", "properties": { "naam": "Zwembad de Loete", "adres": "Bredeweg 2", "postcode": "2851 VA", "plaats": "Haastrecht" }, "geometry": { "type": "Point", "coordinates": [ 4.782586669362029, 51.994468430011167 ] } },
{ "type": "Feature", "properties": { "naam": "Zwembad de Hofstee", "adres": "Dijklaan 43", "postcode": "2861 DW", "plaats": "Bergambacht" }, "geometry": { "type": "Point", "coordinates": [ 4.784173609823235, 51.927324130240514 ] } },
{ "type": "Feature", "properties": { "naam": "Zwembad 't Wilgerak", "adres": "Lekdijk-Oost 1", "postcode": "2871 AD", "plaats": "Schoonhoven" }, "geometry": { "type": "Point", "coordinates": [ 4.860456898600765, 51.943564150019149 ] } },
{ "type": "Feature", "properties": { "naam": "David Lloyd Health & Fitness bv", "adres": "P C Boutenssingel 5", "postcode": "2902 BG", "plaats": "Capelle aan den IJssel" }, "geometry": { "type": "Point", "coordinates": [ 4.573788132329771, 51.922928660423977 ] } },
{ "type": "Feature", "properties": { "naam": "De Blinkert", "adres": "Valeriusrondeel 700", "postcode": "2902 CT", "plaats": "Capelle aan den IJssel" }, "geometry": { "type": "Point", "coordinates": [ 4.574202126422152, 51.922545013039581 ] } },
{ "type": "Feature", "properties": { "naam": "Polderbad", "adres": "Iersestraat 15", "postcode": "2912 TH", "plaats": "Nieuwerkerk aan den IJssel" }, "geometry": { "type": "Point", "coordinates": [ 4.601731415263449, 51.962731400224563 ] } },
{ "type": "Feature", "properties": { "naam": "Zwembad de Lansingh", "adres": "Van Ostadelaan 4", "postcode": "2923 AM", "plaats": "Krimpen aan den IJssel" }, "geometry": { "type": "Point", "coordinates": [ 4.593031243065213, 51.910853688289741 ] } },
{ "type": "Feature", "properties": { "naam": "Zwembad Schuagt", "adres": "Schuwacht 3c", "postcode": "2931 BA", "plaats": "Lekkerkerk" }, "geometry": { "type": "Point", "coordinates": [ 4.643945393203858, 51.893982523288443 ] } },
{ "type": "Feature", "properties": { "naam": "Zwembad Blokweer", "adres": "Sportlaan 3", "postcode": "2951 HL", "plaats": "Alblasserdam" }, "geometry": { "type": "Point", "coordinates": [ 4.663530254104063, 51.868640059483191 ] } },
{ "type": "Feature", "properties": { "naam": "Schoonenburg", "adres": "Vletstraat 2", "postcode": "2957 GH", "plaats": "Nieuw-Lekkerland" }, "geometry": { "type": "Point", "coordinates": [ 4.661926113900575, 51.883488341100779 ] } },
{ "type": "Feature", "properties": { "naam": "Openluchtzwembad De Dompelaar", "adres": "Sportlaan 3", "postcode": "2964 AN", "plaats": "Groot-Ammers" }, "geometry": { "type": "Point", "coordinates": [ 4.830807438291159, 51.934888621931407 ] } },
{ "type": "Feature", "properties": { "naam": "De Fakkel", "adres": "sportlaan 8", "postcode": "2982 SN", "plaats": "Ridderkerk" }, "geometry": { "type": "Point", "coordinates": [ 4.591270808343811, 51.878941046206094 ] } },
{ "type": "Feature", "properties": { "naam": "Inge de Bruijn Sportfondsenbad", "adres": "Hamburg 200", "postcode": "2993 LG", "plaats": "Barendrecht" }, "geometry": { "type": "Point", "coordinates": [ 4.510413497337538, 51.853124887335021 ] } },
{ "type": "Feature", "properties": { "naam": "Waal en Weidebad", "adres": "Molenweg 35b", "postcode": "2995 BK", "plaats": "Heerjansdam" }, "geometry": { "type": "Point", "coordinates": [ 4.56987361556858, 51.842389826612425 ] } },
{ "type": "Feature", "properties": { "naam": "Recreatiecentrum Oostervant", "adres": "Oostervantstraat 25", "postcode": "3021 PT", "plaats": "Rotterdam" }, "geometry": { "type": "Point", "coordinates": [ 4.46109045077939, 51.920171178129721 ] } },
{ "type": "Feature", "properties": { "naam": "Sportcentrum West", "adres": "Spaanseweg 2", "postcode": "3028 HW", "plaats": "Rotterdam" }, "geometry": { "type": "Point", "coordinates": [ 4.428693428547902, 51.917853016518279 ] } },
{ "type": "Feature", "properties": { "naam": "Vavn Maanenbad", "adres": "Van Maanenstraat 8", "postcode": "3038 CZ", "plaats": "Rotterdam" }, "geometry": { "type": "Point", "coordinates": [ 4.464448845264601, 51.932188578269376 ] } },
{ "type": "Feature", "properties": { "naam": "Zwembad Overschie", "adres": "Burgemeester Koningssingel 45", "postcode": "3042 NK", "plaats": "Rotterdam" }, "geometry": { "type": "Point", "coordinates": [ 4.430153630923499, 51.931878432170059 ] } },
{ "type": "Feature", "properties": { "naam": "Sportcentrum De Wilgenring", "adres": "Melanchtonweg 70", "postcode": "3052 KV", "plaats": "Rotterdam" }, "geometry": { "type": "Point", "coordinates": [ 4.471946334328381, 51.948876319865533 ] } },
{ "type": "Feature", "properties": { "naam": "Oostelijk zwembad", "adres": "Gerdesiaweg 480", "postcode": "3061 RA", "plaats": "Rotterdam" }, "geometry": { "type": "Point", "coordinates": [ 4.498365891960877, 51.925906124122889 ] } },
{ "type": "Feature", "properties": { "naam": "Het Alexanderhof", "adres": "Bramanteplein 2", "postcode": "3066 BH", "plaats": "Rotterdam" }, "geometry": { "type": "Point", "coordinates": [ 4.551445903694728, 51.936884114915983 ] } },
{ "type": "Feature", "properties": { "naam": "Recreatiecentrum De Zevenkampse ring", "adres": "Zevenkampse Ring 301", "postcode": "3068 HG", "plaats": "Rotterdam" }, "geometry": { "type": "Point", "coordinates": [ 4.572162474196227, 51.96446277208171 ] } },
{ "type": "Feature", "properties": { "naam": "Zwembad IJsselmonde", "adres": "Dwarsdijk 80", "postcode": "3078 JD", "plaats": "Rotterdam" }, "geometry": { "type": "Point", "coordinates": [ 4.54184058998325, 51.891683286833604 ] } },
{ "type": "Feature", "properties": { "naam": "Zwemcentrum Rotterdam", "adres": "Annie M.G. Schmidtplein 8", "postcode": "3083 NZ", "plaats": "Rotterdam" }, "geometry": { "type": "Point", "coordinates": [ 4.487657921693262, 51.887784306749026 ] } },
{ "type": "Feature", "properties": { "naam": "Zwembad Zuid", "adres": "Westfrankelandsedijk 3", "postcode": "3115 HG", "plaats": "Schiedam" }, "geometry": { "type": "Point", "coordinates": [ 4.395677428029997, 51.90618127656262 ] } },
{ "type": "Feature", "properties": { "naam": "Sport en Recreatiebad Groenoord", "adres": "Prinses Beatrixlaan 2", "postcode": "3121 JN", "plaats": "Schiedam" }, "geometry": { "type": "Point", "coordinates": [ 4.377788687521988, 51.928150548521039 ] } },
{ "type": "Feature", "properties": { "naam": "zwem- en recreatiebad De Kulk", "adres": "Westlandseweg 200", "postcode": "3131 HX", "plaats": "Vlaardingen" }, "geometry": { "type": "Point", "coordinates": [ 4.340009994566985, 51.916494060160908 ] } },
{ "type": "Feature", "properties": { "naam": "Sport- en recreatiebad Dol-fijn", "adres": "Sportlaan 8", "postcode": "3141 XN", "plaats": "Maassluis" }, "geometry": { "type": "Point", "coordinates": [ 4.270903821640473, 51.920667097483012 ] } },
{ "type": "Feature", "properties": { "naam": "Recreatiebad Hoek van Holland", "adres": "De Cordesstraat 160", "postcode": "3151 BN", "plaats": "Hoek van Holland" }, "geometry": { "type": "Point", "coordinates": [ 4.137510907294007, 51.975920058927308 ] } },
{ "type": "Feature", "properties": { "naam": "Vereniging Zwembad Rhoon", "adres": "Sportlaan 3", "postcode": "3161 TS", "plaats": "Rhoon" }, "geometry": { "type": "Point", "coordinates": [ 4.42597927062478, 51.853758428060956 ] } },
{ "type": "Feature", "properties": { "naam": "Zwem en recreatiebad Albrandswaard", "adres": "Albrandswaardsedijk 188", "postcode": "3172 XB", "plaats": "Poortugaal" }, "geometry": { "type": "Point", "coordinates": [ 4.421035336255124, 51.845367178844889 ] } },
{ "type": "Feature", "properties": { "naam": "Zwembad Sportcentrum De Rozenburcht", "adres": "Zuidzijde 35", "postcode": "3181 LR", "plaats": "Rozenburg" }, "geometry": { "type": "Point", "coordinates": [ 4.238497200211975, 51.901999218784376 ] } },
{ "type": "Feature", "properties": { "naam": "Zwembad Hoogvliet", "adres": "Middenbaan-Zuid 400", "postcode": "3191 AH", "plaats": "Rotterdam" }, "geometry": { "type": "Point", "coordinates": [ 4.357579062507765, 51.863398976657408 ] } },
{ "type": "Feature", "properties": { "naam": "Pernis", "adres": "Ring 220", "postcode": "3195 XR", "plaats": "Pernis Rotterdam" }, "geometry": { "type": "Point", "coordinates": [ 4.388003716588675, 51.885280079875734 ] } },
{ "type": "Feature", "properties": { "naam": "Falck Nutec", "adres": "Beerweg 101", "postcode": "3199 LM", "plaats": "Maasvlakte Rotterdam" }, "geometry": { "type": "Point", "coordinates": [ 4.074975920583249, 51.93622582754832 ] } },
{ "type": "Feature", "properties": { "naam": "Rivierabad", "adres": "Groene Kruisweg 21", "postcode": "3202 ST", "plaats": "Spijkenisse" }, "geometry": { "type": "Point", "coordinates": [ 4.322688632866247, 51.853649437193724 ] } },
{ "type": "Feature", "properties": { "naam": "Zwembad 't Molengors", "adres": "Molendijk 21a ", "postcode": "3214 VG", "plaats": "Zuidland" }, "geometry": { "type": "Point", "coordinates": [ 4.265594899860178, 51.821728020745574 ] } },
{ "type": "Feature", "properties": { "naam": "Het Bernissebad", "adres": "Meeldijk 7", "postcode": "3218 LH", "plaats": "Heenvliet" }, "geometry": { "type": "Point", "coordinates": [ 4.234808610988877, 51.86901813938956 ] } },
{ "type": "Feature", "properties": { "naam": "De Eendraght", "adres": "Sportlaan 2", "postcode": "3223 EV", "plaats": "Hellevoetsluis" }, "geometry": { "type": "Point", "coordinates": [ 4.138593305873894, 51.836023846847503 ] } },
{ "type": "Feature", "properties": { "naam": "Sportcomplex Dukdalf", "adres": "Reede 2a", "postcode": "3232 CV", "plaats": "Brielle" }, "geometry": { "type": "Point", "coordinates": [ 4.159236828884369, 51.895804093488131 ] } },
{ "type": "Feature", "properties": { "naam": "De Meander", "adres": "Vlinderslag 3", "postcode": "3233 GX", "plaats": "Oostvoorne" }, "geometry": { "type": "Point", "coordinates": [ 4.105373993326931, 51.908586769873772 ] } },
{ "type": "Feature", "properties": { "naam": "Recreatiecentrum de Staver", "adres": "Olympiaweg 32", "postcode": "3245 DL", "plaats": "Sommelsdijk" }, "geometry": { "type": "Point", "coordinates": [ 4.157137120139519, 51.750461883487922 ] } },
{ "type": "Feature", "properties": { "naam": "De Gooije", "adres": "Hondsgalgweg 1", "postcode": "3247 XW", "plaats": "Dirksland" }, "geometry": { "type": "Point", "coordinates": [ 4.096256961391572, 51.744674248853471 ] } },
{ "type": "Feature", "properties": { "naam": "'t Zuiderdiep", "adres": "Zuiderdiepstraatweg 4", "postcode": "3251 LW", "plaats": "Stellendam" }, "geometry": { "type": "Point", "coordinates": [ 4.031265995323078, 51.810714335252946 ] } },
{ "type": "Feature", "properties": { "naam": "Center Parc's Port Zelande", "adres": "Port Zelande 2", "postcode": "3253 MG", "plaats": "Ouddorp" }, "geometry": { "type": "Point", "coordinates": [ 3.859935471876865, 51.75618966887987 ] } },
{ "type": "Feature", "properties": { "naam": "De Boogerd", "adres": "Hortensiastraat 5", "postcode": "3261 BG", "plaats": "Oud-Beijerland" }, "geometry": { "type": "Point", "coordinates": [ 4.424229781426495, 51.82085373603168 ] } },
{ "type": "Feature", "properties": { "naam": "Sportfondsen-Cromstrijen de Waterstee", "adres": "Nassaustraat 2", "postcode": "3281 BV", "plaats": "Numansdorp" }, "geometry": { "type": "Point", "coordinates": [ 4.431639902065132, 51.727869694247786 ] } },
{ "type": "Feature", "properties": { "naam": "zwembad 't Centrum", "adres": "Kerkstraat 103", "postcode": "3286 AK", "plaats": "Klaaswaal" }, "geometry": { "type": "Point", "coordinates": [ 4.44399945203259, 51.76957972251558 ] } },
{ "type": "Feature", "properties": { "naam": "Apollo", "adres": "Sportlaan 4", "postcode": "3291 TN", "plaats": "Strijen" }, "geometry": { "type": "Point", "coordinates": [ 4.558330222256926, 51.74335122806616 ] } },
{ "type": "Feature", "properties": { "naam": "Zwembad De Wellen", "adres": "Schenkeltje 7b", "postcode": "3295 KK", "plaats": "'s-Gravendeel" }, "geometry": { "type": "Point", "coordinates": [ 4.618890072592905, 51.775377316533245 ] } },
{ "type": "Feature", "properties": { "naam": "Stichting het Wantijbad Dordrecht", "adres": "Badweg 12", "postcode": "3312 AB", "plaats": "Dordrecht" }, "geometry": { "type": "Point", "coordinates": [ 4.69412767240134, 51.815567000776888 ] } },
{ "type": "Feature", "properties": { "naam": "Sportboulevard Dordrecht", "adres": "Fanny Blankers-Koenweg 10", "postcode": "3318 AX", "plaats": "Dordrecht" }, "geometry": { "type": "Point", "coordinates": [ 4.678669404029395, 51.793308615101772 ] } },
{ "type": "Feature", "properties": { "naam": "Zwembad de Dubbel", "adres": "Gravensingel 102", "postcode": "3319 ET", "plaats": "Dordrecht" }, "geometry": { "type": "Point", "coordinates": [ 4.709349559414124, 51.791853956501797 ] } },
{ "type": "Feature", "properties": { "naam": "Sportfondsen De Hoge Devel", "adres": "Parklaan 3", "postcode": "3335 LM", "plaats": "Zwijndrecht" }, "geometry": { "type": "Point", "coordinates": [ 4.624033642084546, 51.819096133826172 ] } },
{ "type": "Feature", "properties": { "naam": "Zwembad de Louwert", "adres": "Hoge kade 70", "postcode": "3341 BE", "plaats": "Hendrik-Ido-Ambacht" }, "geometry": { "type": "Point", "coordinates": [ 4.639215688224522, 51.842915008113337 ] } },
{ "type": "Feature", "properties": { "naam": "Sportcentrum Papendrecht (Zwembad de Hooght)", "adres": "Burgemeester Keijzerweg 110", "postcode": "3353 CV", "plaats": "Papendrecht" }, "geometry": { "type": "Point", "coordinates": [ 4.697058212285379, 51.832554824384381 ] } },
{ "type": "Feature", "properties": { "naam": "Bronbad De Lockhorst", "adres": "Sportlaan 1", "postcode": "3364 AT", "plaats": "Sliedrecht" }, "geometry": { "type": "Point", "coordinates": [ 4.783023588353175, 51.827914238907816 ] } },
{ "type": "Feature", "properties": { "naam": "De Duikelaar", "adres": "Sluisweg 144", "postcode": "3371 EX", "plaats": "Hardinxveld-Giessendam" }, "geometry": { "type": "Point", "coordinates": [ 4.855454435962168, 51.829208476060231 ] } },
{ "type": "Feature", "properties": { "naam": "De Doetse Kom", "adres": "A.M.A. Van Langeraadweg 1", "postcode": "3381 LB", "plaats": "Giessenburg" }, "geometry": { "type": "Point", "coordinates": [ 4.899402931306524, 51.846001048601025 ] } },
{ "type": "Feature", "properties": { "naam": "Sportfondsenzwembad de Hooghe Waerd", "adres": "Frankrijkstraat 63", "postcode": "3402 BE", "plaats": "IJsselstein" }, "geometry": { "type": "Point", "coordinates": [ 5.055332342011153, 52.023938199684501 ] } },
{ "type": "Feature", "properties": { "naam": "Lobeke", "adres": "Churchill-laan 21", "postcode": "3411 CE", "plaats": "Lopik" }, "geometry": { "type": "Point", "coordinates": [ 4.953568568497367, 51.975025906990815 ] } },
{ "type": "Feature", "properties": { "naam": "Knopenbad", "adres": "Godfried van Rhenenlaan 55", "postcode": "3417 AM", "plaats": "Montfoort" }, "geometry": { "type": "Point", "coordinates": [ 4.951190788467873, 52.050473428463569 ] } },
{ "type": "Feature", "properties": { "naam": "t Statenbad", "adres": "Statenland 1", "postcode": "3421 GZ", "plaats": "Oudewater" }, "geometry": { "type": "Point", "coordinates": [ 4.87230672934079, 52.018705135812858 ] } },
{ "type": "Feature", "properties": { "naam": "Merwestein", "adres": "Merweplein 1", "postcode": "3432 GN", "plaats": "Nieuwegein" }, "geometry": { "type": "Point", "coordinates": [ 5.092528255566643, 52.026293165209488 ] } },
{ "type": "Feature", "properties": { "naam": "Optisport Woerden bv batensteinbad", "adres": "van helvoortlaan 40", "postcode": "3443 AP", "plaats": "Woerden" }, "geometry": { "type": "Point", "coordinates": [ 4.885939947219635, 52.093177449402859 ] } },
{ "type": "Feature", "properties": { "naam": "Zwembad Fletiomare", "adres": "Burgemeester Middelweerdplaats 1", "postcode": "3454 HG", "plaats": "De Meern" }, "geometry": { "type": "Point", "coordinates": [ 5.025147990940877, 52.090109906641693 ] } },
{ "type": "Feature", "properties": { "naam": "Recreatiecentrum H2o", "adres": "De Uithof 1", "postcode": "3481 WE", "plaats": "Harmelen" }, "geometry": { "type": "Point", "coordinates": [ 4.961895759397535, 52.083786744806638 ] } },
{ "type": "Feature", "properties": { "naam": "Sauna La Mar", "adres": "Jutfaseweg 223A", "postcode": "3522 HS", "plaats": "Utrecht" }, "geometry": { "type": "Point", "coordinates": [ 5.11384162425303, 52.065074413660568 ] } },
{ "type": "Feature", "properties": { "naam": "Aquacenter Den Hommel", "adres": "Kennedylaan 5", "postcode": "3533 KH", "plaats": "Utrecht" }, "geometry": { "type": "Point", "coordinates": [ 5.084261449630359, 52.080955976873028 ] } },
{ "type": "Feature", "properties": { "naam": "De Kwakel", "adres": "Paranádreef 10", "postcode": "3563 AX", "plaats": "Utrecht" }, "geometry": { "type": "Point", "coordinates": [ 5.10350336460841, 52.115500027785771 ] } },
{ "type": "Feature", "properties": { "naam": "Sporthal Bisonsport", "adres": "Bisonspoor 236", "postcode": "3605 JM", "plaats": "Maarssen" }, "geometry": { "type": "Point", "coordinates": [ 5.025845698540971, 52.135591673523678 ] } },
{ "type": "Feature", "properties": { "naam": "'t Kikkerfort", "adres": "schepersweg 14a", "postcode": "3621 JK", "plaats": "Breukelen" }, "geometry": { "type": "Point", "coordinates": [ 4.997963137765713, 52.179067878659474 ] } },
{ "type": "Feature", "properties": { "naam": "Zwem en recreatiepark De Koet", "adres": "Sportweg 3", "postcode": "3628 AZ", "plaats": "Kockengen" }, "geometry": { "type": "Point", "coordinates": [ 4.955487418906311, 52.147641855163926 ] } },
{ "type": "Feature", "properties": { "naam": "Zwembad Dijnselburg", "adres": "Badmeester Schenkpad 8", "postcode": "3705 GK", "plaats": "Zeist" }, "geometry": { "type": "Point", "coordinates": [ 5.240727768914086, 52.105881375305039 ] } },
{ "type": "Feature", "properties": { "naam": "Combibad Brandenburg", "adres": "Oude Brandenburgerweg 67", "postcode": "3721 DV", "plaats": "Bilthoven" }, "geometry": { "type": "Point", "coordinates": [ 5.189688994012892, 52.124546972566314 ] } },
{ "type": "Feature", "properties": { "naam": "Zwembad Blauwkapel", "adres": "Koningin Wilhelminaweg 517", "postcode": "3737 BG", "plaats": "Groenekan" }, "geometry": { "type": "Point", "coordinates": [ 5.142294709243725, 52.120826959900029 ] } },
{ "type": "Feature", "properties": { "naam": "De Trits", "adres": "Goeman Borgesiuslaan 2", "postcode": "3741 CR", "plaats": "Baarn" }, "geometry": { "type": "Point", "coordinates": [ 5.286801891698632, 52.219572836163373 ] } },
{ "type": "Feature", "properties": { "naam": "Bosbad De Vuursche", "adres": "Bosbadlaan 4", "postcode": "3744 KD", "plaats": "Baarn" }, "geometry": { "type": "Point", "coordinates": [ 5.256841109601789, 52.206457296972829 ] } },
{ "type": "Feature", "properties": { "naam": "Zwembad De Duker", "adres": "Bikkersweg 96", "postcode": "3752 WV", "plaats": "Bunschoten-Spakenburg" }, "geometry": { "type": "Point", "coordinates": [ 5.358461067976276, 52.245631619180337 ] } },
{ "type": "Feature", "properties": { "naam": "Optisportcentrum Soest", "adres": "Dalweg 181", "postcode": "3762 AW", "plaats": "Soest" }, "geometry": { "type": "Point", "coordinates": [ 5.2965770135843, 52.176429987576007 ] } },
{ "type": "Feature", "properties": { "naam": "Veluwehal", "adres": "Nieuwe Markt 6", "postcode": "3771 CB", "plaats": "Barneveld" }, "geometry": { "type": "Point", "coordinates": [ 5.585469650758816, 52.142584040585085 ] } },
{ "type": "Feature", "properties": { "naam": "Oosterbosbad", "adres": "Mr. Troelstralaan 20", "postcode": "3771 XL", "plaats": "Barneveld" }, "geometry": { "type": "Point", "coordinates": [ 5.579837047048187, 52.147419920315826 ] } },
{ "type": "Feature", "properties": { "naam": "De Berkenhorst", "adres": "Kerkendelweg 30", "postcode": "3775 KN", "plaats": "Kootwijk" }, "geometry": { "type": "Point", "coordinates": [ 5.794245686951657, 52.189594545345315 ] } },
{ "type": "Feature", "properties": { "naam": "De Heuvelrand", "adres": "Roelenengweg 41", "postcode": "3781 BA", "plaats": "Voorthuizen" }, "geometry": { "type": "Point", "coordinates": [ 5.617170862001941, 52.190899541156199 ] } },
{ "type": "Feature", "properties": { "naam": "Landgoed de IJsvogel", "adres": "Kieftveen 18", "postcode": "3781 PP", "plaats": "Voorthuizen" }, "geometry": { "type": "Point", "coordinates": [ 5.660593062835397, 52.19607380418347 ] } },
{ "type": "Feature", "properties": { "naam": "De Glind", "adres": "Ringlaan 10", "postcode": "3794 MV", "plaats": "De Glind" }, "geometry": { "type": "Point", "coordinates": [ 5.511632807932179, 52.114417971556215 ] } },
{ "type": "Feature", "properties": { "naam": "Liendert", "adres": "Parelhoenstraat 12", "postcode": "3815 AG", "plaats": "Amersfoort" }, "geometry": { "type": "Point", "coordinates": [ 5.397479197135204, 52.168186343845335 ] } },
{ "type": "Feature", "properties": { "naam": "Sportfondsenbad Amersfoort", "adres": "Bisschopsweg 175", "postcode": "3817 BT", "plaats": "Amersfoort" }, "geometry": { "type": "Point", "coordinates": [ 5.394246108716021, 52.151064596819722 ] } },
{ "type": "Feature", "properties": { "naam": "Bosbad Amsersfoort", "adres": "Barchman Wuytierslaan 232", "postcode": "3819 AC", "plaats": "Amersfoort" }, "geometry": { "type": "Point", "coordinates": [ 5.341887994102029, 52.157051125071327 ] } },
{ "type": "Feature", "properties": { "naam": "Hoogland", "adres": "Sportlaan 15", "postcode": "3828 AZ", "plaats": "Hoogland" }, "geometry": { "type": "Point", "coordinates": [ 5.37657332243441, 52.18433758883954 ] } },
{ "type": "Feature", "properties": { "naam": "sport en rekreatiebad octopus", "adres": "bavoortseweg 9", "postcode": "3833 BM", "plaats": "Leusden" }, "geometry": { "type": "Point", "coordinates": [ 5.412101634064865, 52.126102608808125 ] } },
{ "type": "Feature", "properties": { "naam": "Sportcentrum De Sypel", "adres": "Parkweg 4", "postcode": "3842 AD", "plaats": "Harderwijk" }, "geometry": { "type": "Point", "coordinates": [ 5.627083612779031, 52.342440757811552 ] } },
{ "type": "Feature", "properties": { "naam": "Sportcentrum Calluna", "adres": "Herderlaan 51", "postcode": "3851 BC", "plaats": "Ermelo" }, "geometry": { "type": "Point", "coordinates": [ 5.610325899932546, 52.289985443127186 ] } },
{ "type": "Feature", "properties": { "naam": "Bad Bloemendal", "adres": "Bloemendaalseweg 7", "postcode": "3862 RN", "plaats": "Nijkerk" }, "geometry": { "type": "Point", "coordinates": [ 5.503835696028189, 52.225651365619576 ] } },
{ "type": "Feature", "properties": { "naam": "zwembad De Slag", "adres": "Zuiderinslag 2", "postcode": "3871 MR", "plaats": "Hoevelaken" }, "geometry": { "type": "Point", "coordinates": [ 5.447925083598448, 52.17049896359255 ] } },
{ "type": "Feature", "properties": { "naam": "Bosbad Putten", "adres": "Zuiderveldweg 6", "postcode": "3881 LJ", "plaats": "Putten" }, "geometry": { "type": "Point", "coordinates": [ 5.611386167379736, 52.273544835447765 ] } },
{ "type": "Feature", "properties": { "naam": "Het Baken", "adres": "Horsterweg 25", "postcode": "3891 EV", "plaats": "Zeewolde" }, "geometry": { "type": "Point", "coordinates": [ 5.537463936912827, 52.328235379842518 ] } },
{ "type": "Feature", "properties": { "naam": "Zwemvereniging de Breekers", "adres": "Sportlaan 3", "postcode": "3905 AD", "plaats": "Veenendaal" }, "geometry": { "type": "Point", "coordinates": [ 5.54170928234976, 52.026398166992095 ] } },
{ "type": "Feature", "properties": { "naam": "Gastland", "adres": "Groeneweg 58", "postcode": "3911 PG", "plaats": "Rhenen" }, "geometry": { "type": "Point", "coordinates": [ 5.566367086408385, 51.961962912217928 ] } },
{ "type": "Feature", "properties": { "naam": "Zwembad 't Willaer", "adres": "De Breelaan 6", "postcode": "3925 HX", "plaats": "Scherpenzeel" }, "geometry": { "type": "Point", "coordinates": [ 5.485392724001716, 52.085519350650586 ] } },
{ "type": "Feature", "properties": { "naam": "Klein ruwinkel", "adres": "ruwinkelseweg 11", "postcode": "3925 MC", "plaats": "Scherpenzeel" }, "geometry": { "type": "Point", "coordinates": [ 5.513677994603486, 52.083964378746622 ] } },
{ "type": "Feature", "properties": { "naam": "Laco Zwembad Woestduin", "adres": "Mariniersweg 3a", "postcode": "3941 XK", "plaats": "Doorn" }, "geometry": { "type": "Point", "coordinates": [ 5.32884099662794, 52.042969573058755 ] } },
{ "type": "Feature", "properties": { "naam": "Bosbad Leersum", "adres": "Scherpenzeelseweg 45", "postcode": "3956 KB", "plaats": "Leersum" }, "geometry": { "type": "Point", "coordinates": [ 5.438335661522403, 52.017644288581451 ] } },
{ "type": "Feature", "properties": { "naam": "ZwembadWijk", "adres": "Karolingersweg 234", "postcode": "3962 AP", "plaats": "Wijk bij Duurstede" }, "geometry": { "type": "Point", "coordinates": [ 5.342140876450154, 51.978215878780681 ] } },
{ "type": "Feature", "properties": { "naam": "Zwembad de Zwoe", "adres": "Schellingerlaan 20", "postcode": "3971 BX", "plaats": "Driebergen-Rijsenburg" }, "geometry": { "type": "Point", "coordinates": [ 5.294065708217755, 52.062613174548311 ] } },
{ "type": "Feature", "properties": { "naam": "De Rumpst", "adres": "Rumpsterweg 15", "postcode": "3981 AK", "plaats": "Bunnik" }, "geometry": { "type": "Point", "coordinates": [ 5.215263924902028, 52.062272948654865 ] } },
{ "type": "Feature", "properties": { "naam": "Optisport Houten", "adres": "Hefbrug 3", "postcode": "3991 LB", "plaats": "Houten" }, "geometry": { "type": "Point", "coordinates": [ 5.158930550725158, 52.022620598331123 ] } },
{ "type": "Feature", "properties": { "naam": "ZwemschoolDe Startsprong", "adres": "Kruisboog 36", "postcode": "3994 AE", "plaats": "Houten" }, "geometry": { "type": "Point", "coordinates": [ 5.183505060655402, 52.029919081322809 ] } },
{ "type": "Feature", "properties": { "naam": "sportplaza Tiel", "adres": "Laan van Westroijen 99", "postcode": "4002 GW", "plaats": "Tiel" }, "geometry": { "type": "Point", "coordinates": [ 5.418031292855951, 51.895591570628547 ] } },
{ "type": "Feature", "properties": { "naam": "Instructiebad Maurik B.V.", "adres": "Raadhuisstraat 26", "postcode": "4021 EH", "plaats": "Maurik" }, "geometry": { "type": "Point", "coordinates": [ 5.422646439644253, 51.962894197518168 ] } },
{ "type": "Feature", "properties": { "naam": "Sportcentrum Helsdingen", "adres": "Westelijke Parallelweg 1", "postcode": "4133 NH", "plaats": "Vianen" }, "geometry": { "type": "Point", "coordinates": [ 5.082437668773479, 51.986710442530963 ] } },
{ "type": "Feature", "properties": { "naam": "Laco Leerdam BV", "adres": "Tiendweg 9", "postcode": "4142 EG", "plaats": "Leerdam" }, "geometry": { "type": "Point", "coordinates": [ 5.087736067121065, 51.890792135017477 ] } },
{ "type": "Feature", "properties": { "naam": "Laco Geldermalsen b.v.", "adres": "van Hogendorpstraat 17", "postcode": "4191 HE", "plaats": "Geldermalsen" }, "geometry": { "type": "Point", "coordinates": [ 5.29450373910869, 51.878876942548843 ] } },
{ "type": "Feature", "properties": { "naam": "Cariba-bad", "adres": "Bataafsekade 8", "postcode": "4204 AX", "plaats": "Gorinchem" }, "geometry": { "type": "Point", "coordinates": [ 4.945053632522046, 51.842092059889495 ] } },
{ "type": "Feature", "properties": { "naam": "De Hoge Kamp", "adres": "'t Hoog 14A", "postcode": "4221 LM", "plaats": "Hoogblokland" }, "geometry": { "type": "Point", "coordinates": [ 4.979096142588627, 51.874178128655714 ] } },
{ "type": "Feature", "properties": { "naam": "Zwembad Spettertuin", "adres": "Van Brederodestraat 20B", "postcode": "4225 RD", "plaats": "Noordeloos" }, "geometry": { "type": "Point", "coordinates": [ 4.939362610871679, 51.906580397710982 ] } },
{ "type": "Feature", "properties": { "naam": "De Tobbe", "adres": "Hoefpad 1", "postcode": "4241 DT", "plaats": "Arkel" }, "geometry": { "type": "Point", "coordinates": [ 4.992652180525202, 51.860058710021129 ] } },
{ "type": "Feature", "properties": { "naam": "Het Spetterbad", "adres": "Leerbroekseweg 5", "postcode": "4245 KR", "plaats": "Leerbroek" }, "geometry": { "type": "Point", "coordinates": [ 5.04624721976649, 51.910039988856916 ] } },
{ "type": "Feature", "properties": { "naam": "Zwembad Werkina", "adres": "Werkina 1", "postcode": "4251 HK", "plaats": "Werkendam" }, "geometry": { "type": "Point", "coordinates": [ 4.904554174307111, 51.805421300425252 ] } },
{ "type": "Feature", "properties": { "naam": "Zwembad Bijtelskil", "adres": "Griendweg 18", "postcode": "4254 CR", "plaats": "Sleeuwijk" }, "geometry": { "type": "Point", "coordinates": [ 4.956016931310268, 51.81553596273605 ] } },
{ "type": "Feature", "properties": { "naam": "Veldzicht", "adres": "Lange Pad 3", "postcode": "4265 TD", "plaats": "Genderen" }, "geometry": { "type": "Point", "coordinates": [ 5.086559467121386, 51.742857718239541 ] } },
{ "type": "Feature", "properties": { "naam": "De Kurenpolder Recreatie b.v.", "adres": "Kurenpolderweg 35", "postcode": "4273 LA", "plaats": "Hank" }, "geometry": { "type": "Point", "coordinates": [ 4.886588695656496, 51.727100558009056 ] } },
{ "type": "Feature", "properties": { "naam": "Zwembad de Kikvors", "adres": "Jagerspad 26", "postcode": "4283 GM", "plaats": "Giessen" }, "geometry": { "type": "Point", "coordinates": [ 5.02909636173789, 51.793445345176451 ] } },
{ "type": "Feature", "properties": { "naam": "Laco Sportcentrum Schouwen-Duiveland", "adres": "Lange Blokweg 27A", "postcode": "4301 NW", "plaats": "Zierikzee" }, "geometry": { "type": "Point", "coordinates": [ 3.919084143388688, 51.658453765655722 ] } },
{ "type": "Feature", "properties": { "naam": "Zwembad Dol-fijn", "adres": "Wethouder van Klinkenstraat 9", "postcode": "4306 CT", "plaats": "Nieuwerkerk" }, "geometry": { "type": "Point", "coordinates": [ 4.000864403681939, 51.650901800231097 ] } },
{ "type": "Feature", "properties": { "naam": "Vakantiepark Aquadelta", "adres": "Hageweg \"'t Centrum\" 269", "postcode": "4311 NS", "plaats": "Bruinisse" }, "geometry": { "type": "Point", "coordinates": [ 4.083815669754479, 51.667442809348557 ] } },
{ "type": "Feature", "properties": { "naam": "Gemeentelijk Zwembad Juliana", "adres": "Koningin Julianalaan 2", "postcode": "4341 EV", "plaats": "Arnemuiden" }, "geometry": { "type": "Point", "coordinates": [ 3.678536422539453, 51.502048506855701 ] } },
{ "type": "Feature", "properties": { "naam": "De Goudvijver", "adres": "Zandput 1", "postcode": "4353 BA", "plaats": "Serooskerke" }, "geometry": { "type": "Point", "coordinates": [ 3.593687476420492, 51.550322600059019 ] } },
{ "type": "Feature", "properties": { "naam": "De Schakel", "adres": "Houtenburgseweg 42", "postcode": "4374 NM", "plaats": "Zoutelande" }, "geometry": { "type": "Point", "coordinates": [ 3.476113726172864, 51.508189009846411 ] } },
{ "type": "Feature", "properties": { "naam": "Zwemschool Zeeland", "adres": "Stroomweg 22", "postcode": "4382 WX", "plaats": "Vlissingen" }, "geometry": { "type": "Point", "coordinates": [ 3.590888896417848, 51.456984961274692 ] } },
{ "type": "Feature", "properties": { "naam": "Vrijburgbad", "adres": "Sportweg 2", "postcode": "4387 PM", "plaats": "Vlissingen" }, "geometry": { "type": "Point", "coordinates": [ 3.595132113898885, 51.474590746549332 ] } },
{ "type": "Feature", "properties": { "naam": "St.Zwembad Den Inkel", "adres": "Blauwhoefseweg 10", "postcode": "4416 RC", "plaats": "Kruiningen" }, "geometry": { "type": "Point", "coordinates": [ 4.04411468283331, 51.435447459471568 ] } },
{ "type": "Feature", "properties": { "naam": "Optisport Kapelle", "adres": "Vroonlandseweg 45", "postcode": "4421 BW", "plaats": "Kapelle" }, "geometry": { "type": "Point", "coordinates": [ 3.968444440642708, 51.482602347507211 ] } },
{ "type": "Feature", "properties": { "naam": "Stelleplas", "adres": "Stelleweg 3", "postcode": "4451 RL", "plaats": "Heinkenszand" }, "geometry": { "type": "Point", "coordinates": [ 3.797246021239525, 51.482697456135384 ] } },
{ "type": "Feature", "properties": { "naam": "Sportpunt Zeeland", "adres": "Zwembadweg 3", "postcode": "4463 AB", "plaats": "Goes" }, "geometry": { "type": "Point", "coordinates": [ 3.89565945057397, 51.509914443650558 ] } },
{ "type": "Feature", "properties": { "naam": "Wissebad", "adres": "Julianastraat 24B", "postcode": "4491 GB", "plaats": "Wissenkerke" }, "geometry": { "type": "Point", "coordinates": [ 3.744504421757471, 51.583960889655295 ] } },
{ "type": "Feature", "properties": { "naam": "Roompot Zwemparadijs", "adres": "Sophiaweg 1", "postcode": "4493 PS", "plaats": "Kamperland" }, "geometry": { "type": "Point", "coordinates": [ 3.715798194375072, 51.588750341557443 ] } },
{ "type": "Feature", "properties": { "naam": "De Eenhoorn", "adres": "Baljuw Veltersweg 15", "postcode": "4501 AV", "plaats": "Oostburg" }, "geometry": { "type": "Point", "coordinates": [ 3.480813895082411, 51.323810491063057 ] } },
{ "type": "Feature", "properties": { "naam": "Park Zeebad", "adres": "Nieuwesluisweg 1", "postcode": "4511 RG", "plaats": "Breskens" }, "geometry": { "type": "Point", "coordinates": [ 3.543510677423818, 51.401591653099842 ] } },
{ "type": "Feature", "properties": { "naam": "Aqua Claire", "adres": "Smokkelweg 1", "postcode": "4515 LL", "plaats": "IJzendijke" }, "geometry": { "type": "Point", "coordinates": [ 3.684701470948085, 51.290262170350843 ] } },
{ "type": "Feature", "properties": { "naam": "Zwembad Aardenburg", "adres": "Herendreef 57", "postcode": "4527 AH", "plaats": "Aardenburg" }, "geometry": { "type": "Point", "coordinates": [ 3.433128759414647, 51.272481781541877 ] } },
{ "type": "Feature", "properties": { "naam": "Scheldorado", "adres": "Stuvesande 2", "postcode": "4532 MH", "plaats": "Terneuzen" }, "geometry": { "type": "Point", "coordinates": [ 3.839214592407461, 51.335410592572103 ] } },
{ "type": "Feature", "properties": { "naam": "Vliegende Vaart", "adres": "Vliegende Vaart 2", "postcode": "4537 DH", "plaats": "Terneuzen" }, "geometry": { "type": "Point", "coordinates": [ 3.843357530670336, 51.318132639526027 ] } },
{ "type": "Feature", "properties": { "naam": "Zwembad Zaamslag", "adres": "Sportlaan 1a", "postcode": "4543 AC", "plaats": "Zaamslag" }, "geometry": { "type": "Point", "coordinates": [ 3.910889533902234, 51.314917997293513 ] } },
{ "type": "Feature", "properties": { "naam": "t Sasse Zwembad", "adres": "Zwembadstraat 1", "postcode": "4551 CS", "plaats": "Sas van Gent" }, "geometry": { "type": "Point", "coordinates": [ 3.806324601342243, 51.232759248526321 ] } },
{ "type": "Feature", "properties": { "naam": "zwembad reynaertland", "adres": "kreekzoom 2", "postcode": "4561 GX", "plaats": "Hulst" }, "geometry": { "type": "Point", "coordinates": [ 4.05657166536854, 51.27177005004085 ] } },
{ "type": "Feature", "properties": { "naam": "t Plaatje", "adres": "Sportlaan 9", "postcode": "4571 CA", "plaats": "Axel" }, "geometry": { "type": "Point", "coordinates": [ 3.92170959146635, 51.261078772648318 ] } },
{ "type": "Feature", "properties": { "naam": "De Koewacht", "adres": "Berlaersstraat 1", "postcode": "4576 AD", "plaats": "Koewacht" }, "geometry": { "type": "Point", "coordinates": [ 3.96777315962659, 51.227856753844954 ] } },
{ "type": "Feature", "properties": { "naam": "zwembad De Honte", "adres": "Emmastraat 19", "postcode": "4587 BL", "plaats": "Kloosterzande" }, "geometry": { "type": "Point", "coordinates": [ 4.01836637880823, 51.369927253341785 ] } },
{ "type": "Feature", "properties": { "naam": "Zwembad De Schelp", "adres": "De Boulevard Noord 45", "postcode": "4617 HD", "plaats": "Bergen op Zoom" }, "geometry": { "type": "Point", "coordinates": [ 4.277189614016534, 51.485451870820654 ] } },
{ "type": "Feature", "properties": { "naam": "De Plantage", "adres": "Sportlaan 4", "postcode": "4631 CR", "plaats": "Hoogerheide" }, "geometry": { "type": "Point", "coordinates": [ 4.335394583249214, 51.419065314288247 ] } },
{ "type": "Feature", "properties": { "naam": "Familyland", "adres": "Groene Papegaai 19", "postcode": "4631 RX", "plaats": "Hoogerheide" }, "geometry": { "type": "Point", "coordinates": [ 4.346381893263195, 51.415774908454253 ] } },
{ "type": "Feature", "properties": { "naam": "Zwembad de Meermin", "adres": "Krommeweg 2c", "postcode": "4651 RN", "plaats": "Steenbergen" }, "geometry": { "type": "Point", "coordinates": [ 4.325535310652332, 51.582455321243778 ] } },
{ "type": "Feature", "properties": { "naam": "Sport- en Recreatiecentrum de Knotwilg", "adres": "Wipstraat 2", "postcode": "4651 XW", "plaats": "Steenbergen" }, "geometry": { "type": "Point", "coordinates": [ 4.325045763562748, 51.581794660380517 ] } },
{ "type": "Feature", "properties": { "naam": "zwembad de Melanen", "adres": "Langstraat 7", "postcode": "4661 SE", "plaats": "Halsteren" }, "geometry": { "type": "Point", "coordinates": [ 4.286781348335105, 51.521068562942212 ] } },
{ "type": "Feature", "properties": { "naam": "Zwembad aquadintel", "adres": "Dorus Rijkersstraat 2", "postcode": "4671 AA", "plaats": "Dinteloord" }, "geometry": { "type": "Point", "coordinates": [ 4.366735105876098, 51.630968167062314 ] } },
{ "type": "Feature", "properties": { "naam": "De Spetter", "adres": "Zoekweg 4", "postcode": "4691 HT", "plaats": "Tholen" }, "geometry": { "type": "Point", "coordinates": [ 4.213664141924588, 51.536268153247754 ] } },
{ "type": "Feature", "properties": { "naam": "Zwembad Haestinge", "adres": "Sportlaan 2", "postcode": "4695 BA", "plaats": "Sint-Maartensdijk" }, "geometry": { "type": "Point", "coordinates": [ 4.080497762690884, 51.546954674743773 ] } },
{ "type": "Feature", "properties": { "naam": "Zwembad Oud Kempen", "adres": "Buurtweg 3", "postcode": "4696 RV", "plaats": "Stavenisse" }, "geometry": { "type": "Point", "coordinates": [ 4.019758024124615, 51.590875460832365 ] } },
{ "type": "Feature", "properties": { "naam": "Zwembad de Stok", "adres": "De stok 1", "postcode": "4703 SZ", "plaats": "Roosendaal" }, "geometry": { "type": "Point", "coordinates": [ 4.43034048315433, 51.534108497209672 ] } },
{ "type": "Feature", "properties": { "naam": "Laco De Vijfsprong", "adres": "Kozijnenhoek 21", "postcode": "4715 RE", "plaats": "Rucphen" }, "geometry": { "type": "Point", "coordinates": [ 4.574589699840472, 51.538823314860196 ] } },
{ "type": "Feature", "properties": { "naam": "Laco De Baarlebossche", "adres": "De Baarlebossche 2", "postcode": "4731 GS", "plaats": "Oudenbosch" }, "geometry": { "type": "Point", "coordinates": [ 4.536685640269442, 51.590078631673173 ] } },
{ "type": "Feature", "properties": { "naam": "Splesj", "adres": "Oude Antwerpsepostbaan 81b", "postcode": "4741 SG", "plaats": "Hoeven" }, "geometry": { "type": "Point", "coordinates": [ 4.561928188398203, 51.57007922586341 ] } },
{ "type": "Feature", "properties": { "naam": "Blankershove", "adres": "Hellestraat 2", "postcode": "4751 CM", "plaats": "Oud Gastel" }, "geometry": { "type": "Point", "coordinates": [ 4.452673090518795, 51.588457621893511 ] } },
{ "type": "Feature", "properties": { "naam": "Zwembad De Bosselaar", "adres": "Vaandelweg 1", "postcode": "4761 BH", "plaats": "Zevenbergen" }, "geometry": { "type": "Point", "coordinates": [ 4.608626250189029, 51.641205254418587 ] } },
{ "type": "Feature", "properties": { "naam": "Sportpark de Knip", "adres": "Galgenweg 62", "postcode": "4761 KN", "plaats": "Zevenbergen" }, "geometry": { "type": "Point", "coordinates": [ 4.594000353808338, 51.652244291434812 ] } },
{ "type": "Feature", "properties": { "naam": "De Niervaert", "adres": "Molenvliet 7", "postcode": "4791 GB", "plaats": "Klundert" }, "geometry": { "type": "Point", "coordinates": [ 4.536917401948231, 51.670100109157715 ] } },
{ "type": "Feature", "properties": { "naam": "Het Volkerakkertje", "adres": "Prinses Margrietstraat 11", "postcode": "4793 CB", "plaats": "Fijnaart" }, "geometry": { "type": "Point", "coordinates": [ 4.462621167900951, 51.639172065663217 ] } },
{ "type": "Feature", "properties": { "naam": "Zwembad Sonsbeek", "adres": "Pieter-Christiaanstraat 2", "postcode": "4811 PS", "plaats": "Breda" }, "geometry": { "type": "Point", "coordinates": [ 4.767831152363182, 51.57993564480347 ] } },
{ "type": "Feature", "properties": { "naam": "ZwemPerfekt", "adres": "Hambroeklaan 1", "postcode": "4822 ZZ", "plaats": "Breda" }, "geometry": { "type": "Point", "coordinates": [ 4.723237523905897, 51.606468674553618 ] } },
{ "type": "Feature", "properties": { "naam": "Wisselaar", "adres": "Terheijdenseweg 494", "postcode": "4826 AB", "plaats": "Breda" }, "geometry": { "type": "Point", "coordinates": [ 4.774182950071614, 51.613838879390087 ] } },
{ "type": "Feature", "properties": { "naam": "Wolfslaar", "adres": "Wolfslaardreef 105", "postcode": "4834 SN", "plaats": "Breda" }, "geometry": { "type": "Point", "coordinates": [ 4.80313405094421, 51.559811620664753 ] } },
{ "type": "Feature", "properties": { "naam": "Het Puzzelbad", "adres": "Mr. Aalbersestraat 13", "postcode": "4844 AW", "plaats": "Terheijden" }, "geometry": { "type": "Point", "coordinates": [ 4.751419859902478, 51.641223073433522 ] } },
{ "type": "Feature", "properties": { "naam": "Het Weidebad", "adres": "Alphensebaan 17", "postcode": "4861 RA", "plaats": "Chaam" }, "geometry": { "type": "Point", "coordinates": [ 4.905983919109802, 51.495794877631631 ] } },
{ "type": "Feature", "properties": { "naam": "De Banakker", "adres": "Frederik van Eedenstraat 23", "postcode": "4873 AW", "plaats": "Etten-Leur" }, "geometry": { "type": "Point", "coordinates": [ 4.642530209527779, 51.567546197364415 ] } },
{ "type": "Feature", "properties": { "naam": "Stg Zwembad De Wildert", "adres": "Wildertsedijk 61", "postcode": "4881 ET", "plaats": "Zundert" }, "geometry": { "type": "Point", "coordinates": [ 4.663480281942086, 51.464808399185323 ] } },
{ "type": "Feature", "properties": { "naam": "De Waranda", "adres": "Wilhelminakanaal Zuid 66", "postcode": "4903 RA", "plaats": "Oosterhout" }, "geometry": { "type": "Point", "coordinates": [ 4.846171611725747, 51.634382578722516 ] } },
{ "type": "Feature", "properties": { "naam": "Zwemvoorziening Arkendonk", "adres": "Zwanendonk 42", "postcode": "4907 ZJ", "plaats": "Oosterhout" }, "geometry": { "type": "Point", "coordinates": [ 4.86582636088491, 51.658615405560695 ] } },
{ "type": "Feature", "properties": { "naam": "Zwemschool van Geloof", "adres": "Wilhelminastraat 35A", "postcode": "4921 KC", "plaats": "Made" }, "geometry": { "type": "Point", "coordinates": [ 4.793167825877185, 51.683356816344478 ] } },
{ "type": "Feature", "properties": { "naam": "De Randroet", "adres": "Stuivezandsestraat 50", "postcode": "4921 XR", "plaats": "Made" }, "geometry": { "type": "Point", "coordinates": [ 4.781807618345244, 51.666723446296295 ] } },
{ "type": "Feature", "properties": { "naam": "Zwembad de Schans", "adres": "Van der Waalstraat 2", "postcode": "4931 ER", "plaats": "Geertruidenberg" }, "geometry": { "type": "Point", "coordinates": [ 4.844406902253078, 51.699704176863108 ] } },
{ "type": "Feature", "properties": { "naam": "Zwembad De Ganzewiel", "adres": "Kerklaan 18", "postcode": "4941 TV", "plaats": "Raamsdonksveer" }, "geometry": { "type": "Point", "coordinates": [ 4.886614555523107, 51.693393337653951 ] } },
{ "type": "Feature", "properties": { "naam": "Recreatiebad Stappegoor", "adres": "Stappegoorweg 1", "postcode": "5022 DA", "plaats": "Tilburg" }, "geometry": { "type": "Point", "coordinates": [ 5.07669670076403, 51.54288986156724 ] } },
{ "type": "Feature", "properties": { "naam": "Amarant Dagcentra Daniël de Brouwerpark", "adres": "Bredaseweg 570", "postcode": "5036 NB", "plaats": "Tilburg" }, "geometry": { "type": "Point", "coordinates": [ 5.005352108329136, 51.562130107488798 ] } },
{ "type": "Feature", "properties": { "naam": "'t Hoogeveer", "adres": "Bredaseweg 375", "postcode": "5037 LD", "plaats": "Tilburg" }, "geometry": { "type": "Point", "coordinates": [ 5.05072761042233, 51.557478524046822 ] } },
{ "type": "Feature", "properties": { "naam": "Reeshof", "adres": "Heereveldendreef 10", "postcode": "5043 EX", "plaats": "Tilburg" }, "geometry": { "type": "Point", "coordinates": [ 5.006198631287885, 51.579840559710455 ] } },
{ "type": "Feature", "properties": { "naam": "Laco zwembad Waterspoor", "adres": "Fabriekstraat 14", "postcode": "5051 HP", "plaats": "Goirle" }, "geometry": { "type": "Point", "coordinates": [ 5.06085870380512, 51.516168312226974 ] } },
{ "type": "Feature", "properties": { "naam": "Thermen Goirle", "adres": "De Schietberg 1", "postcode": "5051 NZ", "plaats": "Goirle" }, "geometry": { "type": "Point", "coordinates": [ 5.047731134249326, 51.514629800016166 ] } },
{ "type": "Feature", "properties": { "naam": "De Leye", "adres": "Baerdijk 43", "postcode": "5061 GG", "plaats": "Oisterwijk" }, "geometry": { "type": "Point", "coordinates": [ 5.190080762006095, 51.577652306389027 ] } },
{ "type": "Feature", "properties": { "naam": "De groene Wellen", "adres": "Groenstraat 39", "postcode": "5071 EA", "plaats": "Udenhout" }, "geometry": { "type": "Point", "coordinates": [ 5.142393560375264, 51.616644697006571 ] } },
{ "type": "Feature", "properties": { "naam": "Laco sportcentrum De Hispohal", "adres": "J. F. Kennedylaan 1", "postcode": "5081 GK", "plaats": "Hilvarenbeek" }, "geometry": { "type": "Point", "coordinates": [ 5.133255200590769, 51.48996629707549 ] } },
{ "type": "Feature", "properties": { "naam": "Vakantiepark Beeksebergen", "adres": "Beekse Bergen 1", "postcode": "5081 NJ", "plaats": "Hilvarenbeek" }, "geometry": { "type": "Point", "coordinates": [ 5.124697603406591, 51.528266098630105 ] } },
{ "type": "Feature", "properties": { "naam": "Strumke", "adres": "Wellenseind 7", "postcode": "5094 EG", "plaats": "Lage Mierde" }, "geometry": { "type": "Point", "coordinates": [ 5.142109955784411, 51.420466587977579 ] } },
{ "type": "Feature", "properties": { "naam": "De Vennen", "adres": "Deken Batenburgstraat 2", "postcode": "5104 CR", "plaats": "Dongen" }, "geometry": { "type": "Point", "coordinates": [ 4.950373463660468, 51.619510173187976 ] } },
{ "type": "Feature", "properties": { "naam": "Sportcentrum Tropical", "adres": "Monseigneur Schaepmanstraat 32", "postcode": "5121 TM", "plaats": "Rijen" }, "geometry": { "type": "Point", "coordinates": [ 4.906101459025298, 51.592253582888276 ] } },
{ "type": "Feature", "properties": { "naam": "Saunafit", "adres": "Stationsstraat 77b", "postcode": "5141 GC", "plaats": "Waalwijk" }, "geometry": { "type": "Point", "coordinates": [ 5.067521192061082, 51.687339144974317 ] } },
{ "type": "Feature", "properties": { "naam": "Olympia Bad", "adres": "Drunenseweg 11", "postcode": "5143 NE", "plaats": "Waalwijk" }, "geometry": { "type": "Point", "coordinates": [ 5.095052256188613, 51.683366181883521 ] } },
{ "type": "Feature", "properties": { "naam": "Zweminstituut Drunen", "adres": "Industrieweg 11", "postcode": "5151 RV", "plaats": "Drunen" }, "geometry": { "type": "Point", "coordinates": [ 5.160239597333689, 51.691708121674452 ] } },
{ "type": "Feature", "properties": { "naam": "Zwembad Zidewinde", "adres": "Julianalaan 3a", "postcode": "5161 BA", "plaats": "Sprang-Capelle" }, "geometry": { "type": "Point", "coordinates": [ 5.009877617841015, 51.6752757771266 ] } },
{ "type": "Feature", "properties": { "naam": "Recreatiepark Droomgaard", "adres": "Van Haestrechtstraat 24", "postcode": "5171 RC", "plaats": "Kaatsheuvel" }, "geometry": { "type": "Point", "coordinates": [ 5.061707484280766, 51.661229321686676 ] } },
{ "type": "Feature", "properties": { "naam": "Duinlust", "adres": "Duinlaan 1", "postcode": "5171 RN", "plaats": "Kaatsheuvel" }, "geometry": { "type": "Point", "coordinates": [ 5.068163690321132, 51.657732552788481 ] } },
{ "type": "Feature", "properties": { "naam": "Sportiom", "adres": "Victorialaan 10", "postcode": "5213 JE", "plaats": "'s-Hertogenbosch" }, "geometry": { "type": "Point", "coordinates": [ 5.327792169808466, 51.700595627160872 ] } },
{ "type": "Feature", "properties": { "naam": "Combibad Kwekkelstijn bv", "adres": "sportlaan 16", "postcode": "5242 CR", "plaats": "Rosmalen" }, "geometry": { "type": "Point", "coordinates": [ 5.368015821126523, 51.712042410964273 ] } },
{ "type": "Feature", "properties": { "naam": "Heygrave", "adres": "Burgemeester Zwaansweg 4", "postcode": "5251 CJ", "plaats": "Vlijmen" }, "geometry": { "type": "Point", "coordinates": [ 5.207972373028102, 51.693849202972771 ] } },
{ "type": "Feature", "properties": { "naam": "Ouwerkerk", "adres": "Maarten Trompstraat 32", "postcode": "5262 VM", "plaats": "Vught" }, "geometry": { "type": "Point", "coordinates": [ 5.290869850289681, 51.649192798054635 ] } },
{ "type": "Feature", "properties": { "naam": "Zegenwerp", "adres": "Esscheweg 5", "postcode": "5271 NB", "plaats": "Sint-Michielsgestel" }, "geometry": { "type": "Point", "coordinates": [ 5.344950646328528, 51.635795869777276 ] } },
{ "type": "Feature", "properties": { "naam": "Het Dommelbad", "adres": "schijndelseweg 1a", "postcode": "5283 AB", "plaats": "Boxtel" }, "geometry": { "type": "Point", "coordinates": [ 5.333200401417839, 51.592753832973784 ] } },
{ "type": "Feature", "properties": { "naam": "Akwamarijn", "adres": "Thorbeckestraat 55", "postcode": "5301 NE", "plaats": "Zaltbommel" }, "geometry": { "type": "Point", "coordinates": [ 5.250509828493112, 51.803754339004307 ] } },
{ "type": "Feature", "properties": { "naam": "Multi Funtioneel Centrum (MFC) De Kreek", "adres": "Wilgenpas 2", "postcode": "5331 KC", "plaats": "Kerkdriel" }, "geometry": { "type": "Point", "coordinates": [ 5.33402488700281, 51.776236413372807 ] } },
{ "type": "Feature", "properties": { "naam": "golfbad oss", "adres": "euterpelaan 1", "postcode": "5344 CA", "plaats": "Oss" }, "geometry": { "type": "Point", "coordinates": [ 5.519651342603262, 51.761018920023268 ] } },
{ "type": "Feature", "properties": { "naam": "Van der Heijden", "adres": "Brederostraat 1", "postcode": "5344 VA", "plaats": "Oss" }, "geometry": { "type": "Point", "coordinates": [ 5.510333226040793, 51.754116981255414 ] } },
{ "type": "Feature", "properties": { "naam": "Laco Op den Ham", "adres": "Stoofweg 3", "postcode": "5361 HZ", "plaats": "Grave" }, "geometry": { "type": "Point", "coordinates": [ 5.740192075183196, 51.75098026465075 ] } },
{ "type": "Feature", "properties": { "naam": "Zwembad 't Kuipke", "adres": "John F. Kennedystraat 58", "postcode": "5384 GE", "plaats": "Heesch" }, "geometry": { "type": "Point", "coordinates": [ 5.523211829515899, 51.731281041995523 ] } },
{ "type": "Feature", "properties": { "naam": "Drie Essen (Delfino)", "adres": "Pastoor Spieringsstraat 10A", "postcode": "5401 GT", "plaats": "Uden" }, "geometry": { "type": "Point", "coordinates": [ 5.613990028778661, 51.659906383462271 ] } },
{ "type": "Feature", "properties": { "naam": "Zeesterbad", "adres": "Hockeyweg 6", "postcode": "5405 NC", "plaats": "Uden" }, "geometry": { "type": "Point", "coordinates": [ 5.637639208022355, 51.65033925568212 ] } },
{ "type": "Feature", "properties": { "naam": "Fitland Gemert BV", "adres": "Vicaris van der Asdonckstraat 55", "postcode": "5421 VB", "plaats": "Gemert" }, "geometry": { "type": "Point", "coordinates": [ 5.693751859031227, 51.559348685923617 ] } },
{ "type": "Feature", "properties": { "naam": "Laco sportcentrum De Kwel", "adres": "St Annastraat 1", "postcode": "5431 BE", "plaats": "Cuijk" }, "geometry": { "type": "Point", "coordinates": [ 5.878015455230774, 51.732363004519279 ] } },
{ "type": "Feature", "properties": { "naam": "Laco sportcentrum De Beemd", "adres": "Vlas en Graan 101", "postcode": "5461 KL", "plaats": "Veghel" }, "geometry": { "type": "Point", "coordinates": [ 5.544621130673626, 51.615113516553926 ] } },
{ "type": "Feature", "properties": { "naam": "Laco Buitenbad Prins Willem Alexander", "adres": "Prins Willem Alexander Sportpark 22", "postcode": "5461 XL", "plaats": "Veghel" }, "geometry": { "type": "Point", "coordinates": [ 5.537652811249749, 51.629756079000678 ] } },
{ "type": "Feature", "properties": { "naam": "AquaRest", "adres": "Meerstraat 30B", "postcode": "5473 VX", "plaats": "Heeswijk-Dinther" }, "geometry": { "type": "Point", "coordinates": [ 5.474203744568835, 51.666475795350728 ] } },
{ "type": "Feature", "properties": { "naam": "Zwembad de Molen Hey", "adres": "Avantilaan 1", "postcode": "5482 RE", "plaats": "Schijndel" }, "geometry": { "type": "Point", "coordinates": [ 5.42342831721531, 51.63481802911042 ] } },
{ "type": "Feature", "properties": { "naam": "zwembadde Neul", "adres": "Dommelstraat 20", "postcode": "5492 DX", "plaats": "Sint-Oedenrode" }, "geometry": { "type": "Point", "coordinates": [ 5.45878078420216, 51.566155976491117 ] } },
{ "type": "Feature", "properties": { "naam": "Zwembad den Ekkerman", "adres": "Wal 152", "postcode": "5501 HP", "plaats": "Veldhoven" }, "geometry": { "type": "Point", "coordinates": [ 5.403216103444289, 51.420039513497507 ] } },
{ "type": "Feature", "properties": { "naam": "ZV De Aalscholver", "adres": "Postakkers 8", "postcode": "5521 AT", "plaats": "Eersel" }, "geometry": { "type": "Point", "coordinates": [ 5.310174753198834, 51.358856151572354 ] } },
{ "type": "Feature", "properties": { "naam": "Zwembad de Smagtenbocht", "adres": "Bossingel 3", "postcode": "5531 NH", "plaats": "Bladel" }, "geometry": { "type": "Point", "coordinates": [ 5.218125521956486, 51.360412996569707 ] } },
{ "type": "Feature", "properties": { "naam": "De Wedert", "adres": "Past. Heerkensdreef 29", "postcode": "5552 BG", "plaats": "Valkenswaard" }, "geometry": { "type": "Point", "coordinates": [ 5.454588279610338, 51.365468630053257 ] } },
{ "type": "Feature", "properties": { "naam": "De zwartebergen", "adres": "Zwarte Bergendreef 1", "postcode": "5575 XP", "plaats": "Luyksgestel" }, "geometry": { "type": "Point", "coordinates": [ 5.29499181088749, 51.291312769603643 ] } },
{ "type": "Feature", "properties": { "naam": "dolfijn", "adres": "van gentstraat 9", "postcode": "5612 KM", "plaats": "Eindhoven" }, "geometry": { "type": "Point", "coordinates": [ 5.471443405277341, 51.449510949628831 ] } },
{ "type": "Feature", "properties": { "naam": "ir. Ottenbad", "adres": "Vijfkamplaan 12", "postcode": "5624 EB", "plaats": "Eindhoven" }, "geometry": { "type": "Point", "coordinates": [ 5.457631784537552, 51.476468143226086 ] } },
{ "type": "Feature", "properties": { "naam": "Toucan Sport & Wellness Center", "adres": "Aalsterweg 322", "postcode": "5644 RL", "plaats": "Eindhoven" }, "geometry": { "type": "Point", "coordinates": [ 5.479541821242579, 51.406646747763759 ] } },
{ "type": "Feature", "properties": { "naam": "Nationaal zwemcentrum de Tongelreep", "adres": "Antoon coolenlaan 1", "postcode": "5644 RX", "plaats": "Eindhoven" }, "geometry": { "type": "Point", "coordinates": [ 5.478153249854297, 51.416607316629154 ] } },
{ "type": "Feature", "properties": { "naam": "Laco De Smelen", "adres": "Zwembadweg 13", "postcode": "5663 PL", "plaats": "Geldrop" }, "geometry": { "type": "Point", "coordinates": [ 5.552603369418821, 51.408813072394352 ] } },
{ "type": "Feature", "properties": { "naam": "Dolfijn", "adres": "sportlaan 7", "postcode": "5683 CS", "plaats": "Best" }, "geometry": { "type": "Point", "coordinates": [ 5.400004403188346, 51.500821038162925 ] } },
{ "type": "Feature", "properties": { "naam": "ZIB Zwemcentrum Best", "adres": "Jacob van Wassenaerstr 70", "postcode": "5684 CS", "plaats": "Best" }, "geometry": { "type": "Point", "coordinates": [ 5.382563512997074, 51.502871082039007 ] } },
{ "type": "Feature", "properties": { "naam": "Laco Sportcentrum Kroonenburg", "adres": "De Kemmer 1", "postcode": "5688 GK", "plaats": "Oirschot" }, "geometry": { "type": "Point", "coordinates": [ 5.315156860922216, 51.495505322537205 ] } },
{ "type": "Feature", "properties": { "naam": "Thermae Son", "adres": "Thermaelaan 2", "postcode": "5691 PM", "plaats": "Son en Breugel" }, "geometry": { "type": "Point", "coordinates": [ 5.494759808095612, 51.521320099279848 ] } },
{ "type": "Feature", "properties": { "naam": "Zwembad de Diepsteeckel", "adres": "Witvrouwenbergweg 18", "postcode": "5711 CN", "plaats": "Someren" }, "geometry": { "type": "Point", "coordinates": [ 5.721282472283965, 51.391013360454181 ] } },
{ "type": "Feature", "properties": { "naam": "Zwemschool 't Golfje", "adres": "Kerkstraat 23", "postcode": "5711 GT", "plaats": "Someren" }, "geometry": { "type": "Point", "coordinates": [ 5.715689595015037, 51.380485438274277 ] } },
{ "type": "Feature", "properties": { "naam": "Instructiebad Beatrixbad", "adres": "Vaarselstraat 3", "postcode": "5711 RB", "plaats": "Someren" }, "geometry": { "type": "Point", "coordinates": [ 5.704233537861264, 51.387609313170287 ] } },
{ "type": "Feature", "properties": { "naam": "De Schop", "adres": "Lienderweg 66", "postcode": "5721 CN", "plaats": "Asten" }, "geometry": { "type": "Point", "coordinates": [ 5.754383483022727, 51.405125007889616 ] } },
{ "type": "Feature", "properties": { "naam": "Zwemrecreatie Drie Essen", "adres": "Parklaan 4", "postcode": "5741 EZ", "plaats": "Beek en Donk" }, "geometry": { "type": "Point", "coordinates": [ 5.636373303341252, 51.533211373569316 ] } },
{ "type": "Feature", "properties": { "naam": "Laco Deurne BV", "adres": "Molenstraat 50a", "postcode": "5751 LE", "plaats": "Deurne" }, "geometry": { "type": "Point", "coordinates": [ 5.801697623365619, 51.462260824020547 ] } },
{ "type": "Feature", "properties": { "naam": "De Sprank", "adres": "Kempweg 70", "postcode": "5801 VV", "plaats": "Venray" }, "geometry": { "type": "Point", "coordinates": [ 5.965435697959093, 51.523038818741504 ] } },
{ "type": "Feature", "properties": { "naam": "Optisport Boxmeer", "adres": "Koorstraat 1", "postcode": "5831 GH", "plaats": "Boxmeer" }, "geometry": { "type": "Point", "coordinates": [ 5.947197731244519, 51.647262522852621 ] } },
{ "type": "Feature", "properties": { "naam": "De Broekberg", "adres": "Sportlaan 2", "postcode": "5861 CX", "plaats": "Wanssum" }, "geometry": { "type": "Point", "coordinates": [ 6.075246178114484, 51.533320000825299 ] } },
{ "type": "Feature", "properties": { "naam": "De Wisselslag", "adres": "Drie Decembersingel 52", "postcode": "5921 AC", "plaats": "Venlo" }, "geometry": { "type": "Point", "coordinates": [ 6.137334098461566, 51.367261527788969 ] } },
{ "type": "Feature", "properties": { "naam": "Speelpark Klein Zwitserland", "adres": "Verlengde Trappistenweg 35", "postcode": "5932 ND", "plaats": "Tegelen" }, "geometry": { "type": "Point", "coordinates": [ 6.163775804594448, 51.338817645852664 ] } },
{ "type": "Feature", "properties": { "naam": "Rodan Nieuwsteyl", "adres": "Koehoornstraat 72", "postcode": "5935 SV", "plaats": "Steyl" }, "geometry": { "type": "Point", "coordinates": [ 6.130613605488612, 51.334638426013662 ] } },
{ "type": "Feature", "properties": { "naam": "Zwembad de Bercken", "adres": "Bösdaellaan 2", "postcode": "5953 BW", "plaats": "Reuver" }, "geometry": { "type": "Point", "coordinates": [ 6.074852656373329, 51.289065198374388 ] } },
{ "type": "Feature", "properties": { "naam": "De Berkel", "adres": "Kranestraat 14", "postcode": "5961 GZ", "plaats": "Horst" }, "geometry": { "type": "Point", "coordinates": [ 6.050570739544335, 51.449326635398137 ] } },
{ "type": "Feature", "properties": { "naam": "De Meander", "adres": "St. Maartensweg 16", "postcode": "5964 NH", "plaats": "Meterik" }, "geometry": { "type": "Point", "coordinates": [ 6.010746926866762, 51.466939827751361 ] } },
{ "type": "Feature", "properties": { "naam": "Waterloat", "adres": "Wilhelminastraat 42", "postcode": "5981 XW", "plaats": "Panningen" }, "geometry": { "type": "Point", "coordinates": [ 5.980910706608695, 51.332073169037812 ] } },
{ "type": "Feature", "properties": { "naam": "De Berckt", "adres": "Napoleonsbaan Noord 4", "postcode": "5991 NV", "plaats": "Baarlo" }, "geometry": { "type": "Point", "coordinates": [ 6.104470319476484, 51.345760019201727 ] } },
{ "type": "Feature", "properties": { "naam": "Het Meulepaedje", "adres": "Keverbergstraat 26", "postcode": "5995 XW", "plaats": "Kessel" }, "geometry": { "type": "Point", "coordinates": [ 6.056700443100796, 51.292757667545601 ] } },
{ "type": "Feature", "properties": { "naam": "De IJzeren Man", "adres": "Geurtsvenweg 1", "postcode": "6006 SN", "plaats": "Weert" }, "geometry": { "type": "Point", "coordinates": [ 5.670691763197505, 51.242473007338731 ] } },
{ "type": "Feature", "properties": { "naam": "Zuiderpoortbad", "adres": "Sportlaan 7", "postcode": "6021 KA", "plaats": "Budel" }, "geometry": { "type": "Point", "coordinates": [ 5.569575872595844, 51.261048710566577 ] } },
{ "type": "Feature", "properties": { "naam": "Nederweert", "adres": "Winnerstraat 1", "postcode": "6031 NK", "plaats": "Nederweert" }, "geometry": { "type": "Point", "coordinates": [ 5.758407295182513, 51.288545475579099 ] } },
{ "type": "Feature", "properties": { "naam": "De Roerdomp", "adres": "Achilleslaan 2C", "postcode": "6042 JV", "plaats": "Roermond" }, "geometry": { "type": "Point", "coordinates": [ 6.011298654566711, 51.193088451429077 ] } },
{ "type": "Feature", "properties": { "naam": "Eurobad", "adres": "Europlein 5", "postcode": "6051 HM", "plaats": "Maasbracht" }, "geometry": { "type": "Point", "coordinates": [ 5.896015034698827, 51.147051881267451 ] } },
{ "type": "Feature", "properties": { "naam": "Zwembad Ploensjbad", "adres": "Angsterweg 8", "postcode": "6063 AV", "plaats": "Vlodrop" }, "geometry": { "type": "Point", "coordinates": [ 6.071283541521972, 51.12985438709434 ] } },
{ "type": "Feature", "properties": { "naam": "Het Sweeltje", "adres": "Waarderweg 18", "postcode": "6065 EX", "plaats": "Montfort" }, "geometry": { "type": "Point", "coordinates": [ 5.953794119052563, 51.13198845863424 ] } },
{ "type": "Feature", "properties": { "naam": "Weerderhof", "adres": "Oeveren 19", "postcode": "6067 BH", "plaats": "Linne" }, "geometry": { "type": "Point", "coordinates": [ 5.934701019043784, 51.157833440988128 ] } },
{ "type": "Feature", "properties": { "naam": "De Bosberg", "adres": "Bosstraat 116", "postcode": "6071 PZ", "plaats": "Swalmen" }, "geometry": { "type": "Point", "coordinates": [ 6.069726761509616, 51.230855479991199 ] } },
{ "type": "Feature", "properties": { "naam": "Apollobad", "adres": "Apollolaan 2", "postcode": "6074 EH", "plaats": "Melick" }, "geometry": { "type": "Point", "coordinates": [ 6.02439605888908, 51.161717623364652 ] } },
{ "type": "Feature", "properties": { "naam": "Haelen", "adres": "Roggelseweg 50", "postcode": "6081 NP", "plaats": "Haelen" }, "geometry": { "type": "Point", "coordinates": [ 5.944381895999602, 51.23938910231886 ] } },
{ "type": "Feature", "properties": { "naam": "Ligteveld", "adres": "Ligteveld 2", "postcode": "6086 NR", "plaats": "Neer" }, "geometry": { "type": "Point", "coordinates": [ 5.996394558395559, 51.266499643168714 ] } },
{ "type": "Feature", "properties": { "naam": "De Leistert", "adres": "Heldensedijk 5", "postcode": "6088 NT", "plaats": "Roggel" }, "geometry": { "type": "Point", "coordinates": [ 5.931770028556508, 51.274658488822382 ] } },
{ "type": "Feature", "properties": { "naam": "Molenhoek", "adres": "Arevenlaan 3", "postcode": "6093 GM", "plaats": "Heythuysen" }, "geometry": { "type": "Point", "coordinates": [ 5.902949007688731, 51.254178268984248 ] } },
{ "type": "Feature", "properties": { "naam": "Multimove", "adres": "Rector Driessenstraat 2", "postcode": "6097 AK", "plaats": "Heel" }, "geometry": { "type": "Point", "coordinates": [ 5.894757406118607, 51.179381574805781 ] } },
{ "type": "Feature", "properties": { "naam": "In de Bandert", "adres": "Bandertlaan 7", "postcode": "6101 LZ", "plaats": "Echt" }, "geometry": { "type": "Point", "coordinates": [ 5.886873595027822, 51.106767240892083 ] } },
{ "type": "Feature", "properties": { "naam": "Het Anker", "adres": "Ankersweg 52", "postcode": "6122 ET", "plaats": "Buchten" }, "geometry": { "type": "Point", "coordinates": [ 5.815109669975412, 51.043853149928381 ] } },
{ "type": "Feature", "properties": { "naam": "Silverstaete", "adres": "Smithlaan 127", "postcode": "6135 JL", "plaats": "Sittard" }, "geometry": { "type": "Point", "coordinates": [ 5.852704513073143, 51.01077288394282 ] } },
{ "type": "Feature", "properties": { "naam": "De Nieuwe Hateboer", "adres": "Sportcentrumlaan 9", "postcode": "6136 KX", "plaats": "Sittard" }, "geometry": { "type": "Point", "coordinates": [ 5.88047932313283, 51.008464669954087 ] } },
{ "type": "Feature", "properties": { "naam": "Glanerbrook", "adres": "Kummenaedestraat 45", "postcode": "6165 BT", "plaats": "Geleen" }, "geometry": { "type": "Point", "coordinates": [ 5.832540039294476, 50.966258176836249 ] } },
{ "type": "Feature", "properties": { "naam": "Steinerbos", "adres": "Stadhouderslaan 220", "postcode": "6171 KP", "plaats": "Stein" }, "geometry": { "type": "Point", "coordinates": [ 5.774916354535901, 50.969629554376944 ] } },
{ "type": "Feature", "properties": { "naam": "De Haamen", "adres": "De Haamen 1", "postcode": "6191 HV", "plaats": "Beek" }, "geometry": { "type": "Point", "coordinates": [ 5.80907250576117, 50.945114294276621 ] } },
{ "type": "Feature", "properties": { "naam": "Pellikaan Health & Racquet Club", "adres": "Dousbergweg 4", "postcode": "6216 GC", "plaats": "Maastricht" }, "geometry": { "type": "Point", "coordinates": [ 5.652743997075773, 50.855995918668583 ] } },
{ "type": "Feature", "properties": { "naam": "Geusseltbad", "adres": "Discusworp 4", "postcode": "6225 XP", "plaats": "Maastricht" }, "geometry": { "type": "Point", "coordinates": [ 5.721678478396511, 50.858288918672969 ] } },
{ "type": "Feature", "properties": { "naam": "De Parel", "adres": "Molenveldweg 15", "postcode": "6231 RX", "plaats": "Meerssen" }, "geometry": { "type": "Point", "coordinates": [ 5.753365011594782, 50.880125692454982 ] } },
{ "type": "Feature", "properties": { "naam": "De Treffer", "adres": "Marathon 6", "postcode": "6245 EZ", "plaats": "Eijsden" }, "geometry": { "type": "Point", "coordinates": [ 5.705502155422912, 50.779691388593974 ] } },
{ "type": "Feature", "properties": { "naam": "Mosaqua", "adres": "Landsraderweg 11", "postcode": "6271 NT", "plaats": "Gulpen" }, "geometry": { "type": "Point", "coordinates": [ 5.889438179936556, 50.810481023509105 ] } },
{ "type": "Feature", "properties": { "naam": "Landal Hoog Vaals", "adres": "Randweg 21", "postcode": "6291 DC", "plaats": "Vaals" }, "geometry": { "type": "Point", "coordinates": [ 6.005210337016557, 50.77452114821179 ] } },
{ "type": "Feature", "properties": { "naam": "Thermen 2000", "adres": "Cauberg 25", "postcode": "6301 BT", "plaats": "Valkenburg" }, "geometry": { "type": "Point", "coordinates": [ 5.826659681387815, 50.861398214426423 ] } },
{ "type": "Feature", "properties": { "naam": "De Polfermolen", "adres": "Plenkertstraat 50", "postcode": "6301 GM", "plaats": "Valkenburg" }, "geometry": { "type": "Point", "coordinates": [ 5.827104167150551, 50.864830278661792 ] } },
{ "type": "Feature", "properties": { "naam": "De Koninckswinkel", "adres": "Koningswinkelstraat 51", "postcode": "6301 WH", "plaats": "Valkenburg" }, "geometry": { "type": "Point", "coordinates": [ 5.823935958534288, 50.867763677726977 ] } },
{ "type": "Feature", "properties": { "naam": "De Joffer", "adres": "Goswijnstraat 1", "postcode": "6367 EB", "plaats": "Voerendaal" }, "geometry": { "type": "Point", "coordinates": [ 5.932437155590756, 50.881424578983626 ] } },
{ "type": "Feature", "properties": { "naam": "Sportcentrum In de Bende", "adres": "Emmastraat 3", "postcode": "6373 HM", "plaats": "Landgraaf" }, "geometry": { "type": "Point", "coordinates": [ 6.034001121266097, 50.91069978028807 ] } },
{ "type": "Feature", "properties": { "naam": "Life Style Parkstad", "adres": "Ten Esschen 100", "postcode": "6412 PR", "plaats": "Heerlen" }, "geometry": { "type": "Point", "coordinates": [ 5.935686684594738, 50.900241071714483 ] } },
{ "type": "Feature", "properties": { "naam": "Adelante", "adres": "Zandbergsweg 111", "postcode": "6432 CC", "plaats": "Hoensbroek" }, "geometry": { "type": "Point", "coordinates": [ 5.91037725252523, 50.920987922875355 ] } },
{ "type": "Feature", "properties": { "naam": "Otterveurdt", "adres": "Gravin van Schönbornlaan 2", "postcode": "6433 AZ", "plaats": "Hoensbroek" }, "geometry": { "type": "Point", "coordinates": [ 5.934139594542026, 50.919673530662187 ] } },
{ "type": "Feature", "properties": { "naam": "De Bronspot", "adres": "koutenveld 1b", "postcode": "6441 CM", "plaats": "Brunssum" }, "geometry": { "type": "Point", "coordinates": [ 5.970878342095318, 50.948330712350128 ] } },
{ "type": "Feature", "properties": { "naam": "Reuvers", "adres": "Op de Berg 1", "postcode": "6451 EZ", "plaats": "Schinveld" }, "geometry": { "type": "Point", "coordinates": [ 5.982557501810124, 50.96793915848712 ] } },
{ "type": "Feature", "properties": { "naam": "D'r Pool", "adres": "Putgang 8", "postcode": "6461 EK", "plaats": "Kerkrade" }, "geometry": { "type": "Point", "coordinates": [ 6.06089538257609, 50.863389807701154 ] } },
{ "type": "Feature", "properties": { "naam": "Erica Terpstra Sportfondsenbad", "adres": "Kwakkenbergweg 25", "postcode": "6523 MJ", "plaats": "Nijmegen" }, "geometry": { "type": "Point", "coordinates": [ 5.888412149524656, 51.830438022526543 ] } },
{ "type": "Feature", "properties": { "naam": "Openluchtbad De Goffert", "adres": "Goffertweg 22", "postcode": "6532 AA", "plaats": "Nijmegen" }, "geometry": { "type": "Point", "coordinates": [ 5.837782851756274, 51.829124342796902 ] } },
{ "type": "Feature", "properties": { "naam": "Sportfondsenbad Dukenburg", "adres": "Meijhorst 70-41", "postcode": "6537 EP", "plaats": "Nijmegen" }, "geometry": { "type": "Point", "coordinates": [ 5.800991924405826, 51.811597547329399 ] } },
{ "type": "Feature", "properties": { "naam": "Sportfondsenbad Nijmegen - West", "adres": "Planetenstraat 65", "postcode": "6543 VW", "plaats": "Nijmegen" }, "geometry": { "type": "Point", "coordinates": [ 5.828019951885286, 51.838042036584163 ] } },
{ "type": "Feature", "properties": { "naam": "Zwembad de Lubert", "adres": "Cranenburgsestraat 23D", "postcode": "6561 AM", "plaats": "Groesbeek" }, "geometry": { "type": "Point", "coordinates": [ 5.941842877115993, 51.7821267751183 ] } },
{ "type": "Feature", "properties": { "naam": "Laco de Veldschuur", "adres": "Veldsingel 29", "postcode": "6581 TC", "plaats": "Malden" }, "geometry": { "type": "Point", "coordinates": [ 5.861330084556145, 51.781122767274702 ] } },
{ "type": "Feature", "properties": { "naam": "Pica Mare", "adres": "Picardie 34", "postcode": "6591 JE", "plaats": "Gennep" }, "geometry": { "type": "Point", "coordinates": [ 5.976048463124403, 51.699210454413148 ] } },
{ "type": "Feature", "properties": { "naam": "de meerval wijchen B.V.", "adres": "meerdreef 6", "postcode": "6602 HN", "plaats": "Wijchen" }, "geometry": { "type": "Point", "coordinates": [ 5.73166713923167, 51.802833211123321 ] } },
{ "type": "Feature", "properties": { "naam": "De Zeven Morgen", "adres": "Nieuwstraat 12", "postcode": "6621 KV", "plaats": "Dreumel" }, "geometry": { "type": "Point", "coordinates": [ 5.435019993262724, 51.846078253582988 ] } },
{ "type": "Feature", "properties": { "naam": "zwembad de plons", "adres": "houtduiflaan 3", "postcode": "6641 ZN", "plaats": "Beuningen Gld" }, "geometry": { "type": "Point", "coordinates": [ 5.774011224867975, 51.856218358526988 ] } },
{ "type": "Feature", "properties": { "naam": "Zwembad de Tuimelaar", "adres": "Schoolpad 2A", "postcode": "6644 CP", "plaats": "Ewijk" }, "geometry": { "type": "Point", "coordinates": [ 5.742683653669832, 51.872379686734327 ] } },
{ "type": "Feature", "properties": { "naam": "Zwembad De Gelenberg", "adres": "De Gelenberg 5", "postcode": "6654 AZ", "plaats": "Afferden" }, "geometry": { "type": "Point", "coordinates": [ 5.615219396815381, 51.880732090685783 ] } },
{ "type": "Feature", "properties": { "naam": "Sportcentrum De Helster", "adres": "Schubertstraat 1", "postcode": "6661 AW", "plaats": "Elst" }, "geometry": { "type": "Point", "coordinates": [ 5.847212185736363, 51.924239224010059 ] } },
{ "type": "Feature", "properties": { "naam": "De Leygraaf", "adres": "Leigraafseweg 8", "postcode": "6671 MC", "plaats": "Zetten" }, "geometry": { "type": "Point", "coordinates": [ 5.722798089371598, 51.918188905369604 ] } },
{ "type": "Feature", "properties": { "naam": "Laco Sportcentrum Bemmel", "adres": "van Nispenlaan 2", "postcode": "6681 CZ", "plaats": "Bemmel" }, "geometry": { "type": "Point", "coordinates": [ 5.91866449573001, 51.892271500891397 ] } },
{ "type": "Feature", "properties": { "naam": "Zwembad de Bongerd", "adres": "Bornsesteeg 4", "postcode": "6708 PE", "plaats": "Wageningen" }, "geometry": { "type": "Point", "coordinates": [ 5.665368396182915, 51.981580338108493 ] } },
{ "type": "Feature", "properties": { "naam": "Zwembad de Peppel B.V.", "adres": "Peppelensteeg 17", "postcode": "6715 CV", "plaats": "Ede" }, "geometry": { "type": "Point", "coordinates": [ 5.639531996649579, 52.035981133132971 ] } },
{ "type": "Feature", "properties": { "naam": "Zwemschool Rob v. Tongeren", "adres": "Laan der Verenigde Naties 92", "postcode": "6716 JE", "plaats": "Ede" }, "geometry": { "type": "Point", "coordinates": [ 5.638190514721434, 52.02026373077144 ] } },
{ "type": "Feature", "properties": { "naam": "De Vrije Slag", "adres": "Langschoterweg 7", "postcode": "6721 MR", "plaats": "Bennekom" }, "geometry": { "type": "Point", "coordinates": [ 5.65863532787374, 52.006673153968585 ] } },
{ "type": "Feature", "properties": { "naam": "Bosbad Lunteren", "adres": "Boslaan 91", "postcode": "6741 KE", "plaats": "Lunteren" }, "geometry": { "type": "Point", "coordinates": [ 5.648014381305549, 52.088570010281714 ] } },
{ "type": "Feature", "properties": { "naam": "Openluchtzwqembad Klarenbeek", "adres": "Hommelseweg 536", "postcode": "6821 LZ", "plaats": "Arnhem" }, "geometry": { "type": "Point", "coordinates": [ 5.922510762206907, 51.995647477946065 ] } },
{ "type": "Feature", "properties": { "naam": "zwembad Valkenhuizen", "adres": "Beukenlaan 23", "postcode": "6823 MA", "plaats": "Arnhem" }, "geometry": { "type": "Point", "coordinates": [ 5.932967782548459, 52.005405686367254 ] } },
{ "type": "Feature", "properties": { "naam": "zwembad de Grote Koppel", "adres": "Olympus 29", "postcode": "6832 EL", "plaats": "Arnhem" }, "geometry": { "type": "Point", "coordinates": [ 5.904641902437526, 51.962614416322161 ] } },
{ "type": "Feature", "properties": { "naam": "Zwembad Jottem", "adres": "van voorststraat 19a", "postcode": "6851 LT", "plaats": "Huissen" }, "geometry": { "type": "Point", "coordinates": [ 5.93529865510242, 51.938764116488606 ] } },
{ "type": "Feature", "properties": { "naam": "Zwem- en Instructiebad Oosterbeek", "adres": "Lukassenpad 1", "postcode": "6862 CJ", "plaats": "Oosterbeek" }, "geometry": { "type": "Point", "coordinates": [ 5.841462813315478, 51.986775416093636 ] } },
{ "type": "Feature", "properties": { "naam": "Zwembad Aquarijn", "adres": "Hogenkampseweg 43", "postcode": "6871 JK", "plaats": "Renkum" }, "geometry": { "type": "Point", "coordinates": [ 5.737572695047091, 51.980497508027426 ] } },
{ "type": "Feature", "properties": { "naam": "Zwembad De Dumpel", "adres": "Gruttostraat 14", "postcode": "6883 CN", "plaats": "Velp" }, "geometry": { "type": "Point", "coordinates": [ 5.982521915889786, 51.987314475237817 ] } },
{ "type": "Feature", "properties": { "naam": "lentebad", "adres": "lentemorgen 13", "postcode": "6903 CT", "plaats": "Zevenaar" }, "geometry": { "type": "Point", "coordinates": [ 6.071890337207922, 51.937427516434347 ] } },
{ "type": "Feature", "properties": { "naam": "Sports Planet", "adres": "Emmerik 5", "postcode": "6931 HC", "plaats": "Westervoort" }, "geometry": { "type": "Point", "coordinates": [ 5.969898695733233, 51.956969981991023 ] } },
{ "type": "Feature", "properties": { "naam": "Zwembad De Hoevert", "adres": "Kerkstraat 49", "postcode": "6941 AE", "plaats": "Didam" }, "geometry": { "type": "Point", "coordinates": [ 6.128676755389425, 51.944426613933942 ] } },
{ "type": "Feature", "properties": { "naam": "recreatiebad coldenhove", "adres": "boshoffweg 1", "postcode": "6961 LC", "plaats": "Eerbeek" }, "geometry": { "type": "Point", "coordinates": [ 6.045918090318764, 52.093955859175267 ] } },
{ "type": "Feature", "properties": { "naam": "Rhienderoord Zwem & Sport Plezier", "adres": "L.R. Beijnenlaan 20", "postcode": "6971 LE", "plaats": "Brummen" }, "geometry": { "type": "Point", "coordinates": [ 6.140598892991944, 52.095752379076671 ] } },
{ "type": "Feature", "properties": { "naam": "Zwembad Doesburg", "adres": "Den Helder 1", "postcode": "6982 DT", "plaats": "Doesburg" }, "geometry": { "type": "Point", "coordinates": [ 6.154312224470289, 52.007020012228431 ] } },
{ "type": "Feature", "properties": { "naam": "Openluchtzwembad Rheden", "adres": "Ijsselsingel 7", "postcode": "6991 ZP", "plaats": "Rheden" }, "geometry": { "type": "Point", "coordinates": [ 6.029791217436697, 51.999415782815298 ] } },
{ "type": "Feature", "properties": { "naam": "Zwembad Hessenbad", "adres": "Monumentenweg 32", "postcode": "6997 AH", "plaats": "Hoog-Keppel" }, "geometry": { "type": "Point", "coordinates": [ 6.206474458656242, 52.001742633207108 ] } },
{ "type": "Feature", "properties": { "naam": "Sporthal Rozengaarde", "adres": "Bezelhorstweg 115", "postcode": "7002 CC", "plaats": "Doetinchem" }, "geometry": { "type": "Point", "coordinates": [ 6.302373682856334, 51.974645011517026 ] } },
{ "type": "Feature", "properties": { "naam": "De Brink", "adres": "Stationsplein 12", "postcode": "7021 CN", "plaats": "Zelhem" }, "geometry": { "type": "Point", "coordinates": [ 6.352408081739793, 52.004878528073533 ] } },
{ "type": "Feature", "properties": { "naam": "De Bijvoorde", "adres": "Leemkuilseweg 4", "postcode": "7031 XM", "plaats": "Wehl" }, "geometry": { "type": "Point", "coordinates": [ 6.200708487152191, 51.957666756665162 ] } },
{ "type": "Feature", "properties": { "naam": "Laco sportcentrum Montferland", "adres": "Oude Doetinchemseweg 43", "postcode": "7041 DB", "plaats": "'s-Heerenberg" }, "geometry": { "type": "Point", "coordinates": [ 6.255173954680667, 51.879875590118971 ] } },
{ "type": "Feature", "properties": { "naam": "Van Pallandtbad", "adres": "van Pallandtstraat 4", "postcode": "7051 DE", "plaats": "Varsseveld" }, "geometry": { "type": "Point", "coordinates": [ 6.46632606544435, 51.944130789212373 ] } },
{ "type": "Feature", "properties": { "naam": "Zwembad De Paasberg", "adres": "Terborgseveld 79", "postcode": "7064 AN", "plaats": "Silvolde" }, "geometry": { "type": "Point", "coordinates": [ 6.371550079498047, 51.914868147169578 ] } },
{ "type": "Feature", "properties": { "naam": "Openluchtbad Het Blauwe Meer", "adres": "Helmkamp 11", "postcode": "7091 HR", "plaats": "Dinxperlo" }, "geometry": { "type": "Point", "coordinates": [ 6.480852505559023, 51.860354084803753 ] } },
{ "type": "Feature", "properties": { "naam": "Zwembad Jaspers", "adres": "Jaspersweg 3", "postcode": "7103 AV", "plaats": "Winterswijk" }, "geometry": { "type": "Point", "coordinates": [ 6.707075226642184, 51.982592895755793 ] } },
{ "type": "Feature", "properties": { "naam": "Optisport Aalten `t Walfort", "adres": "Dennenoord 2", "postcode": "7121 ME", "plaats": "Aalten" }, "geometry": { "type": "Point", "coordinates": [ 6.602350569050129, 51.933868093529931 ] } },
{ "type": "Feature", "properties": { "naam": "'t Meekenesch", "adres": "Kerkhoflaan 5", "postcode": "7131 TE", "plaats": "Lichtenvoorde" }, "geometry": { "type": "Point", "coordinates": [ 6.566033319987602, 51.992343010600415 ] } },
{ "type": "Feature", "properties": { "naam": "Zwembad 't Vinkennest", "adres": "Stokkersweg 4", "postcode": "7151 NN", "plaats": "Eibergen" }, "geometry": { "type": "Point", "coordinates": [ 6.625922329831807, 52.096647187069387 ] } },
{ "type": "Feature", "properties": { "naam": "Sportcentrum 't Spilbroek", "adres": "Bleekenweg 14", "postcode": "7161 AB", "plaats": "Neede" }, "geometry": { "type": "Point", "coordinates": [ 6.611282138274772, 52.129627592669259 ] } },
{ "type": "Feature", "properties": { "naam": "Graaf Ottobad", "adres": "Keucheniusstraat 26", "postcode": "7204 JK", "plaats": "Zutphen" }, "geometry": { "type": "Point", "coordinates": [ 6.21755632656675, 52.133696500832635 ] } },
{ "type": "Feature", "properties": { "naam": "Zwembad de Boskoele", "adres": "Lindeboomweg 6a", "postcode": "7213 LS", "plaats": "Gorssel" }, "geometry": { "type": "Point", "coordinates": [ 6.217246604503474, 52.190873429618868 ] } },
{ "type": "Feature", "properties": { "naam": "Recreatiezwembad en kanocentrum De Berkel", "adres": "Berkelweg 7", "postcode": "7218 AS", "plaats": "Almen" }, "geometry": { "type": "Point", "coordinates": [ 6.302013906950341, 52.154562747487958 ] } },
{ "type": "Feature", "properties": { "naam": "Burgemeester Kruijffbad", "adres": "Prins Bernhardlaan 9", "postcode": "7221 BA", "plaats": "Steenderen" }, "geometry": { "type": "Point", "coordinates": [ 6.18806114401063, 52.068249359775194 ] } },
{ "type": "Feature", "properties": { "naam": "Stradasports De Beemd", "adres": "Zutphenseweg 110", "postcode": "7241 SG", "plaats": "Lochem" }, "geometry": { "type": "Point", "coordinates": [ 6.391964865427029, 52.150298180738559 ] } },
{ "type": "Feature", "properties": { "naam": "Leussinkbad", "adres": "Holterweg 45", "postcode": "7245 SB", "plaats": "Laren" }, "geometry": { "type": "Point", "coordinates": [ 6.366840170400119, 52.204557217297257 ] } },
{ "type": "Feature", "properties": { "naam": "In de Dennen", "adres": "Oude zutphenseweg 7", "postcode": "7251 JX", "plaats": "Vorden" }, "geometry": { "type": "Point", "coordinates": [ 6.339000589081245, 52.109372466856925 ] } },
{ "type": "Feature", "properties": { "naam": "'t Elderink", "adres": "Elderinkweg 1", "postcode": "7255 KA", "plaats": "Hengelo (Gld)" }, "geometry": { "type": "Point", "coordinates": [ 6.304923689280841, 52.044484813198686 ] } },
{ "type": "Feature", "properties": { "naam": "Zwembad De Meene", "adres": "Loolaan 92", "postcode": "7261 HV", "plaats": "Ruurlo" }, "geometry": { "type": "Point", "coordinates": [ 6.43893149519756, 52.085341210583309 ] } },
{ "type": "Feature", "properties": { "naam": "Sporthal 't Timpkelen", "adres": "Haarloseweg 10", "postcode": "7271 BT", "plaats": "Borculo" }, "geometry": { "type": "Point", "coordinates": [ 6.524165808281771, 52.110356202172113 ] } },
{ "type": "Feature", "properties": { "naam": "Het Galgenveld", "adres": "Lebbenbruggedijk 40", "postcode": "7271 SB", "plaats": "Borculo" }, "geometry": { "type": "Point", "coordinates": [ 6.494231513044077, 52.108933337091791 ] } },
{ "type": "Feature", "properties": { "naam": "Openluchtbad Boschbad", "adres": "Felualaan 29", "postcode": "7313 GM", "plaats": "Apeldoorn" }, "geometry": { "type": "Point", "coordinates": [ 5.923585530711109, 52.216697617679543 ] } },
{ "type": "Feature", "properties": { "naam": "de Sprenkelaar", "adres": "Laan van Zevenhuizen 381", "postcode": "7323 AW", "plaats": "Apeldoorn" }, "geometry": { "type": "Point", "coordinates": [ 5.996785816892094, 52.222454160942888 ] } },
{ "type": "Feature", "properties": { "naam": "Aquacentrum Malkander", "adres": "Dubbelbeek 56", "postcode": "7333 NJ", "plaats": "Apeldoorn" }, "geometry": { "type": "Point", "coordinates": [ 5.967503860336144, 52.184474414008854 ] } },
{ "type": "Feature", "properties": { "naam": "Zwembad Molenallee Loenen", "adres": "Molen-Allee 3", "postcode": "7371 EA", "plaats": "Loenen" }, "geometry": { "type": "Point", "coordinates": [ 6.033867880003068, 52.128492526518023 ] } },
{ "type": "Feature", "properties": { "naam": "Schaeck Twello", "adres": "veenhuisweg 53", "postcode": "7391 TR", "plaats": "Twello" }, "geometry": { "type": "Point", "coordinates": [ 6.115728883816248, 52.230732239514111 ] } },
{ "type": "Feature", "properties": { "naam": "Borgelerbad", "adres": "Borgelerdijk 1", "postcode": "7415 ZN", "plaats": "Deventer" }, "geometry": { "type": "Point", "coordinates": [ 6.160488139396715, 52.276871257579486 ] } },
{ "type": "Feature", "properties": { "naam": "De Scheg", "adres": "Piet van Donkplein 1", "postcode": "7422 LW", "plaats": "Deventer" }, "geometry": { "type": "Point", "coordinates": [ 6.213554330217292, 52.249655419995122 ] } },
{ "type": "Feature", "properties": { "naam": "Zwembad Lettele", "adres": "Sportweg 1", "postcode": "7434 RZ", "plaats": "Lettele" }, "geometry": { "type": "Point", "coordinates": [ 6.273727156857766, 52.280489108455136 ] } },
{ "type": "Feature", "properties": { "naam": "De Looermark", "adres": "Oudendijk 6", "postcode": "7437 SL", "plaats": "Bathmen" }, "geometry": { "type": "Point", "coordinates": [ 6.355952906322401, 52.254208956273303 ] } },
{ "type": "Feature", "properties": { "naam": "Zwembad Het Ravijn", "adres": "Piet Heinweg 16", "postcode": "7441 GZ", "plaats": "Nijverdal" }, "geometry": { "type": "Point", "coordinates": [ 6.448519362271007, 52.367871094744999 ] } },
{ "type": "Feature", "properties": { "naam": "Zwembad Twenhaarsveld", "adres": "landuwerweg 21", "postcode": "7451 SP", "plaats": "Holten" }, "geometry": { "type": "Point", "coordinates": [ 6.445346289671751, 52.286573244963535 ] } },
{ "type": "Feature", "properties": { "naam": "Zwembad de Koerbelt", "adres": "Arend Baanstraat 105a", "postcode": "7461 DT", "plaats": "Rijssen" }, "geometry": { "type": "Point", "coordinates": [ 6.523023152629855, 52.295559768599574 ] } },
{ "type": "Feature", "properties": { "naam": "De Whee", "adres": "Gruttostraat 44", "postcode": "7471 ES", "plaats": "Goor" }, "geometry": { "type": "Point", "coordinates": [ 6.57499408529966, 52.237459004601426 ] } },
{ "type": "Feature", "properties": { "naam": "de Vijf Heuvels", "adres": "Potdijk 5", "postcode": "7475 SL", "plaats": "Markelo" }, "geometry": { "type": "Point", "coordinates": [ 6.511384295943047, 52.239969296421705 ] } },
{ "type": "Feature", "properties": { "naam": "De Wilder", "adres": "Scholtenhagenweg 32", "postcode": "7481 VP", "plaats": "Haaksbergen" }, "geometry": { "type": "Point", "coordinates": [ 6.724161600174789, 52.14689183044888 ] } },
{ "type": "Feature", "properties": { "naam": "De Mors", "adres": "de Mors 4", "postcode": "7491 DZ", "plaats": "Delden" }, "geometry": { "type": "Point", "coordinates": [ 6.72613808334649, 52.254610660234214 ] } },
{ "type": "Feature", "properties": { "naam": "Het Slagman", "adres": "Park de Kotten 325", "postcode": "7522 EN", "plaats": "Enschede" }, "geometry": { "type": "Point", "coordinates": [ 6.876873657724259, 52.236283754325015 ] } },
{ "type": "Feature", "properties": { "naam": "De Brug", "adres": "Schipholtstraat 43", "postcode": "7534 CR", "plaats": "Enschede" }, "geometry": { "type": "Point", "coordinates": [ 6.971615104184897, 52.21191198195725 ] } },
{ "type": "Feature", "properties": { "naam": "Zwembad Aquadrome", "adres": "J.J. van Deinselaan 2", "postcode": "7541 BR", "plaats": "Enschede" }, "geometry": { "type": "Point", "coordinates": [ 6.896764245014978, 52.206717415835236 ] } },
{ "type": "Feature", "properties": { "naam": "Twentebad", "adres": "Lage Weide 3", "postcode": "7556 NA", "plaats": "Hengelo" }, "geometry": { "type": "Point", "coordinates": [ 6.801856898519676, 52.281117362978321 ] } },
{ "type": "Feature", "properties": { "naam": "Vondersweide", "adres": "Ada Kokstraat 20", "postcode": "7572 EA", "plaats": "Oldenzaal" }, "geometry": { "type": "Point", "coordinates": [ 6.916522624904841, 52.310836168849406 ] } },
{ "type": "Feature", "properties": { "naam": "Zwembad Brilmansdennen", "adres": "Bookholtlaan 11", "postcode": "7581 BB", "plaats": "Losser" }, "geometry": { "type": "Point", "coordinates": [ 7.014866953319101, 52.268217215830461 ] } },
{ "type": "Feature", "properties": { "naam": "Dorper Esch", "adres": "Molendijk 14", "postcode": "7591 PT", "plaats": "Denekamp" }, "geometry": { "type": "Point", "coordinates": [ 6.998060330671887, 52.374538197805826 ] } },
{ "type": "Feature", "properties": { "naam": "Sportcentrum Bossink", "adres": "Father Raatgerstraat 2", "postcode": "7596 LG", "plaats": "Rossum" }, "geometry": { "type": "Point", "coordinates": [ 6.922364222103994, 52.35296403185778 ] } },
{ "type": "Feature", "properties": { "naam": "De Sluiskade", "adres": "Sluiskade Noordzijde 126", "postcode": "7603 XZ", "plaats": "Almelo" }, "geometry": { "type": "Point", "coordinates": [ 6.675038999966018, 52.362979940411037 ] } },
{ "type": "Feature", "properties": { "naam": "Laco Het Wooldrik", "adres": "'t wooldrik 3", "postcode": "7621 AH", "plaats": "Borne" }, "geometry": { "type": "Point", "coordinates": [ 6.73750255925522, 52.30135798198922 ] } },
{ "type": "Feature", "properties": { "naam": "De Kuiperberg", "adres": "Stobbenkamp 80", "postcode": "7631 CR", "plaats": "Ootmarsum" }, "geometry": { "type": "Point", "coordinates": [ 6.887464179064462, 52.404864244418363 ] } },
{ "type": "Feature", "properties": { "naam": "De Kolk", "adres": "Dikkensweg 3", "postcode": "7641 CC", "plaats": "Wierden" }, "geometry": { "type": "Point", "coordinates": [ 6.593689441815076, 52.360511667198111 ] } },
{ "type": "Feature", "properties": { "naam": "de Vlaskoel", "adres": "Sportlaan 4", "postcode": "7651 LD", "plaats": "Tubbergen" }, "geometry": { "type": "Point", "coordinates": [ 6.783242735937656, 52.41075016866521 ] } },
{ "type": "Feature", "properties": { "naam": "De Stamper", "adres": "Schout Doddestraat 11", "postcode": "7671 GT", "plaats": "Vriezenveen" }, "geometry": { "type": "Point", "coordinates": [ 6.629240108817744, 52.403719918502475 ] } },
{ "type": "Feature", "properties": { "naam": "Zwembad De Plump", "adres": "Zwembadlaan 6", "postcode": "7676 SZ", "plaats": "Westerhaar-Vriezenveensewijk" }, "geometry": { "type": "Point", "coordinates": [ 6.617593564547668, 52.452118048829981 ] } },
{ "type": "Feature", "properties": { "naam": "De Zandstuve", "adres": "Hammerweg 75", "postcode": "7681 EJ", "plaats": "Vroomshoop" }, "geometry": { "type": "Point", "coordinates": [ 6.551575528596495, 52.461971133515561 ] } },
{ "type": "Feature", "properties": { "naam": "Zwembad de Groene Jager", "adres": "Slenke 2", "postcode": "7683 PA", "plaats": "Den Ham" }, "geometry": { "type": "Point", "coordinates": [ 6.466428032725399, 52.471971931692508 ] } },
{ "type": "Feature", "properties": { "naam": "De Kiefer", "adres": "Nieuwewijk 14", "postcode": "7701 PZ", "plaats": "Dedemsvaart" }, "geometry": { "type": "Point", "coordinates": [ 6.462499977391681, 52.592392234547489 ] } },
{ "type": "Feature", "properties": { "naam": "heuveltjesbosbad", "adres": "Meppelerweg 60", "postcode": "7707 CP", "plaats": "Balkbrug" }, "geometry": { "type": "Point", "coordinates": [ 6.385746896032837, 52.605007056905222 ] } },
{ "type": "Feature", "properties": { "naam": "Openluchtzwembad De Meule", "adres": "Burg.Backxlaan 115", "postcode": "7711 AC", "plaats": "Nieuwleusen" }, "geometry": { "type": "Point", "coordinates": [ 6.287353948448606, 52.580412402527415 ] } },
{ "type": "Feature", "properties": { "naam": "Olde Vechte", "adres": "Zeesserweg 12", "postcode": "7731 BG", "plaats": "Ommen" }, "geometry": { "type": "Point", "coordinates": [ 6.427654699010955, 52.51550588226511 ] } },
{ "type": "Feature", "properties": { "naam": "Carrousel", "adres": "Van Reeuwijkstraat 5", "postcode": "7731 EH", "plaats": "Ommen" }, "geometry": { "type": "Point", "coordinates": [ 6.419498103061988, 52.525814390536482 ] } },
{ "type": "Feature", "properties": { "naam": "Sportcomplex De Swaneburg", "adres": "Pampert 2", "postcode": "7742 VV", "plaats": "Coevorden" }, "geometry": { "type": "Point", "coordinates": [ 6.746036786747251, 52.659495315749581 ] } },
{ "type": "Feature", "properties": { "naam": "Center Parks De Huttenheugte", "adres": "Reindersdijk 55", "postcode": "7751 SH", "plaats": "Dalen" }, "geometry": { "type": "Point", "coordinates": [ 6.776625355918224, 52.674151947679889 ] } },
{ "type": "Feature", "properties": { "naam": "De Slagen", "adres": "De Slagen 9", "postcode": "7761 CP", "plaats": "Schoonebeek" }, "geometry": { "type": "Point", "coordinates": [ 6.880935210414386, 52.665543947725233 ] } },
{ "type": "Feature", "properties": { "naam": "de wiekslag", "adres": "Kerkenweg 3", "postcode": "7765 BN", "plaats": "Weiteveen" }, "geometry": { "type": "Point", "coordinates": [ 6.993922589900936, 52.662057301409362 ] } },
{ "type": "Feature", "properties": { "naam": "de Marsch", "adres": "Badhuisplein 1", "postcode": "7772 XA", "plaats": "Hardenberg" }, "geometry": { "type": "Point", "coordinates": [ 6.618361275065115, 52.577944885838377 ] } },
{ "type": "Feature", "properties": { "naam": "Onder Ons", "adres": "Hoofdweg 71", "postcode": "7782 PP", "plaats": "De Krim" }, "geometry": { "type": "Point", "coordinates": [ 6.629945822664748, 52.651256270719472 ] } },
{ "type": "Feature", "properties": { "naam": "Zwembad De Hattemat", "adres": "Hattemattestraat 5", "postcode": "7783 BM", "plaats": "Gramsbergen" }, "geometry": { "type": "Point", "coordinates": [ 6.671146268798453, 52.609662148862441 ] } },
{ "type": "Feature", "properties": { "naam": "Zwem- en golfslagbad Aquarena", "adres": "Angelsloërdijk 31", "postcode": "7822 HK", "plaats": "Emmen" }, "geometry": { "type": "Point", "coordinates": [ 6.913240149672021, 52.780920336631674 ] } },
{ "type": "Feature", "properties": { "naam": "Parc Centrum Sandur", "adres": "Sandurdreef 5", "postcode": "7828 AA", "plaats": "Emmen" }, "geometry": { "type": "Point", "coordinates": [ 6.904956574687353, 52.73051270576233 ] } },
{ "type": "Feature", "properties": { "naam": "zwembad de Wieke", "adres": "Raiffeisenstraat 15", "postcode": "7831 HW", "plaats": "Nieuw-Weerdinge" }, "geometry": { "type": "Point", "coordinates": [ 6.983714202160616, 52.858274528095691 ] } },
{ "type": "Feature", "properties": { "naam": "Bosbad Noord-Sleen", "adres": "'t Haantje 86", "postcode": "7846 TK", "plaats": "Noord-Sleen" }, "geometry": { "type": "Point", "coordinates": [ 6.804932083094581, 52.803928423922414 ] } },
{ "type": "Feature", "properties": { "naam": "Stg. Zwembad Zweeloo", "adres": "Hoofdstraat 4", "postcode": "7851 AA", "plaats": "Zweeloo" }, "geometry": { "type": "Point", "coordinates": [ 6.725073863551345, 52.793877695897486 ] } },
{ "type": "Feature", "properties": { "naam": "Het Bosbad", "adres": "Toldijk 20B", "postcode": "7864 TL", "plaats": "Zwinderen" }, "geometry": { "type": "Point", "coordinates": [ 6.668746622925138, 52.724985594699319 ] } },
{ "type": "Feature", "properties": { "naam": "De Leewal", "adres": "Zuideinde 36", "postcode": "7875 CD", "plaats": "Exloo" }, "geometry": { "type": "Point", "coordinates": [ 6.859120215759784, 52.869961536703883 ] } },
{ "type": "Feature", "properties": { "naam": "De Zwaoi", "adres": "Noorderdiep 337", "postcode": "7876 CR", "plaats": "Valthermond" }, "geometry": { "type": "Point", "coordinates": [ 6.953838579815637, 52.878201584230041 ] } },
{ "type": "Feature", "properties": { "naam": "STG Openluchtzwembad Emmercompascuum", "adres": "Kijlweg 9", "postcode": "7881 JD", "plaats": "Emmer-Compascuum" }, "geometry": { "type": "Point", "coordinates": [ 7.029887062226407, 52.806657346532972 ] } },
{ "type": "Feature", "properties": { "naam": "Geert Vos Bad", "adres": "Veenschapswijk 5", "postcode": "7887 TZ", "plaats": "Erica" }, "geometry": { "type": "Point", "coordinates": [ 6.925368248091709, 52.714718927976882 ] } },
{ "type": "Feature", "properties": { "naam": "Neptunusbad", "adres": "Boogschutter 23", "postcode": "7891 CP", "plaats": "Klazienaveen" }, "geometry": { "type": "Point", "coordinates": [ 6.990855686374443, 52.731543522947547 ] } },
{ "type": "Feature", "properties": { "naam": "Zwembad de Dolfijn", "adres": "Bentincksdijk 10", "postcode": "7902 NA", "plaats": "Hoogeveen" }, "geometry": { "type": "Point", "coordinates": [ 6.493257713547663, 52.724013617301587 ] } },
{ "type": "Feature", "properties": { "naam": "Zwembad De leeuwerik", "adres": "Leeuweriklaan 7a", "postcode": "7905 CA", "plaats": "Hoogeveen" }, "geometry": { "type": "Point", "coordinates": [ 6.500096829763915, 52.715267841268783 ] } },
{ "type": "Feature", "properties": { "naam": "De Waterlelie", "adres": "Sportlaantje 6", "postcode": "7921 BT", "plaats": "Zuidwolde" }, "geometry": { "type": "Point", "coordinates": [ 6.438499979695343, 52.671402379936282 ] } },
{ "type": "Feature", "properties": { "naam": "Bad Hesselingen", "adres": "Jan Tooroplaan 2", "postcode": "7944 JL", "plaats": "Meppel" }, "geometry": { "type": "Point", "coordinates": [ 6.179249900784956, 52.691116778594207 ] } },
{ "type": "Feature", "properties": { "naam": "De Duker", "adres": "Ds. van Halsemastraat 14", "postcode": "7948 BK", "plaats": "Nijeveen" }, "geometry": { "type": "Point", "coordinates": [ 6.165058890866304, 52.733342567755258 ] } },
{ "type": "Feature", "properties": { "naam": "Zwembad De Broene Eugte", "adres": "JJ Gorterlaan 6", "postcode": "7951 NA", "plaats": "Staphorst" }, "geometry": { "type": "Point", "coordinates": [ 6.225808671444664, 52.627382480531779 ] } },
{ "type": "Feature", "properties": { "naam": "de Slenken", "adres": "Hendrik Tillemaweg 63b", "postcode": "7957 CB", "plaats": "de Wijk" }, "geometry": { "type": "Point", "coordinates": [ 6.298721466364139, 52.676986809334721 ] } },
{ "type": "Feature", "properties": { "naam": "De Duker/Reddingsbrigade De Dukers", "adres": "Pieter Jochemswal 7", "postcode": "7961 DD", "plaats": "Ruinerwold" }, "geometry": { "type": "Point", "coordinates": [ 6.251992152736584, 52.720358236352119 ] } },
{ "type": "Feature", "properties": { "naam": "Engeland", "adres": "Oude Benderseweg 9", "postcode": "7963 PX", "plaats": "Ruinen" }, "geometry": { "type": "Point", "coordinates": [ 6.368775201408723, 52.773996640386329 ] } },
{ "type": "Feature", "properties": { "naam": "de Kerkvlekken", "adres": "Havelter Schapendrift 9", "postcode": "7971 BA", "plaats": "Havelte" }, "geometry": { "type": "Point", "coordinates": [ 6.240097401207426, 52.773163147893449 ] } },
{ "type": "Feature", "properties": { "naam": "Zwembad de Paasbergen", "adres": "Anserpad 2", "postcode": "7991 SC", "plaats": "Dwingeloo" }, "geometry": { "type": "Point", "coordinates": [ 6.366941643970548, 52.81989164491457 ] } },
{ "type": "Feature", "properties": { "naam": "Hanzebad", "adres": "Hanzelaan 300", "postcode": "8017 JJ", "plaats": "Zwolle" }, "geometry": { "type": "Point", "coordinates": [ 6.092256849215953, 52.503566602441509 ] } },
{ "type": "Feature", "properties": { "naam": "Openluchtbad Zwolle", "adres": "Ceintuurbaan 1", "postcode": "8023 XK", "plaats": "Zwolle" }, "geometry": { "type": "Point", "coordinates": [ 6.118681972946343, 52.517067731350565 ] } },
{ "type": "Feature", "properties": { "naam": "Bubbels", "adres": "Sportlaan 2", "postcode": "8044 PG", "plaats": "Zwolle" }, "geometry": { "type": "Point", "coordinates": [ 6.041566226007863, 52.54157782125445 ] } },
{ "type": "Feature", "properties": { "naam": "De Marke", "adres": "Daendelsweg 2A", "postcode": "8051 DX", "plaats": "Hattem" }, "geometry": { "type": "Point", "coordinates": [ 6.069876576583162, 52.467782991407773 ] } },
{ "type": "Feature", "properties": { "naam": "Arien Prins van Wijngaarden", "adres": "Veerweg 2", "postcode": "8061 RA", "plaats": "Hasselt" }, "geometry": { "type": "Point", "coordinates": [ 6.08650577550707, 52.588658547183492 ] } },
{ "type": "Feature", "properties": { "naam": "de kragge", "adres": "Julianastraat 24a", "postcode": "8064 CD", "plaats": "Zwartsluis" }, "geometry": { "type": "Point", "coordinates": [ 6.067617938871448, 52.64409444557544 ] } },
{ "type": "Feature", "properties": { "naam": "Sportcentrum De Brake", "adres": "Oosteinderweg 19", "postcode": "8072 ZN", "plaats": "Nunspeet" }, "geometry": { "type": "Point", "coordinates": [ 5.793684071165456, 52.386016066392031 ] } },
{ "type": "Feature", "properties": { "naam": "De Hokseberg", "adres": "Wolkamerweg 42", "postcode": "8084 GD", "plaats": "'t Harde" }, "geometry": { "type": "Point", "coordinates": [ 5.873803302165257, 52.418698445305289 ] } },
{ "type": "Feature", "properties": { "naam": "De Veldkamp", "adres": "Oude Keizersweg 2", "postcode": "8091 BR", "plaats": "Wezep" }, "geometry": { "type": "Point", "coordinates": [ 5.998014411509692, 52.456913658515965 ] } },
{ "type": "Feature", "properties": { "naam": "Tijenraan", "adres": "Zwolsestraat 68a", "postcode": "8101 AE", "plaats": "Raalte" }, "geometry": { "type": "Point", "coordinates": [ 6.2688798542151, 52.394395498968635 ] } },
{ "type": "Feature", "properties": { "naam": "t Siel", "adres": "Heuvelweg 38", "postcode": "8105 SZ", "plaats": "Luttenberg" }, "geometry": { "type": "Point", "coordinates": [ 6.362692650762642, 52.39986141011159 ] } },
{ "type": "Feature", "properties": { "naam": "De Oase", "adres": "Dorpsstraat 1G", "postcode": "8111 AA", "plaats": "Heeten" }, "geometry": { "type": "Point", "coordinates": [ 6.283795580415438, 52.335735258764039 ] } },
{ "type": "Feature", "properties": { "naam": "De Welters", "adres": "Zandhuisweg 2", "postcode": "8131 SP", "plaats": "Wijhe" }, "geometry": { "type": "Point", "coordinates": [ 6.138957892781011, 52.377936245950387 ] } },
{ "type": "Feature", "properties": { "naam": "De Tippe", "adres": "Brinkweg 11", "postcode": "8141 NA", "plaats": "Heino" }, "geometry": { "type": "Point", "coordinates": [ 6.223375485849611, 52.435494790400071 ] } },
{ "type": "Feature", "properties": { "naam": "De Koekoek", "adres": "Koekoeksweg 24", "postcode": "8171 VH", "plaats": "Vaassen" }, "geometry": { "type": "Point", "coordinates": [ 5.959154874554393, 52.285899773782262 ] } },
{ "type": "Feature", "properties": { "naam": "berghuizer bad", "adres": "revelingseweg 2", "postcode": "8191 KR", "plaats": "Wapenveld" }, "geometry": { "type": "Point", "coordinates": [ 6.058888869371215, 52.41485426358259 ] } },
{ "type": "Feature", "properties": { "naam": "De Koploper", "adres": "Badweg 21", "postcode": "8223 PA", "plaats": "Lelystad" }, "geometry": { "type": "Point", "coordinates": [ 5.494872673206348, 52.51906794831001 ] } },
{ "type": "Feature", "properties": { "naam": "zwembad overboord", "adres": "educalaan 30", "postcode": "8251 GC", "plaats": "Dronten" }, "geometry": { "type": "Point", "coordinates": [ 5.706932301017349, 52.524347728061869 ] } },
{ "type": "Feature", "properties": { "naam": "De Abelen", "adres": "Noordhoren 32", "postcode": "8255 BD", "plaats": "Swifterbant" }, "geometry": { "type": "Point", "coordinates": [ 5.635336793422853, 52.568952168147007 ] } },
{ "type": "Feature", "properties": { "naam": "De Alk", "adres": "Sportlaan 4", "postcode": "8256 CE", "plaats": "Biddinghuizen" }, "geometry": { "type": "Point", "coordinates": [ 5.686331018667636, 52.452295600293418 ] } },
{ "type": "Feature", "properties": { "naam": "EuroParcs Resort Zuiderzee", "adres": "Spijkweg 15", "postcode": "8256 RJ", "plaats": "Biddinghuizen" }, "geometry": { "type": "Point", "coordinates": [ 5.793930723416354, 52.446474676640143 ] } },
{ "type": "Feature", "properties": { "naam": "Sportfondsenbad De Steur", "adres": "Broedersingel 1", "postcode": "8261 GH", "plaats": "Kampen" }, "geometry": { "type": "Point", "coordinates": [ 5.912648712597132, 52.554360708120143 ] } },
{ "type": "Feature", "properties": { "naam": "Sportcentrum Sonnenberch", "adres": "Oosterholtseweg 18b", "postcode": "8271 PT", "plaats": "IJsselmuiden" }, "geometry": { "type": "Point", "coordinates": [ 5.937352562193481, 52.56311930552797 ] } },
{ "type": "Feature", "properties": { "naam": "Bestevaer", "adres": "Prins Clausstraat 2b", "postcode": "8281 DC", "plaats": "Genemuiden" }, "geometry": { "type": "Point", "coordinates": [ 6.040892157590716, 52.61642872825675 ] } },
{ "type": "Feature", "properties": { "naam": "Bosbad", "adres": "Boslaan 30", "postcode": "8302 AB", "plaats": "Emmeloord" }, "geometry": { "type": "Point", "coordinates": [ 5.754982939388541, 52.71698279130063 ] } },
{ "type": "Feature", "properties": { "naam": "Zwembad 't Bun", "adres": "Staartweg 30", "postcode": "8321 NB", "plaats": "Urk" }, "geometry": { "type": "Point", "coordinates": [ 5.599264584288809, 52.668059959504767 ] } },
{ "type": "Feature", "properties": { "naam": "Zwembad Vollenhove", "adres": "Flevoweg 3", "postcode": "8325 PA", "plaats": "Vollenhove" }, "geometry": { "type": "Point", "coordinates": [ 5.95219934245193, 52.683541689988395 ] } },
{ "type": "Feature", "properties": { "naam": "De Waterwyck", "adres": "Gagelsweg 25", "postcode": "8331 CM", "plaats": "Steenwijk" }, "geometry": { "type": "Point", "coordinates": [ 6.131463719056564, 52.788189880845863 ] } },
{ "type": "Feature", "properties": { "naam": "Musculus Sport & Wellness Centrum", "adres": "Middenweg 18", "postcode": "8332 CZ", "plaats": "Steenwijk" }, "geometry": { "type": "Point", "coordinates": [ 6.13941863736366, 52.790458572928337 ] } },
{ "type": "Feature", "properties": { "naam": "zwembad 't Tolhekke", "adres": "Oldemarktseweg 233", "postcode": "8342 SC", "plaats": "Basse" }, "geometry": { "type": "Point", "coordinates": [ 6.025186007439898, 52.810159309988016 ] } },
{ "type": "Feature", "properties": { "naam": "Bosbad Vledder", "adres": "Vledderweg 21", "postcode": "8381 AB", "plaats": "Vledder" }, "geometry": { "type": "Point", "coordinates": [ 6.198575114372572, 52.851568493802887 ] } },
{ "type": "Feature", "properties": { "naam": "De Dobbe", "adres": "Elsweg 4", "postcode": "8391 KB", "plaats": "Noordwolde" }, "geometry": { "type": "Point", "coordinates": [ 6.134684530970563, 52.88391626937733 ] } },
{ "type": "Feature", "properties": { "naam": "Sport- en Recreatiecentrum 'Kortezwaag'", "adres": "Mientewei 2", "postcode": "8401 AA", "plaats": "Gorredijk" }, "geometry": { "type": "Point", "coordinates": [ 6.066338278270107, 52.99706160113854 ] } },
{ "type": "Feature", "properties": { "naam": "De Wispel", "adres": "De wispel 16", "postcode": "8406 AZ", "plaats": "Tijnje" }, "geometry": { "type": "Point", "coordinates": [ 5.998221824637096, 53.023399729853388 ] } },
{ "type": "Feature", "properties": { "naam": "Zwembad Hemrik", "adres": "Compagnonsfeart 38", "postcode": "8409 CR", "plaats": "Hemrik" }, "geometry": { "type": "Point", "coordinates": [ 6.13864650826541, 53.027731100936137 ] } },
{ "type": "Feature", "properties": { "naam": "Zwembad Jubbega", "adres": "Leidijk 18", "postcode": "8411 ZM", "plaats": "Jubbega" }, "geometry": { "type": "Point", "coordinates": [ 6.125503979663013, 52.99110326003764 ] } },
{ "type": "Feature", "properties": { "naam": "Bosbad Appelscha", "adres": "Schapendrift 49", "postcode": "8426 GG", "plaats": "Appelscha" }, "geometry": { "type": "Point", "coordinates": [ 6.348793988238418, 52.943143637251666 ] } },
{ "type": "Feature", "properties": { "naam": "Sportcomplex Boekhorst", "adres": "De Haer 1", "postcode": "8431 GS", "plaats": "Oosterwolde" }, "geometry": { "type": "Point", "coordinates": [ 6.293600540120068, 52.985327659447563 ] } },
{ "type": "Feature", "properties": { "naam": "zwembad Haulewelle", "adres": "Kerkstraat 19a", "postcode": "8433 LJ", "plaats": "Haulerwijk" }, "geometry": { "type": "Point", "coordinates": [ 6.32405748181907, 53.059547027980251 ] } },
{ "type": "Feature", "properties": { "naam": "Sportstad Heerenveen", "adres": "Abe Lenstra boulevard 23q", "postcode": "8448 JA", "plaats": "Heerenveen" }, "geometry": { "type": "Point", "coordinates": [ 5.937322698467939, 52.957232232929869 ] } },
{ "type": "Feature", "properties": { "naam": "De Steense", "adres": "Deken Vaasstraat 15", "postcode": "8472 AA", "plaats": "Wolvega" }, "geometry": { "type": "Point", "coordinates": [ 6.005790650567527, 52.880699954498965 ] } },
{ "type": "Feature", "properties": { "naam": "Leppehiem Mienskipssintrum", "adres": "Leppedyk 37", "postcode": "8491 GJ", "plaats": "Akkrum" }, "geometry": { "type": "Point", "coordinates": [ 5.835179911932516, 53.051313777207746 ] } },
{ "type": "Feature", "properties": { "naam": "Swimfun", "adres": "Sewei 3", "postcode": "8501 SP", "plaats": "Joure" }, "geometry": { "type": "Point", "coordinates": [ 5.799389597878482, 52.957122819171389 ] } },
{ "type": "Feature", "properties": { "naam": "Zwembad Suderse", "adres": "Industrieweg 2a", "postcode": "8531 PA", "plaats": "Lemmer" }, "geometry": { "type": "Point", "coordinates": [ 5.701564495584903, 52.843921219993682 ] } },
{ "type": "Feature", "properties": { "naam": "Zwembad De Baron", "adres": "Meerenstein 1", "postcode": "8563 AV", "plaats": "Wijckel" }, "geometry": { "type": "Point", "coordinates": [ 5.621829002589646, 52.893144296670222 ] } },
{ "type": "Feature", "properties": { "naam": "Zwem en Recreatiebad It Rak", "adres": "Burgemeester de Hooppark 4", "postcode": "8605 CR", "plaats": "Sneek" }, "geometry": { "type": "Point", "coordinates": [ 5.673384429596859, 53.035006259632723 ] } },
{ "type": "Feature", "properties": { "naam": "Zwembad Vitaloo", "adres": "Badweg 5", "postcode": "8701 XG", "plaats": "Bolsward" }, "geometry": { "type": "Point", "coordinates": [ 5.528292056925869, 53.063050326934615 ] } },
{ "type": "Feature", "properties": { "naam": "de Rolpeal", "adres": "Weverswei 2", "postcode": "8711 GP", "plaats": "Workum" }, "geometry": { "type": "Point", "coordinates": [ 5.450239938499347, 52.976688660764474 ] } },
{ "type": "Feature", "properties": { "naam": "Recreatiepark De Kuilart", "adres": "De Kuilart 1", "postcode": "8723 CG", "plaats": "Koudum" }, "geometry": { "type": "Point", "coordinates": [ 5.468188468565778, 52.901696001845274 ] } },
{ "type": "Feature", "properties": { "naam": "Stichting Zwembad Littenseradiel", "adres": "Walperterwei 27A", "postcode": "8731 CD", "plaats": "Wommels" }, "geometry": { "type": "Point", "coordinates": [ 5.588690193255689, 53.111038598716085 ] } },
{ "type": "Feature", "properties": { "naam": "Zwembad Mounewetter", "adres": "Mouneplein 5", "postcode": "8748 DT", "plaats": "Witmarsum" }, "geometry": { "type": "Point", "coordinates": [ 5.469856308226977, 53.099138618222625 ] } },
{ "type": "Feature", "properties": { "naam": "Zwembad Bloemketerp", "adres": "Burgemeester J Dijkstraweg 11", "postcode": "8801 PG", "plaats": "Franeker" }, "geometry": { "type": "Point", "coordinates": [ 5.552463403346775, 53.18985421127887 ] } },
{ "type": "Feature", "properties": { "naam": "Sportcentrum Shape", "adres": "Het Want 5", "postcode": "8802 PV", "plaats": "Franeker" }, "geometry": { "type": "Point", "coordinates": [ 5.543009764387031, 53.198582929637475 ] } },
{ "type": "Feature", "properties": { "naam": "Derde Haad", "adres": "Kimswerderweg 43", "postcode": "8862 TR", "plaats": "Harlingen" }, "geometry": { "type": "Point", "coordinates": [ 5.428368984775664, 53.163426494722422 ] } },
{ "type": "Feature", "properties": { "naam": "Sportfondsenbad De Dobe", "adres": "sportlaan 7", "postcode": "8881 EP", "plaats": "West-Terschelling" }, "geometry": { "type": "Point", "coordinates": [ 5.221752449886453, 53.371089211265193 ] } },
{ "type": "Feature", "properties": { "naam": "Flidunen", "adres": "De Uitlegger 2", "postcode": "8899 CE", "plaats": "Vlieland" }, "geometry": { "type": "Point", "coordinates": [ 5.077476643696575, 53.300477062062491 ] } },
{ "type": "Feature", "properties": { "naam": "De Blauwe Golf", "adres": "Jelsumerstraat 12", "postcode": "8917 EN", "plaats": "Leeuwarden" }, "geometry": { "type": "Point", "coordinates": [ 5.789624816904095, 53.212691459224303 ] } },
{ "type": "Feature", "properties": { "naam": "Kalverdijkje", "adres": "Kalverdijkje 77A", "postcode": "8924 JJ", "plaats": "Leeuwarden" }, "geometry": { "type": "Point", "coordinates": [ 5.825809562247322, 53.211728945258102 ] } },
{ "type": "Feature", "properties": { "naam": "Leeuwarden Training & Wellness Center", "adres": "Tijsmaweg 4", "postcode": "8924 JP", "plaats": "Leeuwarden" }, "geometry": { "type": "Point", "coordinates": [ 5.829702504481837, 53.211840447652925 ] } },
{ "type": "Feature", "properties": { "naam": "Zwembad Waadhoeke", "adres": "Rypsterdyk 23", "postcode": "9036 JE", "plaats": "Menaam" }, "geometry": { "type": "Point", "coordinates": [ 5.655668114021856, 53.205194688966337 ] } },
{ "type": "Feature", "properties": { "naam": "It Gryn", "adres": "Ieleane 1", "postcode": "9051 LP", "plaats": "Stiens" }, "geometry": { "type": "Point", "coordinates": [ 5.769971356340483, 53.261763084525626 ] } },
{ "type": "Feature", "properties": { "naam": "De Sawn Doarpen", "adres": "Rinia van Nautaweg 57a", "postcode": "9061 AD", "plaats": "Gytsjerk" }, "geometry": { "type": "Point", "coordinates": [ 5.893428178816748, 53.244188452986982 ] } },
{ "type": "Feature", "properties": { "naam": "openluchtzwembad De Sawn Stjerren", "adres": "It Blikkelân 17", "postcode": "9074 CM", "plaats": "Hallum" }, "geometry": { "type": "Point", "coordinates": [ 5.783373298542534, 53.304714929013677 ] } },
{ "type": "Feature", "properties": { "naam": "De Bildtse Slaghal", "adres": "Hartman Sannesstraat 9", "postcode": "9076 EB", "plaats": "St.-Annaparochie" }, "geometry": { "type": "Point", "coordinates": [ 5.653141827025931, 53.273777785907107 ] } },
{ "type": "Feature", "properties": { "naam": "Optisport Dongeradeel BV", "adres": "Tolhuispark 2", "postcode": "9103 SN", "plaats": "Dokkum" }, "geometry": { "type": "Point", "coordinates": [ 5.997309633540344, 53.314961053346927 ] } },
{ "type": "Feature", "properties": { "naam": "De Schalken", "adres": "Strandweg 20", "postcode": "9162 EV", "plaats": "Ballum" }, "geometry": { "type": "Point", "coordinates": [ 5.688545150815314, 53.451393448940379 ] } },
{ "type": "Feature", "properties": { "naam": "De Golfslag", "adres": "Klein Vaarwaterweg 14", "postcode": "9164 MA", "plaats": "Buren" }, "geometry": { "type": "Point", "coordinates": [ 5.804373899714583, 53.453401974346278 ] } },
{ "type": "Feature", "properties": { "naam": "De Dunatter", "adres": "Duinpad 10", "postcode": "9166 NL", "plaats": "Schiermonnikoog" }, "geometry": { "type": "Point", "coordinates": [ 6.164655757494828, 53.482883664001662 ] } },
{ "type": "Feature", "properties": { "naam": "De Welle", "adres": "Reidingweg 6", "postcode": "9203 KR", "plaats": "Drachten" }, "geometry": { "type": "Point", "coordinates": [ 6.093198078494071, 53.100113938845446 ] } },
{ "type": "Feature", "properties": { "naam": "Zwembad Wettervlecke", "adres": "Badlaan 2", "postcode": "9231 BA", "plaats": "Surhuisterveen" }, "geometry": { "type": "Point", "coordinates": [ 6.161307454980197, 53.179426984822442 ] } },
{ "type": "Feature", "properties": { "naam": "Dundelle", "adres": "Mjûmster Wei 16", "postcode": "9243 SK", "plaats": "Bakkeveen" }, "geometry": { "type": "Point", "coordinates": [ 6.264981042894526, 53.081364661971385 ] } },
{ "type": "Feature", "properties": { "naam": "Zwembad Talant", "adres": "De Wissel 1", "postcode": "9244 EW", "plaats": "Beetsterzwaag" }, "geometry": { "type": "Point", "coordinates": [ 6.077990379707844, 53.053617990794763 ] } },
{ "type": "Feature", "properties": { "naam": "Zwembad De Blauwe Kamp", "adres": "Blauwe Kampwei 10B", "postcode": "9245 HN", "plaats": "Nij Beets" }, "geometry": { "type": "Point", "coordinates": [ 5.990511472096333, 53.065988787694991 ] } },
{ "type": "Feature", "properties": { "naam": "De Wetterstins", "adres": "Lauermanstraat 16B", "postcode": "9251 BA", "plaats": "Burgum" }, "geometry": { "type": "Point", "coordinates": [ 5.9950088337939, 53.196451966636587 ] } },
{ "type": "Feature", "properties": { "naam": "Zwembad de Kûpe", "adres": "Kuipersweg 74b", "postcode": "9285 SW", "plaats": "Buitenpost" }, "geometry": { "type": "Point", "coordinates": [ 6.149143512125421, 53.248885072826326 ] } },
{ "type": "Feature", "properties": { "naam": "It Paradyste", "adres": "Badweg 2", "postcode": "9291 MN", "plaats": "Kollum" }, "geometry": { "type": "Point", "coordinates": [ 6.131213541674453, 53.267328481807283 ] } },
{ "type": "Feature", "properties": { "naam": "Zwemschool Splash", "adres": "Willem Lodewijkstraat 47", "postcode": "9291 MZ", "plaats": "Kollum" }, "geometry": { "type": "Point", "coordinates": [ 6.149729190843779, 53.281203113421029 ] } },
{ "type": "Feature", "properties": { "naam": "Sportcentrum de Hullen", "adres": "Ceintuurbaan zuid 6", "postcode": "9301 HX", "plaats": "Roden" }, "geometry": { "type": "Point", "coordinates": [ 6.424216549401783, 53.131700781595761 ] } },
{ "type": "Feature", "properties": { "naam": "Zomerbad Peize", "adres": "Smeerveensedijk 2", "postcode": "9321 XB", "plaats": "Peize" }, "geometry": { "type": "Point", "coordinates": [ 6.485857467591438, 53.144316654364459 ] } },
{ "type": "Feature", "properties": { "naam": "Stichting Molenduinbad Norg", "adres": "Eenerstraat 52", "postcode": "9331 HD", "plaats": "Norg" }, "geometry": { "type": "Point", "coordinates": [ 6.447742586144823, 53.069110110609053 ] } },
{ "type": "Feature", "properties": { "naam": "Zwembad Veenhuizen", "adres": "Hoofdweg 80", "postcode": "9341 BK", "plaats": "Veenhuizen" }, "geometry": { "type": "Point", "coordinates": [ 6.398667575310045, 53.029283706303303 ] } },
{ "type": "Feature", "properties": { "naam": "Zwemkasteel Nienoord", "adres": "Nienoord 10", "postcode": "9351 AC", "plaats": "Leek" }, "geometry": { "type": "Point", "coordinates": [ 6.397548716169045, 53.167721308588298 ] } },
{ "type": "Feature", "properties": { "naam": "Openluchtzwembad Wotterwille", "adres": "langestraat 86", "postcode": "9363 BX", "plaats": "Marum" }, "geometry": { "type": "Point", "coordinates": [ 6.261581020403086, 53.144455468234405 ] } },
{ "type": "Feature", "properties": { "naam": "De Bonte Wever", "adres": "Stadsbroek 17", "postcode": "9405 BK", "plaats": "Assen" }, "geometry": { "type": "Point", "coordinates": [ 6.542151497144467, 52.984118994187611 ] } },
{ "type": "Feature", "properties": { "naam": "Zwembad de Peppel", "adres": "'t Spiek 4", "postcode": "9411 KV", "plaats": "Beilen" }, "geometry": { "type": "Point", "coordinates": [ 6.511191428756585, 52.855403893475852 ] } },
{ "type": "Feature", "properties": { "naam": "De Smelte", "adres": "Boerenlaan 7", "postcode": "9422 JK", "plaats": "Smilde" }, "geometry": { "type": "Point", "coordinates": [ 6.44463099360078, 52.941893265057388 ] } },
{ "type": "Feature", "properties": { "naam": "Het Bosbad", "adres": "Bosweg 13E", "postcode": "9423 PZ", "plaats": "Hoogersmilde" }, "geometry": { "type": "Point", "coordinates": [ 6.382926534686829, 52.904930028499024 ] } },
{ "type": "Feature", "properties": { "naam": "Zwembad De Boskamp", "adres": "Beilerstraat 11C", "postcode": "9431 GA", "plaats": "Westerbork" }, "geometry": { "type": "Point", "coordinates": [ 6.597307181818274, 52.853276045997525 ] } },
{ "type": "Feature", "properties": { "naam": "Hof van Saksen", "adres": "Veldweg 22", "postcode": "9449 PW", "plaats": "Nooitgedacht" }, "geometry": { "type": "Point", "coordinates": [ 6.673149645269261, 52.968419758276113 ] } },
{ "type": "Feature", "properties": { "naam": "Zwembad Zwanemeer Gieten", "adres": "Boddeveld 8", "postcode": "9461 JB", "plaats": "Gieten" }, "geometry": { "type": "Point", "coordinates": [ 6.769640031991095, 53.003956851076836 ] } },
{ "type": "Feature", "properties": { "naam": "De Borghoorns", "adres": "Ronkelskamp 40", "postcode": "9468 EP", "plaats": "Annen" }, "geometry": { "type": "Point", "coordinates": [ 6.713717697174202, 53.056949488734588 ] } },
{ "type": "Feature", "properties": { "naam": "Aqualaren", "adres": "Wilhelminalaan 1", "postcode": "9471 KN", "plaats": "Zuidlaren" }, "geometry": { "type": "Point", "coordinates": [ 6.68062360334065, 53.089206546015483 ] } },
{ "type": "Feature", "properties": { "naam": "De Leemdobben", "adres": "Sportlaan 6", "postcode": "9481 AJ", "plaats": "Vries" }, "geometry": { "type": "Point", "coordinates": [ 6.584559772588585, 53.075503350598801 ] } },
{ "type": "Feature", "properties": { "naam": "Zwembad Noord", "adres": "Noorderdiep 30", "postcode": "9501 XC", "plaats": "Stadskanaal" }, "geometry": { "type": "Point", "coordinates": [ 6.919435088094181, 53.010345556019033 ] } },
{ "type": "Feature", "properties": { "naam": "Euroase Pagedal", "adres": "Hoveniersweg 1", "postcode": "9502 BW", "plaats": "Stadskanaal" }, "geometry": { "type": "Point", "coordinates": [ 6.978609255742529, 52.994886722685237 ] } },
{ "type": "Feature", "properties": { "naam": "De Buiner Streng", "adres": "Zuiderdiep 114", "postcode": "9521 AW", "plaats": "Nieuw-Buinen" }, "geometry": { "type": "Point", "coordinates": [ 6.939935558758267, 52.958051496230773 ] } },
{ "type": "Feature", "properties": { "naam": "Hunzedal", "adres": "De Drift 3", "postcode": "9531 TK", "plaats": "Borger" }, "geometry": { "type": "Point", "coordinates": [ 6.805422903289291, 52.92246172000862 ] } },
{ "type": "Feature", "properties": { "naam": "Parc Emslandermeer", "adres": "Laan van Westerwolde 15", "postcode": "9541 ZA", "plaats": "Vlagtwedde" }, "geometry": { "type": "Point", "coordinates": [ 7.108714779799428, 53.035929202994048 ] } },
{ "type": "Feature", "properties": { "naam": "Zwembad de Barkhoorn", "adres": "Dennenweg 1", "postcode": "9551 VJ", "plaats": "Selllingen" }, "geometry": { "type": "Point", "coordinates": [ 7.136126901812487, 52.947125166751036 ] } },
{ "type": "Feature", "properties": { "naam": "Openluchtzwembad Moekesgat", "adres": "Heembadweg 17", "postcode": "9561 CS", "plaats": "Ter Apel" }, "geometry": { "type": "Point", "coordinates": [ 7.060105271205135, 52.884749322355411 ] } },
{ "type": "Feature", "properties": { "naam": "De Horsten", "adres": "Horsten 54", "postcode": "9581 TE", "plaats": "Musselkanaal" }, "geometry": { "type": "Point", "coordinates": [ 7.015191672948323, 52.939055866042047 ] } },
{ "type": "Feature", "properties": { "naam": "t Vlasmeer", "adres": "Landlaan 50", "postcode": "9591 BW", "plaats": "Onstwedde" }, "geometry": { "type": "Point", "coordinates": [ 7.03476966786252, 53.037015486769199 ] } },
{ "type": "Feature", "properties": { "naam": "Sportcentrum De Kalkwijck", "adres": "Nieuweweg 8", "postcode": "9603 BM", "plaats": "Hoogezand" }, "geometry": { "type": "Point", "coordinates": [ 6.761992098866157, 53.155064107902028 ] } },
{ "type": "Feature", "properties": { "naam": "Recreatiepark De Borgmeren", "adres": "Hoofdweg 34", "postcode": "9616 TD", "plaats": "Scharmer" }, "geometry": { "type": "Point", "coordinates": [ 6.706747221488196, 53.198641580189815 ] } },
{ "type": "Feature", "properties": { "naam": "Zwembad de Tobbe", "adres": "Voorborgstraat 9", "postcode": "9621 BR", "plaats": "Slochteren" }, "geometry": { "type": "Point", "coordinates": [ 6.797661238216161, 53.210044698172581 ] } },
{ "type": "Feature", "properties": { "naam": "Zwem- en recreatiebad Tropiqua", "adres": "Jan salwaweg 2", "postcode": "9641 LN", "plaats": "Veendam" }, "geometry": { "type": "Point", "coordinates": [ 6.867918077036403, 53.105199865800017 ] } },
{ "type": "Feature", "properties": { "naam": "D.G. van den Noortbad", "adres": "Kleine Venne 2a", "postcode": "9649 GL", "plaats": "Muntendam" }, "geometry": { "type": "Point", "coordinates": [ 6.872689820606466, 53.135077046107504 ] } },
{ "type": "Feature", "properties": { "naam": "De Kolck", "adres": "Badweg 23", "postcode": "9651 BS", "plaats": "Meeden" }, "geometry": { "type": "Point", "coordinates": [ 6.926705575815067, 53.135293906886268 ] } },
{ "type": "Feature", "properties": { "naam": "Zwembad 'de Watertoren'", "adres": "Watertorenstraat 16", "postcode": "9671 LJ", "plaats": "Winschoten" }, "geometry": { "type": "Point", "coordinates": [ 7.027283851177171, 53.140879676285749 ] } },
{ "type": "Feature", "properties": { "naam": "Zwembad de Ringberg", "adres": "Badhuislaan 6", "postcode": "9679 HK", "plaats": "Scheemda" }, "geometry": { "type": "Point", "coordinates": [ 6.972005243936259, 53.170930972134656 ] } },
{ "type": "Feature", "properties": { "naam": "Zwembad de Hardenberg", "adres": "Hardenberg 5", "postcode": "9684 AM", "plaats": "Finsterwolde" }, "geometry": { "type": "Point", "coordinates": [ 7.082888191309001, 53.186391128253085 ] } },
{ "type": "Feature", "properties": { "naam": "Helperzwembad", "adres": "Moddermanlaan 40", "postcode": "9721 GP", "plaats": "Groningen" }, "geometry": { "type": "Point", "coordinates": [ 6.578765576249267, 53.194912839844761 ] } },
{ "type": "Feature", "properties": { "naam": "De Papiermolen", "adres": "Papiermolenlaan 3", "postcode": "9721 GR", "plaats": "Groningen" }, "geometry": { "type": "Point", "coordinates": [ 6.569549893736712, 53.203747856296829 ] } },
{ "type": "Feature", "properties": { "naam": "Zwemschool Rob Sports", "adres": "Overloop 51", "postcode": "9732 HZ", "plaats": "Groningen" }, "geometry": { "type": "Point", "coordinates": [ 6.619889224632026, 53.235960858193998 ] } },
{ "type": "Feature", "properties": { "naam": "Kardinge", "adres": "Kardingerplein 1", "postcode": "9735 AA", "plaats": "Groningen" }, "geometry": { "type": "Point", "coordinates": [ 6.596369049816062, 53.237943472033692 ] } },
{ "type": "Feature", "properties": { "naam": "Zwembad de Parrel", "adres": "Eikenlaan 290", "postcode": "9741 EW", "plaats": "Groningen" }, "geometry": { "type": "Point", "coordinates": [ 6.548055090538521, 53.231536946579276 ] } },
{ "type": "Feature", "properties": { "naam": "Hoogkerk", "adres": "Hoendiep 185a", "postcode": "9745 EC", "plaats": "Groningen" }, "geometry": { "type": "Point", "coordinates": [ 6.504381120908254, 53.216953326901731 ] } },
{ "type": "Feature", "properties": { "naam": "Scharlakenhof", "adres": "Geertsemaweg 3", "postcode": "9751 XA", "plaats": "Haren Gn" }, "geometry": { "type": "Point", "coordinates": [ 6.625889709574308, 53.160511014283308 ] } },
{ "type": "Feature", "properties": { "naam": "Lemferdinge", "adres": "Lemferdingerlaan 1", "postcode": "9765 AR", "plaats": "Paterswolde" }, "geometry": { "type": "Point", "coordinates": [ 6.573460255511229, 53.146590886349088 ] } },
{ "type": "Feature", "properties": { "naam": "Zwembad De Beemden", "adres": "Sportlaan 22", "postcode": "9781 CL", "plaats": "Bedum" }, "geometry": { "type": "Point", "coordinates": [ 6.589652410220419, 53.304976606073637 ] } },
{ "type": "Feature", "properties": { "naam": "de Blinkerd", "adres": "Sportlaan 1", "postcode": "9791 LX", "plaats": "Ten Boer" }, "geometry": { "type": "Point", "coordinates": [ 6.699534885562937, 53.278557078378476 ] } },
{ "type": "Feature", "properties": { "naam": "Zwembad Eekeburen", "adres": "Eekebuursterweg 1", "postcode": "9821 PA", "plaats": "Oldekerk" }, "geometry": { "type": "Point", "coordinates": [ 6.34396687456058, 53.221098411487077 ] } },
{ "type": "Feature", "properties": { "naam": "De Griffioen", "adres": "Burmanniastraat 35", "postcode": "9843 EJ", "plaats": "Grijpskerk" }, "geometry": { "type": "Point", "coordinates": [ 6.304337991163364, 53.260047589439544 ] } },
{ "type": "Feature", "properties": { "naam": "Zwembad De Woldzoom", "adres": "Provincialeweg 139", "postcode": "9863 PE", "plaats": "Doezum" }, "geometry": { "type": "Point", "coordinates": [ 6.261641796936638, 53.205210274418462 ] } },
{ "type": "Feature", "properties": { "naam": "Electra", "adres": "Teenstraweg 4", "postcode": "9885 TA", "plaats": "Lauwerzijl" }, "geometry": { "type": "Point", "coordinates": [ 6.352370762823866, 53.313793198254572 ] } },
{ "type": "Feature", "properties": { "naam": "K.P. Zijlbad", "adres": "Badweg 16", "postcode": "9919 JC", "plaats": "Loppersum" }, "geometry": { "type": "Point", "coordinates": [ 6.742741878011154, 53.334269187559634 ] } },
{ "type": "Feature", "properties": { "naam": "Dubbelslag", "adres": "Zwet 60", "postcode": "9932 BT", "plaats": "Delfzijl" }, "geometry": { "type": "Point", "coordinates": [ 6.887093160916338, 53.321393506873655 ] } },
{ "type": "Feature", "properties": { "naam": "De Hoge Vier", "adres": "Wierdaweg 2b", "postcode": "9951 TM", "plaats": "Winsum" }, "geometry": { "type": "Point", "coordinates": [ 6.511870040758902, 53.329246184033082 ] } },
{ "type": "Feature", "properties": { "naam": "De Marne", "adres": "Breekweg 1", "postcode": "9965 TE", "plaats": "Leens" }, "geometry": { "type": "Point", "coordinates": [ 6.374087128013172, 53.361825507005584 ] } },
{ "type": "Feature", "properties": { "naam": "De Dinge", "adres": "Dingeweg 4", "postcode": "9981 NC", "plaats": "Uithuizen" }, "geometry": { "type": "Point", "coordinates": [ 6.694264463365396, 53.411870933850359 ] } },
{ "type": "Feature", "properties": { "naam": "De Breede", "adres": "Breede 5", "postcode": "9989 TA", "plaats": "Warffum" }, "geometry": { "type": "Point", "coordinates": [ 6.540712329590092, 53.385009161905586 ] } },
{ "type": "Feature", "properties": { "naam": "Middelstum", "adres": "Coendersweg 29", "postcode": "9991 CC", "plaats": "Middelstum" }, "geometry": { "type": "Point", "coordinates": [ 6.642637045618739, 53.343506652217222 ] } }
]
}
